{"type":"FeatureCollection","features":[{"type":"Feature","id":464,"geometry":{"type":"Point","coordinates":[80.150000000000034,6.5300000000000296]},"properties":{"objectid":464,"station_id":null,"station_name":"AGALAWATTA","station_code":null,"latitude":6.5300000000000002,"longitude":80.150000000000006,"year":" ","description":" ","qualifier":null,"elevation":null}},{"type":"Feature","id":465,"geometry":{"type":"Point","coordinates":[79.86000000000007,7.0600000000000591]},"properties":{"objectid":465,"station_id":null,"station_name":" AMBEKELLE","station_code":null,"latitude":7.0599999999999996,"longitude":79.859999999999999,"year":" ","description":" ","qualifier":null,"elevation":null}},{"type":"Feature","id":466,"geometry":{"type":"Point","coordinates":[81.180000000000064,7.6800000000000637]},"properties":{"objectid":466,"station_id":null,"station_name":"ARALAGANWILA","station_code":null,"latitude":7.6799999999999997,"longitude":81.180000000000007,"year":" ","description":" ","qualifier":null,"elevation":null}},{"type":"Feature","id":467,"geometry":{"type":"Point","coordinates":[80.980000000000075,6.8300000000000409]},"properties":{"objectid":467,"station_id":null,"station_name":"BANDARAWELA","station_code":null,"latitude":6.8300000000000001,"longitude":80.980000000000004,"year":" ","description":" ","qualifier":null,"elevation":null}},{"type":"Feature","id":468,"geometry":{"type":"Point","coordinates":[79.86000000000007,7.3300000000000409]},"properties":{"objectid":468,"station_id":null,"station_name":"BANDIRRIPPUWA (LUNUWILA)","station_code":null,"latitude":7.3300000000000001,"longitude":79.859999999999999,"year":" ","description":" ","qualifier":null,"elevation":null}},{"type":"Feature","id":469,"geometry":{"type":"Point","coordinates":[80.450000000000045,7.5100000000000477]},"properties":{"objectid":469,"station_id":null,"station_name":"BATHALAGODA","station_code":null,"latitude":7.5099999999999998,"longitude":80.450000000000003,"year":" ","description":" ","qualifier":null,"elevation":null}},{"type":"Feature","id":470,"geometry":{"type":"Point","coordinates":[80.020000000000039,6.5600000000000591]},"properties":{"objectid":470,"station_id":null,"station_name":"BOMBUWELA","station_code":null,"latitude":6.5600000000000005,"longitude":80.019999999999996,"year":" ","description":" ","qualifier":null,"elevation":null}},{"type":"Feature","id":471,"geometry":{"type":"Point","coordinates":[80.550000000000068,6.3300000000000409]},"properties":{"objectid":471,"station_id":null,"station_name":"DENIYAYA","station_code":null,"latitude":6.3300000000000001,"longitude":80.549999999999997,"year":" ","description":" ","qualifier":null,"elevation":null}},{"type":"Feature","id":472,"geometry":{"type":"Point","coordinates":[80.057000000000073,6.6760000000000446]},"properties":{"objectid":472,"station_id":null,"station_name":"DIYAGAMA","station_code":null,"latitude":6.6760000000000002,"longitude":80.057000000000002,"year":" ","description":" ","qualifier":null,"elevation":null}},{"type":"Feature","id":473,"geometry":{"type":"Point","coordinates":[81.381000000000085,6.4280000000000541]},"properties":{"objectid":473,"station_id":null,"station_name":"ERAMINIYAYA (ANGUNUKOLAPELASSA)","station_code":null,"latitude":6.4279999999999999,"longitude":81.381,"year":" ","description":" ","qualifier":null,"elevation":null}},{"type":"Feature","id":474,"geometry":{"type":"Point","coordinates":[80.60000000000008,7.2500000000000568]},"properties":{"objectid":474,"station_id":null,"station_name":"GANNORUWA (PERADENIYA)","station_code":null,"latitude":7.25,"longitude":80.599999999999994,"year":" ","description":" ","qualifier":null,"elevation":null}},{"type":"Feature","id":475,"geometry":{"type":"Point","coordinates":[81.080000000000041,7.4000000000000341]},"properties":{"objectid":475,"station_id":null,"station_name":" GIRADURUKOTTE","station_code":null,"latitude":7.4000000000000004,"longitude":81.079999999999998,"year":" ","description":" ","qualifier":null,"elevation":null}},{"type":"Feature","id":476,"geometry":{"type":"Point","coordinates":[80.580000000000041,7.0800000000000409]},"properties":{"objectid":476,"station_id":null,"station_name":" KOTHMALE","station_code":null,"latitude":7.0800000000000001,"longitude":80.579999999999998,"year":" ","description":" ","qualifier":null,"elevation":null}},{"type":"Feature","id":477,"geometry":{"type":"Point","coordinates":[80.310000000000059,6.0800000000000409]},"properties":{"objectid":477,"station_id":null,"station_name":"KOTTAWA","station_code":null,"latitude":6.0800000000000001,"longitude":80.310000000000002,"year":" ","description":" ","qualifier":null,"elevation":null}},{"type":"Feature","id":478,"geometry":{"type":"Point","coordinates":[80.680000000000064,7.2600000000000477]},"properties":{"objectid":478,"station_id":null,"station_name":" KUNDASALE","station_code":null,"latitude":7.2599999999999998,"longitude":80.680000000000007,"year":" ","description":" ","qualifier":null,"elevation":null}},{"type":"Feature","id":479,"geometry":{"type":"Point","coordinates":[81.210000000000036,7.6300000000000523]},"properties":{"objectid":479,"station_id":null,"station_name":"MADURU OYA","station_code":null,"latitude":7.6299999999999999,"longitude":81.209999999999994,"year":" ","description":" ","qualifier":null,"elevation":null}},{"type":"Feature","id":480,"geometry":{"type":"Point","coordinates":[80.28000000000003,7.8100000000000591]},"properties":{"objectid":480,"station_id":null,"station_name":" MAHAWA","station_code":null,"latitude":7.8100000000000005,"longitude":80.280000000000001,"year":" ","description":" ","qualifier":null,"elevation":null}},{"type":"Feature","id":481,"geometry":{"type":"Point","coordinates":[79.960000000000036,7.3100000000000591]},"properties":{"objectid":481,"station_id":null,"station_name":"MAKADURA","station_code":null,"latitude":7.3099999999999996,"longitude":79.959999999999994,"year":" ","description":" ","qualifier":null,"elevation":null}},{"type":"Feature","id":482,"geometry":{"type":"Point","coordinates":[80.61000000000007,7.4600000000000364]},"properties":{"objectid":482,"station_id":null,"station_name":"MATHALE,AGROMET","station_code":null,"latitude":7.46,"longitude":80.609999999999999,"year":" ","description":" ","qualifier":null,"elevation":null}},{"type":"Feature","id":483,"geometry":{"type":"Point","coordinates":[81.080000000000041,7.4000000000000341]},"properties":{"objectid":483,"station_id":null,"station_name":"PASSARA-TRI","station_code":null,"latitude":7.4000000000000004,"longitude":81.079999999999998,"year":" ","description":" ","qualifier":null,"elevation":null}},{"type":"Feature","id":484,"geometry":{"type":"Point","coordinates":[80.650000000000034,7.32000000000005]},"properties":{"objectid":484,"station_id":null,"station_name":"POLGOLLA","station_code":null,"latitude":7.3200000000000003,"longitude":80.650000000000006,"year":" ","description":" ","qualifier":null,"elevation":null}},{"type":"Feature","id":485,"geometry":{"type":"Point","coordinates":[80.950000000000045,7.2000000000000455]},"properties":{"objectid":485,"station_id":null,"station_name":"RANDENIGALA","station_code":null,"latitude":7.2000000000000002,"longitude":80.950000000000003,"year":" ","description":" ","qualifier":null,"elevation":null}},{"type":"Feature","id":486,"geometry":{"type":"Point","coordinates":[79.900000000000034,7.5500000000000682]},"properties":{"objectid":486,"station_id":null,"station_name":"RATHMALAGARA","station_code":null,"latitude":7.5499999999999998,"longitude":79.900000000000006,"year":" ","description":" ","qualifier":null,"elevation":null}},{"type":"Feature","id":487,"geometry":{"type":"Point","coordinates":[80.400000000000034,6.6800000000000637]},"properties":{"objectid":487,"station_id":null,"station_name":"RATHNAPURA-TRI","station_code":null,"latitude":6.6799999999999997,"longitude":80.400000000000006,"year":" ","description":" ","qualifier":null,"elevation":null}},{"type":"Feature","id":488,"geometry":{"type":"Point","coordinates":[80.85000000000008,6.2800000000000296]},"properties":{"objectid":488,"station_id":null,"station_name":"SEVANAGALA","station_code":null,"latitude":6.2800000000000002,"longitude":80.849999999999994,"year":" ","description":" ","qualifier":null,"elevation":null}},{"type":"Feature","id":489,"geometry":{"type":"Point","coordinates":[80.800000000000068,6.9300000000000637]},"properties":{"objectid":489,"station_id":null,"station_name":"SEETHAELIYA","station_code":null,"latitude":6.9299999999999997,"longitude":80.799999999999997,"year":" ","description":" ","qualifier":null,"elevation":null}},{"type":"Feature","id":490,"geometry":{"type":"Point","coordinates":[80.660000000000082,6.9300000000000637]},"properties":{"objectid":490,"station_id":null,"station_name":"THALAWAKELLE","station_code":null,"latitude":6.9299999999999997,"longitude":80.659999999999997,"year":" ","description":" ","qualifier":null,"elevation":null}},{"type":"Feature","id":491,"geometry":{"type":"Point","coordinates":[80.810000000000059,6.4200000000000728]},"properties":{"objectid":491,"station_id":null,"station_name":"UDAWALAWE","station_code":null,"latitude":6.4199999999999999,"longitude":80.810000000000002,"year":" ","description":" ","qualifier":null,"elevation":null}},{"type":"Feature","id":492,"geometry":{"type":"Point","coordinates":[81.500000000000057,7.4200000000000728]},"properties":{"objectid":492,"station_id":null,"station_name":"ULHITIYA","station_code":null,"latitude":7.4199999999999999,"longitude":81.5,"year":" ","description":" ","qualifier":null,"elevation":null}},{"type":"Feature","id":493,"geometry":{"type":"Point","coordinates":[80.830000000000041,7.1800000000000637]},"properties":{"objectid":493,"station_id":null,"station_name":"VICTORIA","station_code":null,"latitude":7.1799999999999997,"longitude":80.829999999999998,"year":" ","description":" ","qualifier":null,"elevation":null}},{"type":"Feature","id":494,"geometry":{"type":"Point","coordinates":[81.230000000000075,6.2800000000000296]},"properties":{"objectid":494,"station_id":null,"station_name":"WEERAWILA","station_code":null,"latitude":6.2800000000000002,"longitude":81.230000000000004,"year":" ","description":" ","qualifier":null,"elevation":null}},{"type":"Feature","id":495,"geometry":{"type":"Point","coordinates":[80.966666670000052,6.8166666670000495]},"properties":{"objectid":495,"station_id":null,"station_name":"BANDARAWELA","station_code":null,"latitude":6.81666667,"longitude":80.966666669999995,"year":" ","description":" ","qualifier":null,"elevation":null}},{"type":"Feature","id":496,"geometry":{"type":"Point","coordinates":[80.033333330000062,9.6833333330000642]},"properties":{"objectid":496,"station_id":null,"station_name":"JAFFNA","station_code":null,"latitude":9.68333333,"longitude":80.033333329999991,"year":" ","description":" ","qualifier":null,"elevation":null}},{"type":"Feature","id":497,"geometry":{"type":"Point","coordinates":[80.500000000000057,8.7500000000000568]},"properties":{"objectid":497,"station_id":null,"station_name":"VAVUNIYA","station_code":null,"latitude":8.75,"longitude":80.5,"year":" ","description":" ","qualifier":null,"elevation":null}},{"type":"Feature","id":498,"geometry":{"type":"Point","coordinates":[80.466666670000052,8.1166666670000609]},"properties":{"objectid":498,"station_id":null,"station_name":"MAHA ILLUPPALLAMA","station_code":null,"latitude":8.1166666700000007,"longitude":80.466666669999995,"year":" ","description":" ","qualifier":null,"elevation":null}},{"type":"Feature","id":499,"geometry":{"type":"Point","coordinates":[79.833333330000073,8.0333333330000301]},"properties":{"objectid":499,"station_id":null,"station_name":"PUTTALAM","station_code":null,"latitude":8.0333333300000014,"longitude":79.833333329999988,"year":" ","description":" ","qualifier":null,"elevation":null}},{"type":"Feature","id":500,"geometry":{"type":"Point","coordinates":[80.366666670000029,7.4666666670000268]},"properties":{"objectid":500,"station_id":null,"station_name":"KURUNEGALA","station_code":null,"latitude":7.4666666699999995,"longitude":80.366666670000001,"year":" ","description":" ","qualifier":null,"elevation":null}},{"type":"Feature","id":501,"geometry":{"type":"Point","coordinates":[79.866666670000029,6.9000000000000341]},"properties":{"objectid":501,"station_id":null,"station_name":"COLOMBO","station_code":null,"latitude":6.9000000000000004,"longitude":79.866666670000001,"year":" ","description":" ","qualifier":null,"elevation":null}},{"type":"Feature","id":502,"geometry":{"type":"Point","coordinates":[80.400000000000034,6.6833333330000642]},"properties":{"objectid":502,"station_id":null,"station_name":"RATNAPURA","station_code":null,"latitude":6.68333333,"longitude":80.400000000000006,"year":" ","description":" ","qualifier":null,"elevation":null}},{"type":"Feature","id":503,"geometry":{"type":"Point","coordinates":[81.300000000000068,6.5000000000000568]},"properties":{"objectid":503,"station_id":null,"station_name":"MONARAGALA","station_code":null,"latitude":6.5,"longitude":81.299999999999997,"year":" ","description":" ","qualifier":null,"elevation":null}},{"type":"Feature","id":504,"geometry":{"type":"Point","coordinates":[81.050000000000068,7.8666666670000609]},"properties":{"objectid":504,"station_id":null,"station_name":"POLONNARUWA","station_code":null,"latitude":7.8666666699999999,"longitude":81.049999999999997,"year":" ","description":" ","qualifier":null,"elevation":null}}]}