{"type":"FeatureCollection","features":[{"type":"Feature","id":1,"geometry":{"type":"Point","coordinates":[79.997373300000049,6.4135800000000245]},"properties":{"objectid":1,"name":"ROCK VILLA","address":"NEELISGEWATTA,ALAWATHUGODA,BENTOTA.","rooms":7,"district":"Galle","aga_division":"Bentota Pradeshiya Sabha","ps_mc_uc":"Benthota Divisional Secretariat","logitiute":79.997373299999992,"latitude":6.4135799999999996}},{"type":"Feature","id":2,"geometry":{"type":"Point","coordinates":[80.772374200000058,6.9641218000000435]},"properties":{"objectid":2,"name":"MIRAGE KINGS COTTAGE","address":"NO 111, HAVELOCK DRIVE, OFF UPPER LAKE ROAD,NUWARAELIYA.","rooms":11,"district":"Nuwara Eliya","aga_division":"Nuwara Eliya","ps_mc_uc":"Nugegoda Divisional Secretariat","logitiute":80.772374200000002,"latitude":6.9641218}},{"type":"Feature","id":3,"geometry":{"type":"Point","coordinates":[80.572933000000035,6.8580820000000244]},"properties":{"objectid":3,"name":"DUNKELD BUNGALOW","address":"DUNKEL BUNGALOW, DANKELD ESTATE, DICKOYA","rooms":5,"district":"Nuwara Eliya","aga_division":"Ambalantota Pradeshiya Sabha","ps_mc_uc":"Ambalangoda Divisional Secretariat","logitiute":80.572933000000006,"latitude":6.8580820000000005}},{"type":"Feature","id":4,"geometry":{"type":"Point","coordinates":[80.58098300000006,6.8672710000000734]},"properties":{"objectid":4,"name":"SUMMERVILLE","address":"TEA TRAILS (PVT) LTD, SUMMERVILLE BUNGALOW, SUMMERVILLE, DICKOYA, HATTON.","rooms":5,"district":"Nuwara Eliya","aga_division":"Ambagamuwa Pradeshiya Sabha","ps_mc_uc":"Ambagamuwa Divisional Secretariat","logitiute":80.580983000000003,"latitude":6.8672710000000006}},{"type":"Feature","id":5,"geometry":{"type":"Point","coordinates":[80.465105000000051,5.9638420000000565]},"properties":{"objectid":5,"name":"MIRISSA HILLS","address":"HENWALA ROAD, HENWALA, MIRISSA","rooms":8,"district":"Matara","aga_division":"Galle","ps_mc_uc":"Galle Divisional Secretariat","logitiute":80.465105000000008,"latitude":5.9638419999999996}},{"type":"Feature","id":6,"geometry":{"type":"Point","coordinates":[80.724371000000076,7.9042670000000612]},"properties":{"objectid":6,"name":"WILD GRASS NATURE RESORT","address":"SIGIRIYA","rooms":5,"district":"Matale","aga_division":"Matale","ps_mc_uc":"Matale Divisional Secretariat","logitiute":80.724371000000005,"latitude":7.9042669999999999}},{"type":"Feature","id":7,"geometry":{"type":"Point","coordinates":[80.604130000000055,6.8345410000000584]},"properties":{"objectid":7,"name":"NORWOOD BUNGALOW","address":"TEA TRAILS,NUWARA ELIYA.","rooms":5,"district":"Nuwara Eliya","aga_division":"Nuwara Eliya","ps_mc_uc":"Nuwara Eliya Divisional Secretariat","logitiute":80.604129999999998,"latitude":6.8345410000000006}},{"type":"Feature","id":8,"geometry":{"type":"Point","coordinates":[80.113700000000051,6.1222200000000271]},"properties":{"objectid":8,"name":"VILLA SAFFRON","address":"NO,776,GALLE ROAD,THIRANGAMA,HIKKADUWA","rooms":5,"district":"Galle","aga_division":"Hikkaduwa","ps_mc_uc":"Hikkaduwa Divisional Secretariat","logitiute":80.113699999999994,"latitude":6.1222200000000004}},{"type":"Feature","id":9,"geometry":{"type":"Point","coordinates":[80.599521000000038,7.1449440000000664]},"properties":{"objectid":9,"name":"MOUNT HAVANA LUXURY BOUTIQUE VILLA","address":"P.O. BOX. 28, WATTAHENA, GAMPOLA.","rooms":5,"district":"Kandy","aga_division":"Gampola","ps_mc_uc":"Udapalatha Divisional Secretariat","logitiute":80.59952100000001,"latitude":7.1449439999999997}},{"type":"Feature","id":10,"geometry":{"type":"Point","coordinates":[80.690316000000053,7.8631260000000225]},"properties":{"objectid":10,"name":"LAKE LODGE BOUTIQUE HOTEL","address":"16,DIVISION,WEWA ROAD,KANDALAMA,DAMBULLA","rooms":6,"district":"Matale","aga_division":"Dambulla Pradeshiya Sabha","ps_mc_uc":"Dambulla Divisional Secretariat","logitiute":80.690315999999996,"latitude":7.8631260000000003}},{"type":"Feature","id":11,"geometry":{"type":"Point","coordinates":[80.619447000000036,7.255123000000026]},"properties":{"objectid":11,"name":"MOUNT BATTEN BUNGALOW","address":"BOWALAWATTA,WAITRARAMA,ARANVA ROAD,KANDY","rooms":3,"district":"Kandy","aga_division":"Kandy","ps_mc_uc":"Kandy Divisional Secretariat","logitiute":80.619446999999994,"latitude":7.2551229999999993}},{"type":"Feature","id":12,"geometry":{"type":"Point","coordinates":[80.629261000000042,7.1872290000000589]},"properties":{"objectid":12,"name":"ELLERTON HOTEL","address":"NAWA GURUKELLE, DOLUWA, GAMPOLA","rooms":5,"district":"Kandy","aga_division":"Gampola","ps_mc_uc":"Gampola Divisional Secretariat","logitiute":80.629261,"latitude":7.1872289999999994}},{"type":"Feature","id":13,"geometry":{"type":"Point","coordinates":[80.352821000000063,7.2769540000000461]},"properties":{"objectid":13,"name":"ROSYTH ESTATE HOUSE","address":"ROSYTH ESTATE,PUSSELLA,KEGALLE","rooms":7,"district":"Kegalle","aga_division":"Kegalle","ps_mc_uc":"Kegalle Divisional Secretariat","logitiute":80.352821000000006,"latitude":7.2769540000000008}},{"type":"Feature","id":14,"geometry":{"type":"Point","coordinates":[80.413849000000084,5.9581130000000257]},"properties":{"objectid":14,"name":"ERAELIYA VILLAS AND GARDENS","address":"NO : 299,WALLIWALA,KAPPARATOTA,WELIGAMA.","rooms":7,"district":"Matara","aga_division":"Matara","ps_mc_uc":"Weligama Divisional Secretariat","logitiute":80.413848999999999,"latitude":5.958113}},{"type":"Feature","id":15,"geometry":{"type":"Point","coordinates":[80.007114000000058,6.4308460000000309]},"properties":{"objectid":15,"name":"WATERSIDE BENTOTA","address":"YATHRAMULLA,BENTOTA","rooms":6,"district":"Galle","aga_division":"Bentota Pradeshiya Sabha","ps_mc_uc":"Benthota Divisional Secretariat","logitiute":80.007113999999987,"latitude":6.4308459999999998}},{"type":"Feature","id":16,"geometry":{"type":"Point","coordinates":[80.243972000000042,6.0274350000000254]},"properties":{"objectid":16,"name":"COCO BAY","address":"NO. 4/10, RUMASSALA, UNAWATUNA.","rooms":8,"district":"Galle","aga_division":"Hikkaduwa","ps_mc_uc":"Hikkaduwa Divisional Secretariat","logitiute":80.243971999999999,"latitude":6.0274349999999997}},{"type":"Feature","id":17,"geometry":{"type":"Point","coordinates":[79.928253000000041,6.6589740000000575]},"properties":{"objectid":17,"name":"REEF VILLA & SPA","address":"NO.78,SAMANTHARA RD, WADDUWA","rooms":7,"district":"Kalutara","aga_division":"Kalutara Pradeshiya Sabha","ps_mc_uc":"Wadduwa","logitiute":79.928252999999998,"latitude":6.6589739999999997}},{"type":"Feature","id":18,"geometry":{"type":"Point","coordinates":[79.887256600000057,6.8864696000000549]},"properties":{"objectid":18,"name":"DVILLAS LUXURY","address":"193/1, GNANENDRA MAWATHA, NAWALA","rooms":6,"district":"Colombo","aga_division":"Colombo","ps_mc_uc":"Colombo Divisional Secretariat","logitiute":79.887256600000001,"latitude":6.8864695999999999}},{"type":"Feature","id":19,"geometry":{"type":"Point","coordinates":[80.272774200000072,5.9984781000000567]},"properties":{"objectid":19,"name":"ERA BEACH HOTEL","address":"NO. 834, MATARA ROAD, THALPE","rooms":6,"district":"Galle","aga_division":"Galle","ps_mc_uc":"Galle Divisional Secretariat","logitiute":80.272774200000001,"latitude":5.9984780999999998}},{"type":"Feature","id":20,"geometry":{"type":"Point","coordinates":[80.043303000000037,6.2605780000000664]},"properties":{"objectid":20,"name":"THE RIVER HOUSE","address":"NO.70, UTTAMAGHNA MAWATHA,WALAGEDERA, BALAPITIYA","rooms":5,"district":"Galle","aga_division":"Galle","ps_mc_uc":"Galle Divisional Secretariat","logitiute":80.043303000000009,"latitude":6.2605780000000006}},{"type":"Feature","id":21,"geometry":{"type":"Point","coordinates":[80.345978000000059,6.0208990000000426]},"properties":{"objectid":21,"name":"KAHANDA KANDA","address":"AGULUGAHA, GALLE","rooms":6,"district":"Galle","aga_division":"Galle","ps_mc_uc":"Galle Divisional Secretariat","logitiute":80.345978000000002,"latitude":6.020899}},{"type":"Feature","id":22,"geometry":{"type":"Point","coordinates":[80.272720000000049,6.0417300000000296]},"properties":{"objectid":22,"name":"APA VILLA","address":"78TH MILE POST, MATARA ROAD, THALPE","rooms":5,"district":"Galle","aga_division":"Galle","ps_mc_uc":"Galle Divisional Secretariat","logitiute":80.272720000000007,"latitude":6.0417299999999994}},{"type":"Feature","id":23,"geometry":{"type":"Point","coordinates":[80.828226000000029,6.8977030000000354]},"properties":{"objectid":23,"name":"WARWICK GARDEN","address":"AMBEWELA DIVISION, WARWICK ESTATE, BORAGAS","rooms":5,"district":"Nuwara Eliya","aga_division":"Welimada Pradeshiya Sabha","ps_mc_uc":"Welimada Divisional Secretariat","logitiute":80.828226000000001,"latitude":6.8977030000000008}},{"type":"Feature","id":24,"geometry":{"type":"Point","coordinates":[80.179398000000049,6.0588460000000737]},"properties":{"objectid":24,"name":"VILLA REPUBLIC GALLE","address":"607/10,COLOMBO ROAD,GINTOTA,GALLE.","rooms":8,"district":"Galle","aga_division":"Galle","ps_mc_uc":"Galle Divisional Secretariat","logitiute":80.179397999999992,"latitude":6.058846}},{"type":"Feature","id":25,"geometry":{"type":"Point","coordinates":[80.012888000000032,6.3735620000000495]},"properties":{"objectid":25,"name":"COCOON RESORT AND VILLAS","address":"KAIKAWALA ROAD, INDURUWA","rooms":10,"district":"Galle","aga_division":"Bentota Pradeshiya Sabha","ps_mc_uc":"Benthota Divisional Secretariat","logitiute":80.012888000000004,"latitude":6.3735619999999997}},{"type":"Feature","id":26,"geometry":{"type":"Point","coordinates":[79.796028000000035,7.5062360000000581]},"properties":{"objectid":26,"name":"C & I BEACH HOTEL","address":"57,IRANAWILA WATTA, IRANAWILA, CHILAW","rooms":11,"district":"Puttalam","aga_division":"Chilaw Pradeshiya Sabha","ps_mc_uc":"Puttalam Divisional Secretariat","logitiute":79.796028000000007,"latitude":7.5062359999999995}},{"type":"Feature","id":27,"geometry":{"type":"Point","coordinates":[80.218948000000069,6.0380320000000438]},"properties":{"objectid":27,"name":"THE SUN HOUSE","address":"NO.18, UPPER DICKSON ROAD, GALLE","rooms":6,"district":"Galle","aga_division":"Galle","ps_mc_uc":"Galle Divisional Secretariat","logitiute":80.218948000000012,"latitude":6.0380320000000003}},{"type":"Feature","id":28,"geometry":{"type":"Point","coordinates":[80.657846000000063,6.8134300000000394]},"properties":{"objectid":28,"name":"TIENTSIN BUNGALOW","address":"TIENTSIN BUNGALOW, TIENTSIN, BOGAWANTALAWA","rooms":6,"district":"Nuwara Eliya","aga_division":"Ambagamuwa Pradeshiya Sabha","ps_mc_uc":"Nuwara Eliya Divisional Secretariat","logitiute":80.657845999999992,"latitude":6.8134299999999994}},{"type":"Feature","id":29,"geometry":{"type":"Point","coordinates":[80.613960000000077,7.2821110000000431]},"properties":{"objectid":29,"name":"THE KANDY HOUSE","address":"AMUNUGAMA WALAWWA GUNNAPANA, KANDY","rooms":10,"district":"Kandy","aga_division":"Kandy","ps_mc_uc":"Kundasale Divisional Secretariat","logitiute":80.613960000000006,"latitude":7.2821109999999996}},{"type":"Feature","id":30,"geometry":{"type":"Point","coordinates":[80.266573000000051,6.0074010000000726]},"properties":{"objectid":30,"name":"WHY HOUSE","address":"MIHIRIPENNA, TALPE, GALLE","rooms":8,"district":"Galle","aga_division":"Galle","ps_mc_uc":"Galle Divisional Secretariat","logitiute":80.266572999999994,"latitude":6.0074009999999998}},{"type":"Feature","id":31,"geometry":{"type":"Point","coordinates":[80.572189000000037,6.8662520000000313]},"properties":{"objectid":31,"name":"CASTLEREAGH BUNGALOW","address":"CASTLEREAGH DIVISION, CEYLON TEA TRAILS, DICKOYA, HATTON","rooms":5,"district":"Nuwara Eliya","aga_division":"Nuwara Eliya","ps_mc_uc":"Nuwara Eliya Divisional Secretariat","logitiute":80.572189000000009,"latitude":6.8662520000000002}},{"type":"Feature","id":32,"geometry":{"type":"Point","coordinates":[80.933843000000081,6.0764280000000213]},"properties":{"objectid":32,"name":"TURTLE BAY","address":"GURUPOKUNA,KALAMETIYA, HUNGAMA","rooms":8,"district":"Hambantota","aga_division":"Hambantota","ps_mc_uc":"Hambantota Divisional Secretariat","logitiute":80.93384300000001,"latitude":6.0764279999999999}},{"type":"Feature","id":33,"geometry":{"type":"Point","coordinates":[80.662690000000055,7.7924840000000586]},"properties":{"objectid":33,"name":"ARIKA VILLAS","address":"PUWAKATAWALA ROAD,40TH MILE POST,OFF MATALE ROAD,DAMBULLA.","rooms":9,"district":"Matale","aga_division":"Dambulla Pradeshiya Sabha","ps_mc_uc":"Dambulla Divisional Secretariat","logitiute":80.662689999999998,"latitude":7.792484}},{"type":"Feature","id":34,"geometry":{"type":"Point","coordinates":[80.774172000000078,7.2674450000000661]},"properties":{"objectid":34,"name":"CLINGENDAEL","address":"VICTORIA GOLF & COUNTRY RESORT,P.O.BOX 7, KANDY.","rooms":5,"district":"Kandy","aga_division":"Kandy","ps_mc_uc":"Medadumbara Divisional Secretariat","logitiute":80.774172000000007,"latitude":7.2674450000000004}},{"type":"Feature","id":35,"geometry":{"type":"Point","coordinates":[80.372564000000068,5.9676640000000702]},"properties":{"objectid":35,"name":"INDISCH","address":"NO.246,AHANGAMA KANDA,AHANGAMA.","rooms":5,"district":"Galle","aga_division":"Habaraduwa","ps_mc_uc":"Habaraduwa Divisional Secretariat","logitiute":80.372563999999997,"latitude":5.9676640000000001}},{"type":"Feature","id":36,"geometry":{"type":"Point","coordinates":[79.999713000000042,6.4117320000000291]},"properties":{"objectid":36,"name":"PARADISE ROAD THE VILLA BENTOTA","address":"138/18, GALLE ROAD,BENTOTA","rooms":8,"district":"Galle","aga_division":"Bentota Pradeshiya Sabha","ps_mc_uc":"Benthota Divisional Secretariat","logitiute":79.999713,"latitude":6.4117319999999998}}]}