{"type":"FeatureCollection","features":[{"type":"Feature","id":1,"geometry":{"type":"Point","coordinates":[80.635411000000033,7.2760360000000333]},"properties":{"objectid":1,"name":"THE THEVA RESIDENCY","address":"11/B5/10-1 06TH LANE, HANTANA,KANDY","rooms":10,"district":"Kandy","aga_division":"Kandy Divisional Secretariat","ps_mc_uc":"Kandy","logitute":80.635411000000005,"latitude":7.2760359999999995,"orig_fid":-1}},{"type":"Feature","id":2,"geometry":{"type":"Point","coordinates":[80.409972000000039,5.9603340000000458]},"properties":{"objectid":2,"name":"HIGHLAND VILLA","address":"351, ABIMANGAMA ROAD, KUMBALGAMA, WELIGAMA","rooms":10,"district":"Matara","aga_division":"Weligama Divisional Secretariat","ps_mc_uc":"Weligama Pradeshiya Sabha","logitute":80.409971999999996,"latitude":5.9603340000000005,"orig_fid":-1}},{"type":"Feature","id":3,"geometry":{"type":"Point","coordinates":[80.545063000000084,8.2059270000000311]},"properties":{"objectid":3,"name":"ULAGALLA WALAWWA RESORT","address":"THIRAPPANE, ANURADHAPURA","rooms":21,"district":"Anuradhapura","aga_division":"Anuradhapura East","ps_mc_uc":"Anuradhapura","logitute":80.545062999999999,"latitude":8.2059269999999991,"orig_fid":-1}},{"type":"Feature","id":4,"geometry":{"type":"Point","coordinates":[80.217563000000041,6.0266490000000204]},"properties":{"objectid":4,"name":"GALLE FORT HOTEL","address":"NO.28, CHURCH STREET, FORT , GALLE","rooms":14,"district":"Galle","aga_division":"Galle Divisional Secretariat","ps_mc_uc":"Galle","logitute":80.217562999999998,"latitude":6.0266489999999999,"orig_fid":-1}},{"type":"Feature","id":5,"geometry":{"type":"Point","coordinates":[80.710743000000036,7.9435250000000224]},"properties":{"objectid":5,"name":"THE ELEPHANT CORRIDOR","address":"POTHANA,KIBISSA, SIGIRIYA","rooms":21,"district":"Matale","aga_division":"N/A","ps_mc_uc":"Matale","logitute":80.710743000000008,"latitude":7.9435250000000002,"orig_fid":-1}},{"type":"Feature","id":6,"geometry":{"type":"Point","coordinates":[80.777376000000061,6.0061740000000441]},"properties":{"objectid":6,"name":"AMANWELLA","address":"WELLAWATURA, GODELLAWELA, TANGALLE","rooms":30,"district":"Hambantota","aga_division":"Tangalle Divisional Secretariat","ps_mc_uc":"Tangalle Pradeshiya Sabha","logitute":80.777376000000004,"latitude":6.0061739999999997,"orig_fid":-1}},{"type":"Feature","id":7,"geometry":{"type":"Point","coordinates":[80.134978000000046,6.0947320000000218]},"properties":{"objectid":7,"name":"ADITYA","address":"719/1, GALLE ROAD, DEVENIGODA,RATHGAMA","rooms":12,"district":"Galle","aga_division":"Galle Divisional Secretariat","ps_mc_uc":"Galle","logitute":80.134978000000004,"latitude":6.0947319999999996,"orig_fid":-1}},{"type":"Feature","id":8,"geometry":{"type":"Point","coordinates":[80.855462000000045,6.0473360000000298]},"properties":{"objectid":8,"name":"BUCKINGAM PLACE","address":"REKAWA VILLAGE, NETOLPITIYA, TANGALLE","rooms":11,"district":"Hambantota","aga_division":"Tangalle Divisional Secretariat","ps_mc_uc":"Tangalle Pradeshiya Sabha","logitute":80.855462000000003,"latitude":6.0473359999999996,"orig_fid":-1}},{"type":"Feature","id":9,"geometry":{"type":"Point","coordinates":[79.999034000000051,6.4140930000000367]},"properties":{"objectid":9,"name":"CLUB VILLA","address":"NO.138/15, GALLE ROAD, BENTOTA","rooms":15,"district":"Galle","aga_division":"Benthota Divisional Secretariat","ps_mc_uc":"Bentota Pradeshiya Sabha","logitute":79.999033999999995,"latitude":6.4140929999999994,"orig_fid":-1}},{"type":"Feature","id":10,"geometry":{"type":"Point","coordinates":[80.004447000000084,6.3955180000000382]},"properties":{"objectid":10,"name":"SAMAN VILLAS","address":"ATURUWELLA, INDURUWA","rooms":27,"district":"Galle","aga_division":"Galle Divisional Secretariat","ps_mc_uc":"Galle","logitute":80.004446999999999,"latitude":6.395518,"orig_fid":-1}},{"type":"Feature","id":11,"geometry":{"type":"Point","coordinates":[80.453836000000081,5.9640160000000719]},"properties":{"objectid":11,"name":"MANDARA RESORT","address":"NO. 416, MODARAWATTA, PELENA, MIRISSA, WEILIGAMA","rooms":12,"district":"Matara","aga_division":"Matara Divisional Secretariat","ps_mc_uc":"Weligama Pradeshiya Sabha","logitute":80.453835999999995,"latitude":5.964016,"orig_fid":-1}},{"type":"Feature","id":12,"geometry":{"type":"Point","coordinates":[80.720275000000072,7.9297100000000569]},"properties":{"objectid":12,"name":"VIL UYANA","address":"RANGIRIGAMA, SIGIRIYA","rooms":30,"district":"Matale","aga_division":"Matale Divisional Secretariat","ps_mc_uc":"Matale","logitute":80.720275000000001,"latitude":7.92971,"orig_fid":-1}},{"type":"Feature","id":13,"geometry":{"type":"Point","coordinates":[80.19736000000006,6.0448450000000662]},"properties":{"objectid":13,"name":"TAMARIND HILL HOTEL","address":"NO.288,GALLE ROAD, DADELLA, GALLE","rooms":11,"district":"Galle","aga_division":"Galle Divisional Secretariat","ps_mc_uc":"Galle","logitute":80.197360000000003,"latitude":6.0448450000000005,"orig_fid":-1}},{"type":"Feature","id":14,"geometry":{"type":"Point","coordinates":[79.869959000000051,6.9150330000000508]},"properties":{"objectid":14,"name":"PARADISE ROAD TINTAGEL COLOMBO","address":"NO.65, ROSMEAD PLACE,COLOMBO 07","rooms":10,"district":"Colombo","aga_division":"Colombo Divisional Secretariat","ps_mc_uc":"Colombo","logitute":79.869958999999994,"latitude":6.9150330000000002,"orig_fid":-1}},{"type":"Feature","id":15,"geometry":{"type":"Point","coordinates":[80.512511000000075,7.7269390000000726]},"properties":{"objectid":15,"name":"BROOK BOUTIQUE","address":"ALI PALLAMA, MADAHAPOLA ROAD, MELSIRIPURA","rooms":10,"district":"Kurunegala","aga_division":"Polpithigama Divisional Secretariat","ps_mc_uc":"Polpithigama Pradeshiya Sabha","logitute":80.512511000000003,"latitude":7.7269389999999998,"orig_fid":-1}},{"type":"Feature","id":16,"geometry":{"type":"Point","coordinates":[80.326424000000031,5.9865350000000603]},"properties":{"objectid":16,"name":"THE FORTRESS","address":"KOGGALA","rooms":49,"district":"Galle","aga_division":"Galle Divisional Secretariat","ps_mc_uc":"Galle","logitute":80.326424000000003,"latitude":5.9865349999999999,"orig_fid":-1}},{"type":"Feature","id":17,"geometry":{"type":"Point","coordinates":[79.85769300000004,6.8888390000000754]},"properties":{"objectid":17,"name":"CASA COLOMBO","address":"NO.231, GALLE ROAD, COLOMBO 03","rooms":11,"district":"Colombo","aga_division":"Colombo Divisional Secretariat","ps_mc_uc":"Colombo","logitute":79.857693000000012,"latitude":6.8888389999999999,"orig_fid":-1}},{"type":"Feature","id":18,"geometry":{"type":"Point","coordinates":[80.216995000000054,6.0289770000000544]},"properties":{"objectid":18,"name":"AMANGALLE","address":"NO. 10 CHURCH ROAD, GALLE","rooms":28,"district":"Galle","aga_division":"Galle Divisional Secretariat","ps_mc_uc":"Galle","logitute":80.216994999999997,"latitude":6.0289770000000003,"orig_fid":-1}},{"type":"Feature","id":19,"geometry":{"type":"Point","coordinates":[81.561268000000041,7.9283900000000358]},"properties":{"objectid":19,"name":"MAALU MAALU RESORTS & SPA","address":"TOURISM ZONE, PASSIKUDAH.","rooms":40,"district":"Batticaloa","aga_division":"Koralai Pattu Divisional Secretariat","ps_mc_uc":"Batticaloa","logitute":81.561267999999998,"latitude":7.9283900000000003,"orig_fid":-1}},{"type":"Feature","id":20,"geometry":{"type":"Point","coordinates":[79.927908000000059,7.131981000000053]},"properties":{"objectid":20,"name":"THE WALAWWA","address":"MINUWANGODA ROAD,OPATHA,KOTUGODA.","rooms":17,"district":"Gampaha","aga_division":"Minuwangoda Divisional Secretariat","ps_mc_uc":"Minuwangoda Pradeshiya Sabha","logitute":79.927907999999988,"latitude":7.1319809999999997,"orig_fid":-1}},{"type":"Feature","id":21,"geometry":{"type":"Point","coordinates":[80.385872000000063,6.5145580000000223]},"properties":{"objectid":21,"name":"BOULDER GARDEN","address":"KOSWATTA,KALAWANA.","rooms":10,"district":"Ratnapura","aga_division":"Kalawana Divisional Secretariat","ps_mc_uc":"Ratnapura","logitute":80.385872000000006,"latitude":6.5145580000000001,"orig_fid":-1}},{"type":"Feature","id":22,"geometry":{"type":"Point","coordinates":[80.619922000000031,7.6213570000000459]},"properties":{"objectid":22,"name":"JIMS FARM VILLA","address":"AHELAPOLA, PELLEPOLA, MATALE","rooms":10,"district":"Matale","aga_division":"Pallepola Divisional Secretariat","ps_mc_uc":"Ahelapola","logitute":80.619922000000003,"latitude":7.6213569999999997,"orig_fid":-1}},{"type":"Feature","id":23,"geometry":{"type":"Point","coordinates":[80.718066000000078,6.9292080000000738]},"properties":{"objectid":23,"name":"LANGDALE RESORT & SPA","address":"P.O BOX 01, NANUOYA, RADELLA,NUWARAELIYA","rooms":13,"district":"Nuwara Eliya","aga_division":"Nuwara Eliya Divisional Secretariat","ps_mc_uc":"Kotapola Pradeshiya Sabha","logitute":80.718066000000007,"latitude":6.929208,"orig_fid":-1}},{"type":"Feature","id":24,"geometry":{"type":"Point","coordinates":[80.215496300000041,6.0268440000000396]},"properties":{"objectid":24,"name":"THE FORT BAZAAR","address":"26, CHURCH STREET, GALLE FORT, GALLE","rooms":18,"district":"Galle","aga_division":"Galle Divisional Secretariat","ps_mc_uc":"Galle","logitute":80.215496299999998,"latitude":6.0268439999999996,"orig_fid":-1}},{"type":"Feature","id":25,"geometry":{"type":"Point","coordinates":[80.744183300000032,7.994399000000044]},"properties":{"objectid":25,"name":"WATER GARDEN,SIGIRIYA","address":"KIBISSA, SIGIRIYA","rooms":30,"district":"Matale","aga_division":"Dambulla Divisional Secretariat","ps_mc_uc":"Dambulla Pradeshiya Sabha","logitute":80.744183300000003,"latitude":7.9943989999999996,"orig_fid":-1}},{"type":"Feature","id":26,"geometry":{"type":"Point","coordinates":[80.86353930000007,6.0481410000000437]},"properties":{"objectid":26,"name":"SOORIYA RESORT & SPA","address":"SOORIYA RESORT & SPA, REKAWA BEACH, TANGALLE","rooms":38,"district":"Hambantota","aga_division":"Tangalle Divisional Secretariat","ps_mc_uc":"Tangalle Pradeshiya Sabha","logitute":80.863539299999999,"latitude":6.0481410000000002,"orig_fid":-1}},{"type":"Feature","id":27,"geometry":{"type":"Point","coordinates":[81.406407200000046,6.2607399000000328]},"properties":{"objectid":27,"name":"WILD COAST TENTED LODGE","address":"PALATUPANA,YALA.","rooms":28,"district":"Hambantota","aga_division":"Thissamaharama Divisional Secretariat","ps_mc_uc":"Thissamaharama","logitute":81.406407200000004,"latitude":6.2607398999999999,"orig_fid":-1}},{"type":"Feature","id":28,"geometry":{"type":"Point","coordinates":[80.025822600000083,6.3405694000000494]},"properties":{"objectid":28,"name":"THE HABITAT","address":"47/23,PARATHARAKAYA CIRCULATION ROAD, KOSGODA","rooms":28,"district":"Galle","aga_division":"Balapitiya Divisional Secretariat","ps_mc_uc":"balapitiya","logitute":80.025822599999998,"latitude":6.3405694000000006,"orig_fid":-1}}]}