{"displayFieldName":"name","fieldAliases":{"objectid":"objectid","name":"name","address":"address","rooms":"rooms","grade":"grade","district":"district","aga_division":"AGA Division","ps_mc_uc":"PS/MC/UC","logitiute":"logitiute","latitude":"latitude","orig_fid":"orig_fid"},"geometryType":"esriGeometryPoint","spatialReference":{"wkid":4326,"latestWkid":4326},"fields":[{"name":"objectid","type":"esriFieldTypeOID","alias":"objectid"},{"name":"name","type":"esriFieldTypeString","alias":"name","length":255},{"name":"address","type":"esriFieldTypeString","alias":"address","length":255},{"name":"rooms","type":"esriFieldTypeDouble","alias":"rooms"},{"name":"grade","type":"esriFieldTypeString","alias":"grade","length":255},{"name":"district","type":"esriFieldTypeString","alias":"district","length":255},{"name":"aga_division","type":"esriFieldTypeString","alias":"AGA Division","length":255},{"name":"ps_mc_uc","type":"esriFieldTypeString","alias":"PS/MC/UC","length":255},{"name":"logitiute","type":"esriFieldTypeDouble","alias":"logitiute"},{"name":"latitude","type":"esriFieldTypeDouble","alias":"latitude"},{"name":"orig_fid","type":"esriFieldTypeInteger","alias":"orig_fid"}],"features":[{"attributes":{"objectid":1,"name":"KIVGA HOLIDAY HOME","address":"4C/8 FIRST STAGE, MIHINDU MAWATHA, ANURADHAPURA","rooms":4.0,"grade":"DELUXE","district":"Anuradhapura","aga_division":"Anuradhapura","ps_mc_uc":"Anuradhapura East","logitiute":80.416952,"latitude":8.333752,"orig_fid":-1},"geometry":{"x":80.416952000000038,"y":8.3337520000000609}},{"attributes":{"objectid":2,"name":"VILLA SUNBIRD","address":"89B, WELLAMANKARAYA, OFF HUE FERNANDO MAWATHA, NAINAMADAMA","rooms":6.0,"grade":"DELUXE","district":"Puttalam","aga_division":"Polonnaruwa","ps_mc_uc":"Wennappuwa Divisional Secretariat","logitiute":79.837662,"latitude":7.306926,"orig_fid":-1},"geometry":{"x":79.83766200000008,"y":7.3069260000000327}},{"attributes":{"objectid":3,"name":"COMILLA BUNGALOW","address":"\"COMILLA WATHE\" 76/5, INDURUGALLA, WATHURUGAMA","rooms":3.0,"grade":"DELUXE","district":"Gampaha","aga_division":"Gampaha","ps_mc_uc":"Dompe Divisional Secretariat","logitiute":80.0942621,"latitude":7.0566908,"orig_fid":-1},"geometry":{"x":80.094262100000037,"y":7.0566908000000694}},{"attributes":{"objectid":4,"name":"SACHAL MIR'S","address":"2-C, DUNGALPITIYA, THALAHENA, NEGAMBO","rooms":4.0,"grade":"SUPERIOR","district":"Gampaha","aga_division":"Negombo","ps_mc_uc":"Negombo Divisional Secretariat","logitiute":79.8311,"latitude":7.152417,"orig_fid":-1},"geometry":{"x":79.831100000000049,"y":7.1524170000000709}},{"attributes":{"objectid":5,"name":"MISTY HILLS BOUTIQUE COTTAGE","address":"20/23,TOP PASS, KANDY ROAD, NUWARAELIYA.(VIA SANASA RESORT)","rooms":4.0,"grade":"DELUXE","district":"Nuwara Eliya","aga_division":"Nuwara Eliya","ps_mc_uc":"Nuwara Eliya Divisional Secretariat","logitiute":80.7458665,"latitude":6.9906717,"orig_fid":-1},"geometry":{"x":80.745866500000034,"y":6.990671700000064}},{"attributes":{"objectid":6,"name":"THE PIER","address":"NO 113/8B ,DUWAWATTA, ST PETER'S ROAD, KORALAWELLA. MORATUWA.","rooms":4.0,"grade":"DELUXE","district":"Colombo","aga_division":"Moratuwa","ps_mc_uc":"Moratuwa Divisional Secretariat","logitiute":79.888801,"latitude":6.773335,"orig_fid":-1},"geometry":{"x":79.888801000000058,"y":6.7733350000000314}},{"attributes":{"objectid":7,"name":"SADULA HOLIDAY RESORT","address":"PULLAYAR JUNCTION, MIHINTHALE ROAD, ANURADHAPURA.","rooms":5.0,"grade":"SUPERIOR","district":"Anuradhapura","aga_division":"Anuradhapura","ps_mc_uc":"Anuradhapura East","logitiute":80.4307097,"latitude":8.3538076,"orig_fid":-1},"geometry":{"x":80.430709700000079,"y":8.3538076000000387}},{"attributes":{"objectid":8,"name":"ST.ANNE S LAGOON HOUSE","address":"SOTHTHUPITIYA WADIYA, KALPITIYA ROAD, PALAKKUDA.","rooms":6.0,"grade":"DELUXE","district":"Puttalam","aga_division":"Kalpitiya Pradeshiya Sabha","ps_mc_uc":"Kalpitiya Divisional Secretariat","logitiute":79.759615,"latitude":8.229533,"orig_fid":-1},"geometry":{"x":79.759615000000053,"y":8.2295330000000604}},{"attributes":{"objectid":9,"name":"FOREST PARADISE GUEST HOME","address":"PASSARA ROAD, ELLA.","rooms":5.0,"grade":"SUPERIOR","district":"Badulla","aga_division":"Ella Pradeshiya Sabha","ps_mc_uc":"Ella Divisional Secretariat","logitiute":81.05151,"latitude":6.874164,"orig_fid":-1},"geometry":{"x":81.051510000000064,"y":6.8741640000000643}},{"attributes":{"objectid":10,"name":"THE RANMIN BUNGALOW","address":"NO.9, TUDUWA, DAMPE, PILIYANDALA.","rooms":3.0,"grade":"SUPERIOR","district":"Colombo","aga_division":"Colombo","ps_mc_uc":"Colombo Divisional Secretariat","logitiute":79.918606,"latitude":6.766099,"orig_fid":-1},"geometry":{"x":79.918606000000068,"y":6.7660990000000538}},{"attributes":{"objectid":11,"name":"CLOUDS","address":"64,LILY AVE, HAPUTALE.","rooms":5.0,"grade":"DELUXE","district":"Badulla","aga_division":"Haputale","ps_mc_uc":"Haputale Divisional Secretariat","logitiute":80.94992,"latitude":6.7647,"orig_fid":-1},"geometry":{"x":80.949920000000077,"y":6.7647000000000617}},{"attributes":{"objectid":12,"name":"CASA BLANCO","address":"395/95, HILL CREST GREEN ,BOWALAWATTE, UDA PERADENIYA, KANDY.","rooms":4.0,"grade":"DELUXE","district":"Kandy","aga_division":"Kandy","ps_mc_uc":"Kandy Divisional Secretariat","logitiute":80.618416,"latitude":7.254844,"orig_fid":-1},"geometry":{"x":80.618416000000082,"y":7.2548440000000483}},{"attributes":{"objectid":13,"name":"HORAKELLE ESTATE","address":"BLOCK NO 2, PALLIYAPITIYA, DUNAGAHA.","rooms":9.0,"grade":"DELUXE","district":"Gampaha","aga_division":"Gampaha","ps_mc_uc":"Gampaha Divisional Secretariat","logitiute":79.971366,"latitude":7.251445,"orig_fid":-1},"geometry":{"x":79.971366000000046,"y":7.2514450000000465}},{"attributes":{"objectid":14,"name":"ANKINDA LUXURIOUS VILLA","address":"293/11M, SURAMYA PLACE, GORAKAPOLA, PANADURA","rooms":4.0,"grade":"DELUXE","district":"Kalutara","aga_division":"Panadura Pradeshiya Sabha","ps_mc_uc":"Panadura Divisional Secretariat","logitiute":79.904943,"latitude":6.740224,"orig_fid":-1},"geometry":{"x":79.90494300000006,"y":6.7402240000000688}},{"attributes":{"objectid":15,"name":"SILVER BEACH HOTEL","address":"66/12, ALLES GARDEN, UPPUVELI,TRINCOMALEE","rooms":5.0,"grade":"STANDARD","district":"Trincomalee","aga_division":"Trincomalee","ps_mc_uc":"Trincomalee Divisional Secretariat","logitiute":81.218226,"latitude":8.616767,"orig_fid":-1},"geometry":{"x":81.218226000000072,"y":8.6167670000000385}},{"attributes":{"objectid":16,"name":"SAMANPAYA HOLIDAY BUNGALOW","address":"HELAMUDUNA, BANDARAWELA.","rooms":4.0,"grade":"DELUXE","district":"Badulla","aga_division":"Bandarawela Pradeshiya Sabha","ps_mc_uc":"Haputale Divisional Secretariat","logitiute":80.983702,"latitude":6.842848,"orig_fid":-1},"geometry":{"x":80.983702000000051,"y":6.8428480000000604}},{"attributes":{"objectid":17,"name":"LE GRAND MEAULNES - FAMILY HOLIDAY BUNGALOW","address":"\"GREEN PATH\", TRINCOMALEE RD,HABARANA.","rooms":3.0,"grade":"SUPERIOR","district":"Anuradhapura","aga_division":"Anuradhapura","ps_mc_uc":"Anuradhapura East","logitiute":80.760551,"latitude":8.048284,"orig_fid":-1},"geometry":{"x":80.760551000000078,"y":8.0482840000000238}},{"attributes":{"objectid":18,"name":"ABERDEEN RANGE HOLIDAY HOME","address":"RANJIRAWA, GINIGATHHENA","rooms":3.0,"grade":"SUPERIOR","district":"Nuwara Eliya","aga_division":"Nuwara Eliya","ps_mc_uc":"Nuwara Eliya Divisional Secretariat","logitiute":80.465755,"latitude":6.996841,"orig_fid":-1},"geometry":{"x":80.465755000000058,"y":6.9968410000000745}},{"attributes":{"objectid":19,"name":"CLUB LESPRI","address":"322,TRANQUILITY, GALAHA ROAD, NILLAMBA","rooms":6.0,"grade":"DELUXE","district":"Kandy","aga_division":"Kandy","ps_mc_uc":"Kandy Divisional Secretariat","logitiute":80.639866,"latitude":7.199854,"orig_fid":-1},"geometry":{"x":80.63986600000004,"y":7.199854000000073}},{"attributes":{"objectid":20,"name":"BLUE LAGOON","address":"\"BLUE LAGOON'WELLAWATTE,HIKKADUWA","rooms":3.0,"grade":"SUPERIOR","district":"Galle","aga_division":"Hikkaduwa","ps_mc_uc":"Hikkaduwa Divisional Secretariat","logitiute":80.101595,"latitude":6.147039,"orig_fid":-1},"geometry":{"x":80.101595000000032,"y":6.1470390000000634}},{"attributes":{"objectid":21,"name":"SENANI COLONIAL HOLIDAY BUNGALOW","address":"NO.80,LADY MC CALUM DRIVE,HAWAELIYA,NUWARA ELIYA","rooms":4.0,"grade":"DELUXE","district":"Nuwara Eliya","aga_division":"Nuwara Eliya","ps_mc_uc":"Nuwara Eliya Divisional Secretariat","logitiute":80.776064,"latitude":6.973548,"orig_fid":-1},"geometry":{"x":80.776064000000076,"y":6.9735480000000507}},{"attributes":{"objectid":22,"name":"RIVER SIDE INN FUJI","address":"81,CIRCULAR ROAD,OBADAWATTA,BENTOTA","rooms":4.0,"grade":"DELUXE","district":"Galle","aga_division":"Bentota Pradeshiya Sabha","ps_mc_uc":"Benthota Divisional Secretariat","logitiute":80.007141,"latitude":6.428151,"orig_fid":-1},"geometry":{"x":80.007141000000047,"y":6.4281510000000708}},{"attributes":{"objectid":23,"name":"KANDY HOUSE","address":"NO 95,UPUL MAWATHA, ,5TH LANE,PRIMROSE GARDEN,KANDY","rooms":2.0,"grade":"DELUXE","district":"Kandy","aga_division":"Kandy","ps_mc_uc":"Kandy Divisional Secretariat","logitiute":80.613952,"latitude":7.282027,"orig_fid":-1},"geometry":{"x":80.61395200000004,"y":7.2820270000000278}},{"attributes":{"objectid":24,"name":"LANDS END","address":"649/13,SK TOWN,MEDDAWATTA,MATARA","rooms":3.0,"grade":"STANDARD","district":"Matara","aga_division":"Matara","ps_mc_uc":"Matara Divisional Secretariat","logitiute":80.570361,"latitude":5.939156,"orig_fid":-1},"geometry":{"x":80.570361000000048,"y":5.9391560000000254}},{"attributes":{"objectid":25,"name":"SERENITY VILLA","address":"NO.14/2,AMARASENA MAWATHA,HIKKADUWA","rooms":3.0,"grade":"STANDARD","district":"Galle","aga_division":"Hikkaduwa","ps_mc_uc":"Hikkaduwa Divisional Secretariat","logitiute":80.101597,"latitude":6.139843,"orig_fid":-1},"geometry":{"x":80.101597000000083,"y":6.1398430000000417}},{"attributes":{"objectid":26,"name":"SPRING ACRE","address":"NO.495 A-4, KANDY ROAD, TOPPASS,NUWARA ELIYA","rooms":4.0,"grade":"DELUXE","district":"Nuwara Eliya","aga_division":"Nuwara Eliya","ps_mc_uc":"Nuwara Eliya Divisional Secretariat","logitiute":80.748221,"latitude":6.990897,"orig_fid":-1},"geometry":{"x":80.748221000000058,"y":6.990897000000075}},{"attributes":{"objectid":27,"name":"TEA HILLS","address":"LYND HEAVEN , FRUIT HILL, HATTON","rooms":4.0,"grade":"SUPERIOR","district":"Nuwara Eliya","aga_division":"Nuwara Eliya","ps_mc_uc":"Nuwara Eliya Divisional Secretariat","logitiute":80.590915,"latitude":6.896988,"orig_fid":-1},"geometry":{"x":80.590915000000052,"y":6.8969880000000217}},{"attributes":{"objectid":28,"name":"REEF EDGE RESORT","address":"NO 11C, BEACH ROAD , POLHENA ,MATARA","rooms":4.0,"grade":"SUPERIOR","district":"Matara","aga_division":"Matara","ps_mc_uc":"Matara Divisional Secretariat","logitiute":80.528325,"latitude":5.936969,"orig_fid":-1},"geometry":{"x":80.528325000000052,"y":5.9369690000000332}},{"attributes":{"objectid":29,"name":"THE OCEAN FRONT","address":"14, SELLAMUTTU AVENUE, COLOMBO 3","rooms":6.0,"grade":"DELUXE","district":"Colombo","aga_division":"Colombo","ps_mc_uc":"Colombo Divisional Secretariat","logitiute":79.8491,"latitude":6.908351,"orig_fid":-1},"geometry":{"x":79.849100000000078,"y":6.9083510000000388}},{"attributes":{"objectid":30,"name":"JASMINE HOMES","address":"27/1, GREENFIELD PARK, MADIWELA, KOTTE","rooms":3.0,"grade":"DELUXE","district":"Colombo","aga_division":"Colombo","ps_mc_uc":"Colombo Divisional Secretariat","logitiute":79.92095,"latitude":6.876324,"orig_fid":-1},"geometry":{"x":79.920950000000062,"y":6.8763240000000678}},{"attributes":{"objectid":31,"name":"CEILAO VILLAS COLOMBO","address":"47/1,JAWATTE ROAD, COLOMBO 5.","rooms":6.0,"grade":"DELUXE","district":"Colombo","aga_division":"Colombo","ps_mc_uc":"Colombo Divisional Secretariat","logitiute":79.867188,"latitude":6.897036,"orig_fid":-1},"geometry":{"x":79.867188000000056,"y":6.897036000000071}},{"attributes":{"objectid":32,"name":"5TH LANE HOUSE","address":"51/1A, FIFTH LANE COLOMBO 3.","rooms":4.0,"grade":"DELUXE","district":"Colombo","aga_division":"Colombo","ps_mc_uc":"Colombo Divisional Secretariat","logitiute":79.854306,"latitude":6.904586,"orig_fid":-1},"geometry":{"x":79.854306000000065,"y":6.9045860000000516}},{"attributes":{"objectid":33,"name":"MUTTON BUTTON","address":"96/21/D, RAJAPIHILLA MAWATHA, KANDY","rooms":8.0,"grade":"DELUXE","district":"Kandy","aga_division":"Kandy","ps_mc_uc":"Kandy Divisional Secretariat","logitiute":80.644256,"latitude":7.284123,"orig_fid":-1},"geometry":{"x":80.644256000000041,"y":7.2841230000000223}},{"attributes":{"objectid":34,"name":"CEILAO VILLAS KIRINDA","address":"SUDUWELIPALASSA, KATTADIWEWA, KIRINDA.","rooms":2.0,"grade":"DELUXE","district":"Hambantota","aga_division":"Hambantota","ps_mc_uc":"Hambantota Divisional Secretariat","logitiute":81.33386,"latitude":6.228375,"orig_fid":-1},"geometry":{"x":81.333860000000072,"y":6.2283750000000282}},{"attributes":{"objectid":35,"name":"CEILAO VILLAS KABALANA","address":"KABALANA, WELHENGODA, AHANGAMA.","rooms":4.0,"grade":"DELUXE","district":"Galle","aga_division":"Galle","ps_mc_uc":"Galle Divisional Secretariat","logitiute":80.346907,"latitude":5.978085,"orig_fid":-1},"geometry":{"x":80.346907000000044,"y":5.9780850000000214}},{"attributes":{"objectid":36,"name":"FOREST VILLA","address":"185B, RAJAPIHILLA MW, KANDY","rooms":5.0,"grade":"SUPERIOR","district":"Kandy","aga_division":"Kandy","ps_mc_uc":"Kandy Divisional Secretariat","logitiute":80.643597,"latitude":7.284137,"orig_fid":-1},"geometry":{"x":80.643597000000057,"y":7.2841370000000438}},{"attributes":{"objectid":37,"name":"VIHARAGALA ESTATE BUNGALOW","address":"BERAGALA KOSLANDA RD, NIKAPOTHA P.O. VIA HAPUTALE","rooms":5.0,"grade":"DELUXE","district":"Badulla","aga_division":"Haldummulla Pradeshiya Sabha","ps_mc_uc":"Haldummulla Divisional Secretariat","logitiute":80.941688,"latitude":6.760753,"orig_fid":-1},"geometry":{"x":80.941688000000056,"y":6.7607530000000224}},{"attributes":{"objectid":38,"name":"LA VILLA SANCTUARY","address":"1143/G/6, THE SANCTUARY, FOREST DRIVE, THALAWATHUGODA.","rooms":2.0,"grade":"DELUXE","district":"Colombo","aga_division":"Colombo","ps_mc_uc":"Colombo Divisional Secretariat","logitiute":79.932122,"latitude":6.879158,"orig_fid":-1},"geometry":{"x":79.932122000000049,"y":6.8791580000000749}},{"attributes":{"objectid":39,"name":"PARADISE KANDY","address":"195/7A,RICHMOND HILL ESTATE, HEERASSAGALA,KANDY","rooms":5.0,"grade":"DELUXE","district":"Kandy","aga_division":"Kandy","ps_mc_uc":"Kandy Divisional Secretariat","logitiute":80.619126,"latitude":7.276424,"orig_fid":-1},"geometry":{"x":80.619126000000051,"y":7.2764240000000768}},{"attributes":{"objectid":40,"name":"SUNROCK","address":"195/1A, HEERASSAGALA ROAD, KANDY.","rooms":5.0,"grade":"DELUXE","district":"Kandy","aga_division":"Kandy","ps_mc_uc":"Kandy Divisional Secretariat","logitiute":80.622612,"latitude":7.27082,"orig_fid":-1},"geometry":{"x":80.622612000000061,"y":7.2708200000000716}},{"attributes":{"objectid":41,"name":"THE BLISS","address":"18, WIJEYA ROAD, TUDELLA, JA ELA.","rooms":5.0,"grade":"SUPERIOR","district":"Gampaha","aga_division":"Gampaha","ps_mc_uc":"Ja-Ela Divisional Secretariat","logitiute":79.893517,"latitude":7.066622,"orig_fid":-1},"geometry":{"x":79.893517000000031,"y":7.0666220000000521}},{"attributes":{"objectid":42,"name":"JUNGLE TIDE","address":"UDUWELA,HANTANE,KANDY","rooms":4.0,"grade":"DELUXE","district":"Kandy","aga_division":"Kandy","ps_mc_uc":"Kandy Divisional Secretariat","logitiute":80.655947,"latitude":7.233831,"orig_fid":-1},"geometry":{"x":80.655947000000083,"y":7.2338310000000661}},{"attributes":{"objectid":43,"name":"NATURES TREAT BUNGLOW","address":"494/4, 4TH LANE,RUWANPURA SOUTH, KALAPALALUWAWE ROAD, AGGONA JUNCTION","rooms":3.0,"grade":"DELUXE","district":"Colombo","aga_division":"Kaduwela Pradeshiya Sabha","ps_mc_uc":"Battaramulla","logitiute":79.920741,"latitude":6.914802,"orig_fid":-1},"geometry":{"x":79.920741000000078,"y":6.9148020000000656}},{"attributes":{"objectid":44,"name":"KANO LANKA CENTRE","address":"MAHATENNA ESTATE, ELKADUWA, MATALE.","rooms":10.0,"grade":"STANDARD","district":"Matale","aga_division":"N/A","ps_mc_uc":"Ukuwela Divisional Secretariat","logitiute":80.610315,"latitude":7.409476,"orig_fid":-1},"geometry":{"x":80.610315000000071,"y":7.4094760000000406}},{"attributes":{"objectid":45,"name":"DINUDA RESORT","address":"PUDUKUDUERIPPU, SETHAWADI, KALPITIYA","rooms":4.0,"grade":"STANDARD","district":"Puttalam","aga_division":"Kalpitiya Pradeshiya Sabha","ps_mc_uc":"Kalpitiya Divisional Secretariat","logitiute":79.736991,"latitude":8.229038,"orig_fid":-1},"geometry":{"x":79.736991000000046,"y":8.2290380000000596}},{"attributes":{"objectid":46,"name":"LANDS END BUNGALOW","address":"YADDEHIMULLA ROAD, UNAWATUNA","rooms":7.0,"grade":"DELUXE","district":"Galle","aga_division":"Habaraduwa","ps_mc_uc":"Habaraduwa Divisional Secretariat","logitiute":80.240342,"latitude":6.008725,"orig_fid":-1},"geometry":{"x":80.240342000000055,"y":6.0087250000000267}},{"attributes":{"objectid":47,"name":"GREGORY'S BUNGALOW","address":"109, UPPER LAKE ROAD, NUWARA ELIYA","rooms":6.0,"grade":"DELUXE","district":"Nuwara Eliya","aga_division":"Nuwara Eliya","ps_mc_uc":"Nuwara Eliya Divisional Secretariat","logitiute":80.784538,"latitude":6.956362,"orig_fid":-1},"geometry":{"x":80.784538000000055,"y":6.9563620000000697}},{"attributes":{"objectid":48,"name":"KAHAMBE ESTATE VILLA","address":"73/1, KAHAMBE ESTATE, KAHAMBE, PILIMATHALAWA","rooms":4.0,"grade":"STANDARD","district":"Kandy","aga_division":"Udunuwara Pradeshiya Sabha","ps_mc_uc":"Udunuwara Divisional Secretariat","logitiute":80.550455,"latitude":7.255776,"orig_fid":-1},"geometry":{"x":80.550455000000056,"y":7.2557760000000258}},{"attributes":{"objectid":49,"name":"TEARAMB HOLIDAY BUNGALOW","address":"38, KARAGASTHALAWA, KATUKITHULA","rooms":4.0,"grade":"SUPERIOR","district":"Nuwara Eliya","aga_division":"Wellawaya","ps_mc_uc":"Kothmale Divisional Secretariat","logitiute":80.676164,"latitude":7.074153,"orig_fid":-1},"geometry":{"x":80.676164000000085,"y":7.0741530000000239}},{"attributes":{"objectid":50,"name":"AIRPORT VILLA","address":"LIVER BROTHER ROAD, LIYANAGEMULLA ROAD, SEEDUWA","rooms":5.0,"grade":"DELUXE","district":"Gampaha","aga_division":"Seeduwa","ps_mc_uc":"Katana Divisional Secretariat","logitiute":79.872697,"latitude":7.142227,"orig_fid":-1},"geometry":{"x":79.872697000000073,"y":7.1422270000000481}},{"attributes":{"objectid":51,"name":"SATORI VILLA","address":"KORATUWA GEDARA, MATARAMBA ROAD, UNAWATUNA, GALLE.","rooms":4.0,"grade":"DELUXE","district":"Galle","aga_division":"Akmeemana","ps_mc_uc":"Akmeemana Divisional Secretariat","logitiute":80.271419,"latitude":6.021524,"orig_fid":-1},"geometry":{"x":80.271419000000037,"y":6.0215240000000563}},{"attributes":{"objectid":52,"name":"GALKANDA WALAUWE","address":"27, WALALA, MENIKHINNA","rooms":3.0,"grade":"SUPERIOR","district":"Kandy","aga_division":"Kundasle","ps_mc_uc":"Kundasale Divisional Secretariat","logitiute":80.687187,"latitude":7.319149,"orig_fid":-1},"geometry":{"x":80.687187000000051,"y":7.3191490000000385}},{"attributes":{"objectid":53,"name":"HILL WAY TOUR INN","address":"102 1/1, RAJAPIHILLAWA MAWATHA, KANDY","rooms":5.0,"grade":"STANDARD","district":"Kandy","aga_division":"Kandy","ps_mc_uc":"Kandy Divisional Secretariat","logitiute":80.649055,"latitude":7.283988,"orig_fid":-1},"geometry":{"x":80.649055000000033,"y":7.2839880000000221}},{"attributes":{"objectid":54,"name":"DEERPOINT BUNGALOW","address":"18/7A,SISIL SEWANA, SIRIMALWATTA, KANDY","rooms":6.0,"grade":"SUPERIOR","district":"Kandy","aga_division":"Kundasle","ps_mc_uc":"Kandy Divisional Secretariat","logitiute":80.650061,"latitude":7.300052,"orig_fid":-1},"geometry":{"x":80.650061000000051,"y":7.3000520000000506}},{"attributes":{"objectid":55,"name":"SERENITY LAKE FRONT VILLA","address":"90/15(90/13A), BILYMORIA MAWATHA, IHALA INDEBEDDA, MORATUWA","rooms":4.0,"grade":"DELUXE","district":"Colombo","aga_division":"Moratuwa","ps_mc_uc":"Moratuwa Divisional Secretariat","logitiute":79.900295,"latitude":6.77621,"orig_fid":-1},"geometry":{"x":79.900295000000085,"y":6.7762100000000487}},{"attributes":{"objectid":56,"name":"GALKADAWALA FOREST LODGE","address":"GALKADAWALA, PALUGASWEWA, HABARANA","rooms":4.0,"grade":"DELUXE","district":"Polonnaruwa","aga_division":"Palugaswewa","ps_mc_uc":"Palugaswewa","logitiute":80.69252,"latitude":8.031355,"orig_fid":-1},"geometry":{"x":80.692520000000059,"y":8.031355000000076}},{"attributes":{"objectid":57,"name":"ABEYS VILLA","address":"140, GALLE ROAD,PINWATTE,PANADURA","rooms":5.0,"grade":"DELUXE","district":"Kalutara","aga_division":"Panadura Pradeshiya Sabha","ps_mc_uc":"Kalutara Divisional Secretariat","logitiute":79.918264,"latitude":6.686462,"orig_fid":-1},"geometry":{"x":79.918264000000079,"y":6.6864620000000627}},{"attributes":{"objectid":58,"name":"KOTHMALE HOLIDAY BUNGALOW","address":"126, NAWA NUGAWELA, GAMPOLA","rooms":3.0,"grade":"SUPERIOR","district":"Nuwara Eliya","aga_division":"Nuwara Eliya","ps_mc_uc":"Kothmale Divisional Secretariat","logitiute":80.592182,"latitude":7.063135,"orig_fid":-1},"geometry":{"x":80.592182000000037,"y":7.0631350000000452}},{"attributes":{"objectid":59,"name":"PEACOCK RESIDENCE","address":"NIDANGALA WATTE, MALIGATENNA, 5 ELA, SHRAWASTIPURA","rooms":5.0,"grade":"STANDARD","district":"Anuradhapura","aga_division":"Anuradhapura","ps_mc_uc":"Anuradhapura East","logitiute":80.38993,"latitude":8.308446,"orig_fid":-1},"geometry":{"x":80.389930000000049,"y":8.3084460000000604}},{"attributes":{"objectid":60,"name":"PLANTATION VILLA","address":"PLANTATION VILLA, WATTALAYA WATTE, NEHINNA, DODANGODA","rooms":8.0,"grade":"DELUXE","district":"Kalutara","aga_division":"Kalutara Pradeshiya Sabha","ps_mc_uc":"Kalutara Divisional Secretariat","logitiute":80.062346,"latitude":6.548825,"orig_fid":-1},"geometry":{"x":80.062346000000048,"y":6.5488250000000221}},{"attributes":{"objectid":61,"name":"VILLA MAYURANA","address":"PELASSA ROAD, SANTHOSAGAMA 80650, AHANGAMA","rooms":4.0,"grade":"DELUXE","district":"Galle","aga_division":"Habaraduwa","ps_mc_uc":"Habaraduwa Divisional Secretariat","logitiute":80.341569,"latitude":6.007656,"orig_fid":-1},"geometry":{"x":80.34156900000005,"y":6.0076560000000541}},{"attributes":{"objectid":62,"name":"ROYAL COCOON","address":"2, WEDDERBURN ROAD, NUWARA ELIYA","rooms":7.0,"grade":"DELUXE","district":"Nuwara Eliya","aga_division":"Nuwara Eliya","ps_mc_uc":"Nuwara Eliya Divisional Secretariat","logitiute":80.770444,"latitude":6.968445,"orig_fid":-1},"geometry":{"x":80.770444000000055,"y":6.9684450000000311}},{"attributes":{"objectid":63,"name":"APSARA","address":"332, WELIPENNA ROAD, ALUTHGAMA","rooms":3.0,"grade":"DELUXE","district":"Kalutara","aga_division":"Aluthgama","ps_mc_uc":"Aluthgama","logitiute":80.003386,"latitude":6.433525,"orig_fid":-1},"geometry":{"x":80.003386000000035,"y":6.4335250000000315}},{"attributes":{"objectid":64,"name":"PASMEEGODA ESTATE BUNGALOW","address":"PASMEEGODA ESTATE, KOHOLANA, KALUTARA","rooms":4.0,"grade":"STANDARD","district":"Kalutara","aga_division":"Kalutara Pradeshiya Sabha","ps_mc_uc":"Kalutara Divisional Secretariat","logitiute":79.966016,"latitude":6.588994,"orig_fid":-1},"geometry":{"x":79.966016000000081,"y":6.5889940000000706}},{"attributes":{"objectid":65,"name":"HILL CREST VILLA","address":"3, HILL CREST VILLA GREEN, UDA PERADENIYA, KANDY","rooms":5.0,"grade":"SUPERIOR","district":"Kandy","aga_division":"Kandy","ps_mc_uc":"Gagawata","logitiute":80.61694,"latitude":7.257661,"orig_fid":-1},"geometry":{"x":80.616940000000056,"y":7.2576610000000414}},{"attributes":{"objectid":66,"name":"MANGO HOUSE","address":"3, LEYN BAAN CROSS STREET, GALLE FORT, GALLE","rooms":7.0,"grade":"DELUXE","district":"Galle","aga_division":"Galle","ps_mc_uc":"Galle Divisional Secretariat","logitiute":80.218427,"latitude":6.026796,"orig_fid":-1},"geometry":{"x":80.218427000000077,"y":6.0267960000000471}},{"attributes":{"objectid":67,"name":"THE KANDYAN VILLA","address":"532/30, HEERASSAGALA ROAD, HEERASSAGALA, KANDY","rooms":3.0,"grade":"DELUXE","district":"Kandy","aga_division":"Gagawata Koralya","ps_mc_uc":"Gagawata","logitiute":80.622027,"latitude":7.266516,"orig_fid":-1},"geometry":{"x":80.62202700000006,"y":7.2665160000000242}},{"attributes":{"objectid":68,"name":"FORT BLISS","address":"84, LIGHT HOUSE STREET, FORT, GALLE","rooms":4.0,"grade":"DELUXE","district":"Galle","aga_division":"Galle","ps_mc_uc":"Galle Divisional Secretariat","logitiute":80.217201,"latitude":6.024691,"orig_fid":-1},"geometry":{"x":80.217201000000045,"y":6.0246910000000753}},{"attributes":{"objectid":69,"name":"1ST CHOICE","address":"9/1, FIRST LANE, RATMALANA, MOUNT LAVINIA","rooms":5.0,"grade":"STANDARD","district":"Colombo","aga_division":"Dehiwala-Mount Lavinia","ps_mc_uc":"Ratmalana Divisional Secretariat","logitiute":79.875503,"latitude":6.819636,"orig_fid":-1},"geometry":{"x":79.875503000000037,"y":6.8196360000000595}},{"attributes":{"objectid":70,"name":"VILLA BAYWATCH","address":"PEELA ROAD, BUONAVISTA, RUMASSALA, GALLE","rooms":6.0,"grade":"DELUXE","district":"Galle","aga_division":"Habaraduwa","ps_mc_uc":"Habaraduwa Divisional Secretariat","logitiute":80.23837,"latitude":6.016349,"orig_fid":-1},"geometry":{"x":80.238370000000032,"y":6.0163490000000479}},{"attributes":{"objectid":71,"name":"VILLA ROSA","address":"71/20, DODANWELA PASSAGE, ASGIRIYA, KANDY","rooms":5.0,"grade":"DELUXE","district":"Kandy","aga_division":"Kandy","ps_mc_uc":"Gagawata","logitiute":80.623796,"latitude":7.299604,"orig_fid":-1},"geometry":{"x":80.623796000000084,"y":7.2996040000000448}},{"attributes":{"objectid":72,"name":"MODERN CITY INN","address":"426, MAIN STREET, NEGAMBO","rooms":8.0,"grade":"SUPERIOR","district":"Gampaha","aga_division":"Gampaha","ps_mc_uc":"Negombo Divisional Secretariat","logitiute":79.844831,"latitude":7.212444,"orig_fid":-1},"geometry":{"x":79.844831000000056,"y":7.2124440000000618}},{"attributes":{"objectid":73,"name":"MAX WADIYA","address":"147,GALLE ROAD, (PARROT JUNCTION), URAWATTE, AMBALANGODA","rooms":3.0,"grade":"DELUXE","district":"Galle","aga_division":"Galle","ps_mc_uc":"Galle Divisional Secretariat","logitiute":80.057195,"latitude":6.220452,"orig_fid":-1},"geometry":{"x":80.057195000000036,"y":6.220452000000023}},{"attributes":{"objectid":74,"name":"TAMARIND","address":"1/104, RAHULA MAWATHA, DIGANA","rooms":3.0,"grade":"SUPERIOR","district":"Kandy","aga_division":"Kundasle","ps_mc_uc":"Kundasale Divisional Secretariat","logitiute":80.749437,"latitude":7.265486,"orig_fid":-1},"geometry":{"x":80.749437000000057,"y":7.2654860000000667}},{"attributes":{"objectid":75,"name":"HILL SAFARI","address":"LOWER BRAY ESTATE, OHIYA","rooms":5.0,"grade":"STANDARD","district":"Badulla","aga_division":"Welimada Pradeshiya Sabha","ps_mc_uc":"Haldummulla Divisional Secretariat","logitiute":80.8563,"latitude":6.797426,"orig_fid":-1},"geometry":{"x":80.856300000000033,"y":6.7974260000000299}},{"attributes":{"objectid":76,"name":"OAK RESIDENCIES","address":"NO. 83/2/1 & 83/2/2, SARATHCHANDRA DIAS MAWATHA, PAMUNUVILA, KIRIBATHGODA","rooms":4.0,"grade":"DELUXE","district":"Gampaha","aga_division":"Gampaha","ps_mc_uc":"Biyagama Divisional Secretariat","logitiute":79.932283,"latitude":6.970955,"orig_fid":-1},"geometry":{"x":79.932283000000041,"y":6.9709550000000604}},{"attributes":{"objectid":77,"name":"LANKA STAR BUNGALOW","address":"66/6, RATHNAYKE MAWATHA, PELAWATTE, BATTARAMULLA","rooms":4.0,"grade":"DELUXE","district":"Colombo","aga_division":"Kaduwela Pradeshiya Sabha","ps_mc_uc":"kaduwela Divisional Secretariat","logitiute":79.926141,"latitude":6.886401,"orig_fid":-1},"geometry":{"x":79.92614100000003,"y":6.8864010000000349}},{"attributes":{"objectid":78,"name":"WADDUWA BEACH VILLA","address":"36/17, SANATH PERERA MAWATHA, SOUTH THALPITIYA, WADDUWA","rooms":6.0,"grade":"DELUXE","district":"Kalutara","aga_division":"Panadura Pradeshiya Sabha","ps_mc_uc":"Panadura Divisional Secretariat","logitiute":79.922982,"latitude":6.670927,"orig_fid":-1},"geometry":{"x":79.922982000000047,"y":6.6709270000000629}},{"attributes":{"objectid":79,"name":"LOTUS CHALETS ECO HOTEL-UDAWALAWA","address":"PAHALA KUMBUKEWEWA, CANAL ROAD, MIGAHAJANDURA, SOORIYAWEWA","rooms":3.0,"grade":"SUPERIOR","district":"Hambantota","aga_division":"Hambantota","ps_mc_uc":"Sooriyawewa Divisional Secretariat","logitiute":81.02264,"latitude":6.365119,"orig_fid":-1},"geometry":{"x":81.022640000000081,"y":6.3651190000000497}},{"attributes":{"objectid":80,"name":"VILLA DE ROSHE","address":"60 6C, UNIQUE VIEW ROAD, NUWARA ELIYA","rooms":3.0,"grade":"DELUXE","district":"Nuwara Eliya","aga_division":"Nuwara Eliya","ps_mc_uc":"Nuwara Eliya Divisional Secretariat","logitiute":80.762589,"latitude":6.963889,"orig_fid":-1},"geometry":{"x":80.762589000000048,"y":6.9638890000000515}},{"attributes":{"objectid":81,"name":"THE SHADY NOOK - DIGANA","address":"1/149, VICTORIA RANGE, KENGALLA","rooms":4.0,"grade":"SUPERIOR","district":"Kandy","aga_division":"Kundasle","ps_mc_uc":"Kundasale Divisional Secretariat","logitiute":80.737145,"latitude":7.288235,"orig_fid":-1},"geometry":{"x":80.737145000000055,"y":7.2882350000000429}},{"attributes":{"objectid":82,"name":"HATALE BUNGALOW","address":"392, MAIN STREET, MATALE","rooms":5.0,"grade":"DELUXE","district":"Kandy","aga_division":"Kandy","ps_mc_uc":"Kandy Divisional Secretariat","logitiute":80.727487,"latitude":7.374981,"orig_fid":-1},"geometry":{"x":80.727487000000053,"y":7.374981000000048}},{"attributes":{"objectid":83,"name":"COCO VILLE","address":"WATERVILLE ESTATE, KUMBURUMULA ROAD, KALKUDA","rooms":3.0,"grade":"DELUXE","district":"Batticaloa","aga_division":"Batticaloa","ps_mc_uc":"Batticaloa Divisional Secretariat","logitiute":81.565127,"latitude":7.910318,"orig_fid":-1},"geometry":{"x":81.565127000000075,"y":7.9103180000000748}},{"attributes":{"objectid":84,"name":"ESCONDITE","address":"17/2, SUDHARMAN MAWATHA, RAJAMAHA VIHARA ROAD, PITA-KOTTE","rooms":5.0,"grade":"DELUXE","district":"Colombo","aga_division":"Colombo","ps_mc_uc":"Battaramulla","logitiute":79.913016,"latitude":6.881239,"orig_fid":-1},"geometry":{"x":79.913016000000084,"y":6.8812390000000505}},{"attributes":{"objectid":85,"name":"LAKE VIEW VILLA","address":"LAKE VIEW VILLA, KATHALUWA, AHANGAMA.","rooms":4.0,"grade":"DELUXE","district":"Galle","aga_division":"Habaraduwa","ps_mc_uc":"Habaraduwa Divisional Secretariat","logitiute":80.346964,"latitude":5.993668,"orig_fid":-1},"geometry":{"x":80.346964000000071,"y":5.9936680000000706}},{"attributes":{"objectid":86,"name":"ELEPHANT REACH VILLA","address":"NO 686, KEGALLE - RAMBUKKANA ROAD, PINNAWALA","rooms":4.0,"grade":"SUPERIOR","district":"Kegalle","aga_division":"Rambukkana Pradeshiya Sabha","ps_mc_uc":"Rambukkana Divisional Secretariat","logitiute":80.386898,"latitude":7.304627,"orig_fid":-1},"geometry":{"x":80.386898000000031,"y":7.3046270000000391}},{"attributes":{"objectid":87,"name":"AMBALAMA VILLA","address":"596, MATARA ROAD, DALAWELLA, UNAWATUNA","rooms":4.0,"grade":"DELUXE","district":"Galle","aga_division":"Habaraduwa","ps_mc_uc":"Habaraduwa Divisional Secretariat","logitiute":80.260597,"latitude":6.00147,"orig_fid":-1},"geometry":{"x":80.260597000000075,"y":6.0014700000000403}},{"attributes":{"objectid":88,"name":"SHADY GROVE TOURIST BUNGALOW","address":"7, GANTHERA MAWATHA, WATAPULAWA, KANDY","rooms":4.0,"grade":"SUPERIOR","district":"Kandy","aga_division":"Kandy","ps_mc_uc":"Kandy Divisional Secretariat","logitiute":80.6434,"latitude":7.321631,"orig_fid":-1},"geometry":{"x":80.643400000000042,"y":7.3216310000000249}},{"attributes":{"objectid":89,"name":"VILLA PANORAMA","address":"429/5, SARASAVIGAMA ROAD, MAHAKANDA, HINDAGALA","rooms":6.0,"grade":"DELUXE","district":"Kandy","aga_division":"Gagawata Koralya","ps_mc_uc":"Kandy Divisional Secretariat","logitiute":80.610235,"latitude":7.224908,"orig_fid":-1},"geometry":{"x":80.610235000000046,"y":7.2249080000000276}},{"attributes":{"objectid":90,"name":"DIYAGAL VILLA","address":"42, PITAWALA ROAD, HIRIWADUNNA, PINNAWALA, RAMBUKKANA","rooms":4.0,"grade":"SUPERIOR","district":"Kegalle","aga_division":"Kegalle","ps_mc_uc":"Rambukkana Divisional Secretariat","logitiute":80.387853,"latitude":7.288899,"orig_fid":-1},"geometry":{"x":80.387853000000064,"y":7.2888990000000717}},{"attributes":{"objectid":91,"name":"COLOMBO VILLA","address":"16/6, CAMBRIDGE PLACE, COLOMBO 7","rooms":4.0,"grade":"DELUXE","district":"Colombo","aga_division":"Colombo","ps_mc_uc":"Colombo Divisional Secretariat","logitiute":79.860018,"latitude":6.907345,"orig_fid":-1},"geometry":{"x":79.860018000000082,"y":6.9073450000000207}},{"attributes":{"objectid":92,"name":"LODGE 19","address":"NO 19, AVE MARIA ROAD, NEGOMBO","rooms":6.0,"grade":"DELUXE","district":"Gampaha","aga_division":"Negombo","ps_mc_uc":"Negombo Divisional Secretariat","logitiute":79.843006,"latitude":7.214054,"orig_fid":-1},"geometry":{"x":79.843006000000059,"y":7.2140540000000328}},{"attributes":{"objectid":93,"name":"ALLSPICE VILLA","address":"730A, KOTTE ROAD, ETHUL KOTTE","rooms":4.0,"grade":"DELUXE","district":"Colombo","aga_division":"Sri Jayawardenapura-Kotte","ps_mc_uc":"Sri jayawadanapura","logitiute":79.905837,"latitude":6.895521,"orig_fid":-1},"geometry":{"x":79.905837000000076,"y":6.8955210000000307}},{"attributes":{"objectid":94,"name":"NEW OLD DUTCH HOUSE","address":"NO 21, MIDDLE STREET, FORT, GALLE","rooms":6.0,"grade":"STANDARD","district":"Galle","aga_division":"Galle","ps_mc_uc":"Galle Divisional Secretariat","logitiute":80.21553,"latitude":6.028071,"orig_fid":-1},"geometry":{"x":80.215530000000058,"y":6.0280710000000681}},{"attributes":{"objectid":95,"name":"KIRCHHAYN BUNGALOW","address":"KIRCHHAYN BUNGALOW, AISLABY FARM & ESTATE, BANDARAWELA","rooms":5.0,"grade":"DELUXE","district":"Badulla","aga_division":"Bandarawela Pradeshiya Sabha","ps_mc_uc":"Bandarawela Divisional Secretariat","logitiute":80.98351,"latitude":6.864006,"orig_fid":-1},"geometry":{"x":80.983510000000081,"y":6.8640060000000744}},{"attributes":{"objectid":96,"name":"VILLA 4 U","address":"VILLA 4 U\", SHRAMADHANA MAWATHA, KALUWAMODARA, ALUTHGAMA","rooms":4.0,"grade":"DELUXE","district":"Kalutara","aga_division":"Beruwala Pradeshiya Sabha","ps_mc_uc":"Beruwala Divisional Secretariat","logitiute":79.997339,"latitude":6.444442,"orig_fid":-1},"geometry":{"x":79.997339000000068,"y":6.4444420000000378}},{"attributes":{"objectid":97,"name":"ECO JUNGLE HIDEOUT","address":"ECO JUNGLE HIDEOUT, BERAGAMA, MAKADURA, MULATIANA","rooms":4.0,"grade":"SUPERIOR","district":"Matara","aga_division":"Mulatiyana Pradeshiya Sabha","ps_mc_uc":"Mulatiyana Divisional Secretariat","logitiute":80.566296,"latitude":6.162424,"orig_fid":-1},"geometry":{"x":80.566296000000079,"y":6.1624240000000441}},{"attributes":{"objectid":98,"name":"GROVE SRI LANKA","address":"DIAS WATTE, ATTAVILLU, PALAVIA, PUTTALAM","rooms":2.0,"grade":"DELUXE","district":"Puttalam","aga_division":"Puttalam Pradeshiya Sabha","ps_mc_uc":"Puttalam Divisional Secretariat","logitiute":79.843058,"latitude":7.979181,"orig_fid":-1},"geometry":{"x":79.843058000000042,"y":7.9791810000000396}},{"attributes":{"objectid":99,"name":"SEVENAGAMA","address":"SEVANAGAMA ROAD, OFF TRINCO ROAD, HABARANA","rooms":4.0,"grade":"SUPERIOR","district":"Anuradhapura","aga_division":"Palugaswewa","ps_mc_uc":"Palugaswewa","logitiute":80.75421,"latitude":8.049015,"orig_fid":-1},"geometry":{"x":80.754210000000057,"y":8.049015000000054}},{"attributes":{"objectid":100,"name":"KUMBUKGAS MANKADA-SIGIRIYA","address":"KUMBUKGAS MANKADA, AUDANGAWA, SIGIRIYA","rooms":3.0,"grade":"SUPERIOR","district":"Matale","aga_division":"Dambulla Pradeshiya Sabha","ps_mc_uc":"Dambulla Divisional Secretariat","logitiute":80.743527,"latitude":8.000215,"orig_fid":-1},"geometry":{"x":80.743527000000086,"y":8.0002150000000256}},{"attributes":{"objectid":101,"name":"DUTCH HOUSE","address":"DUTCH HOUSE, \"SAGALA\",POONAGALA ROAD, BANDARAWELA","rooms":2.0,"grade":"DELUXE","district":"Badulla","aga_division":"Bandarawela Pradeshiya Sabha","ps_mc_uc":"Bandarawela Divisional Secretariat","logitiute":80.998309,"latitude":6.824441,"orig_fid":-1},"geometry":{"x":80.998309000000063,"y":6.8244410000000357}},{"attributes":{"objectid":102,"name":"WHITE HOUSE-AMPARA","address":"NO 229, NEW TOWN, AMPARA","rooms":5.0,"grade":"SUPERIOR","district":"Ampara","aga_division":"Ampara","ps_mc_uc":"Ampara Divisional Secretariat","logitiute":81.685484,"latitude":7.299177,"orig_fid":-1},"geometry":{"x":81.685484000000031,"y":7.2991770000000429}},{"attributes":{"objectid":103,"name":"KIZUNA HOUSE","address":"MEEGAHAPALLASSA JUNCTION, MEEGAHAPALLASSA, WELIPANNAGAHAMULLA","rooms":4.0,"grade":"DELUXE","district":"Kurunegala","aga_division":"Udubaddawa Pradeshiya Sabha","ps_mc_uc":"Udubaddawa Divisional Secretariat","logitiute":79.942617,"latitude":7.446826,"orig_fid":-1},"geometry":{"x":79.942617000000041,"y":7.4468260000000441}},{"attributes":{"objectid":104,"name":"SUPUN VILLA","address":"SUPUN VILLA, PITARAMA, BENTOTA","rooms":5.0,"grade":"DELUXE","district":"Galle","aga_division":"Bentota Pradeshiya Sabha","ps_mc_uc":"Benthota Divisional Secretariat","logitiute":79.998279,"latitude":6.42059,"orig_fid":-1},"geometry":{"x":79.998279000000082,"y":6.4205900000000611}},{"attributes":{"objectid":105,"name":"FERNCLIFF BOUTIQUE BUNGALOW","address":"NO 7/10,WEDDER BURN ROAD,NUWARA ELIYA","rooms":4.0,"grade":"DELUXE","district":"Nuwara Eliya","aga_division":"Nuwara Eliya","ps_mc_uc":"Nuwara Eliya Divisional Secretariat","logitiute":80.76969,"latitude":6.971091,"orig_fid":-1},"geometry":{"x":80.769690000000082,"y":6.9710910000000581}},{"attributes":{"objectid":106,"name":"THE FICUS GROVE","address":"ANURADHAPURA ROAD,HABARANA","rooms":5.0,"grade":"DELUXE","district":"Anuradhapura","aga_division":"Pathahewaheta","ps_mc_uc":"Palugaswewa","logitiute":80.745094,"latitude":8.044281,"orig_fid":-1},"geometry":{"x":80.745094000000051,"y":8.0442810000000691}},{"attributes":{"objectid":107,"name":"VILLA CAPERS","address":"26,CHANDRALEKHA MAWATHA, COLOMBO 08","rooms":5.0,"grade":"DELUXE","district":"Colombo","aga_division":"Colombo","ps_mc_uc":"Colombo Divisional Secretariat","logitiute":79.883241,"latitude":6.915085,"orig_fid":-1},"geometry":{"x":79.883241000000055,"y":6.9150850000000332}},{"attributes":{"objectid":108,"name":"TAPPERS VILLAGE ESTATE BANGALOW","address":"JAYASUNDARAKELE, EPITAWALA WATTE, EPITAWALA, KIRIELLA","rooms":4.0,"grade":"DELUXE","district":"Ratnapura","aga_division":"Kuruwita Pradeshiya Sabha","ps_mc_uc":"Kiriella Divisional Secretariat","logitiute":80.244119,"latitude":6.743342,"orig_fid":-1},"geometry":{"x":80.244119000000069,"y":6.743342000000041}},{"attributes":{"objectid":109,"name":"KANDY COTTAGE","address":"NO. 160, LADY GORDON DRIVE, KANDY","rooms":3.0,"grade":"SUPERIOR","district":"Kandy","aga_division":"Kandy","ps_mc_uc":"Kandy Divisional Secretariat","logitiute":80.639766,"latitude":7.301451,"orig_fid":-1},"geometry":{"x":80.639766000000066,"y":7.3014510000000428}},{"attributes":{"objectid":110,"name":"AKKARA DAHAYA","address":"VICTORS LAND, KIRIWELDOLA RD, BATAYAYA, DENIYAYA","rooms":3.0,"grade":"DELUXE","district":"Matara","aga_division":"Matara","ps_mc_uc":"Matara Divisional Secretariat","logitiute":80.545213,"latitude":6.358469,"orig_fid":-1},"geometry":{"x":80.545213000000047,"y":6.3584690000000705}},{"attributes":{"objectid":111,"name":"VILLA TARA","address":"SARATH GUNAWARDANA MAWATHA, WAULUGODA, 2ND CROSS STREET, HIKKADUWA, SRI LANKA","rooms":5.0,"grade":"DELUXE","district":"Galle","aga_division":"Galle","ps_mc_uc":"Galle Divisional Secretariat","logitiute":80.102254,"latitude":6.135854,"orig_fid":-1},"geometry":{"x":80.102254000000073,"y":6.1358540000000517}},{"attributes":{"objectid":112,"name":"NATURES BLISS HOLIDAYS","address":"112/6, HETTIYAWATTA, ELAPITIWALA, RAGAMA","rooms":3.0,"grade":"SUPERIOR","district":"Gampaha","aga_division":"Wattala Pradeshiya Sabha","ps_mc_uc":"Wattala Divisional Secretariat","logitiute":79.90494,"latitude":7.01558,"orig_fid":-1},"geometry":{"x":79.904940000000067,"y":7.0155800000000568}},{"attributes":{"objectid":113,"name":"THE COVE","address":"193 PORUTOTA ROAD KOCHCHIKADE","rooms":3.0,"grade":"DELUXE","district":"Gampaha","aga_division":"Negombo","ps_mc_uc":"Gampaha Divisional Secretariat","logitiute":79.842018,"latitude":7.250783,"orig_fid":-1},"geometry":{"x":79.842018000000053,"y":7.2507830000000695}},{"attributes":{"objectid":114,"name":"GALLE HILL TOP","address":"PALAGALAGODAKANDA, NAVINNA, ULUVITIKE (GALLE)","rooms":5.0,"grade":"SUPERIOR","district":"Galle","aga_division":"Bope","ps_mc_uc":"Thumpane Divisional Secretariat","logitiute":80.209678,"latitude":6.06871,"orig_fid":-1},"geometry":{"x":80.209678000000054,"y":6.0687100000000669}},{"attributes":{"objectid":115,"name":"VILLA ALICE AND FRIENDS","address":"NO.110C, HANATHOTUPOLA ROAD, NAINAMADAMA (EAST)","rooms":4.0,"grade":"DELUXE","district":"Gampaha","aga_division":"Negombo","ps_mc_uc":"Negombo Divisional Secretariat","logitiute":79.840965,"latitude":7.31502,"orig_fid":-1},"geometry":{"x":79.84096500000004,"y":7.3150200000000609}},{"attributes":{"objectid":116,"name":"DIYANILLAKELLE ESTATE BUNGALOW","address":"DIYANILLAKELLE ESTATE BUNGALOW, DIYANILLAKELLE ESTATE,LINDULA.","rooms":5.0,"grade":"DELUXE","district":"Nuwara Eliya","aga_division":"Nuwara Eliya","ps_mc_uc":"Nuwara Eliya Divisional Secretariat","logitiute":80.669435,"latitude":6.903036,"orig_fid":-1},"geometry":{"x":80.669435000000078,"y":6.9030360000000428}},{"attributes":{"objectid":117,"name":"VILLA GLENLOCH","address":"48,GLENLOCH ESTATE,KATUKITULA.","rooms":5.0,"grade":"DELUXE","district":"Nuwara Eliya","aga_division":"Nuwara Eliya","ps_mc_uc":"Kothmale Divisional Secretariat","logitiute":80.680021,"latitude":7.078737,"orig_fid":-1},"geometry":{"x":80.680021000000067,"y":7.0787370000000465}},{"attributes":{"objectid":118,"name":"THE SAFFRON HOUSE","address":"WETAKEIYAGAHAHENA, PEHEMBIYA, DICKWELLA.","rooms":4.0,"grade":"DELUXE","district":"Matara","aga_division":"Dickwella","ps_mc_uc":"Dickwella Divisional Secretariat","logitiute":80.704002,"latitude":5.959839,"orig_fid":-1},"geometry":{"x":80.70400200000006,"y":5.959839000000045}},{"attributes":{"objectid":119,"name":"SAMAUYANA HOLIDAY BUNGALOW","address":"KADUGANNAWA ROAD, BOWALA, GAMPOLA.","rooms":5.0,"grade":"DELUXE","district":"Kandy","aga_division":"Gampola","ps_mc_uc":"Gampola Divisional Secretariat","logitiute":80.562739,"latitude":7.251451,"orig_fid":-1},"geometry":{"x":80.562739000000079,"y":7.2514510000000314}},{"attributes":{"objectid":120,"name":"THE GREENDALE-WATAWALA","address":"63RD MILE POST, WATAWALA TEA ESTATE, AVISSAWELLA-HATTON RD, WATAWALA.","rooms":3.0,"grade":"STANDARD","district":"Nuwara Eliya","aga_division":"Ambagamuwa Pradeshiya Sabha","ps_mc_uc":"Ambagamuwa Divisional Secretariat","logitiute":80.545954,"latitude":6.934554,"orig_fid":-1},"geometry":{"x":80.545954000000052,"y":6.9345540000000483}},{"attributes":{"objectid":121,"name":"RAJA HOUSE","address":"39A, 39A/1, RAJASINGHE ROAD, COLOMBO 06.","rooms":4.0,"grade":"DELUXE","district":"Colombo","aga_division":"Colombo","ps_mc_uc":"Colombo Divisional Secretariat","logitiute":79.859458,"latitude":6.868215,"orig_fid":-1},"geometry":{"x":79.859458000000075,"y":6.8682150000000206}},{"attributes":{"objectid":122,"name":"HAVELOCK SANCTUARY","address":"425/15, HAVELOCK ROAD, COLOMBO 06.","rooms":3.0,"grade":"DELUXE","district":"Colombo","aga_division":"Colombo","ps_mc_uc":"Thimbirigasyaya Divisional Secretariat","logitiute":79.868829,"latitude":6.879174,"orig_fid":-1},"geometry":{"x":79.868829000000062,"y":6.8791740000000345}},{"attributes":{"objectid":123,"name":"BASILEA GUEST","address":"282/5, DIYARILLA ROAD, MORAGALLA, BERUWALA","rooms":6.0,"grade":"SUPERIOR","district":"Kalutara","aga_division":"Beruwala Pradeshiya Sabha","ps_mc_uc":"Beruwala Divisional Secretariat","logitiute":79.986403,"latitude":6.454283,"orig_fid":-1},"geometry":{"x":79.986403000000053,"y":6.4542830000000322}},{"attributes":{"objectid":124,"name":"THIRASARA HOLIDAY RESORT","address":"NO.279, MAHASENPURA, TISSAMAHARAMAYA.","rooms":5.0,"grade":"SUPERIOR","district":"Hambantota","aga_division":"Thissamaharama","ps_mc_uc":"Thissamaharama Divisional Secretariat","logitiute":81.299168,"latitude":6.297342,"orig_fid":-1},"geometry":{"x":81.299168000000066,"y":6.2973420000000715}},{"attributes":{"objectid":125,"name":"ADS BUNGALOW","address":"NO.156/14, 2ND STAGE, ANDAGALA ESTATE, BAMUNUGEDARA, KURUNEGALA.","rooms":5.0,"grade":"SUPERIOR","district":"Kurunegala","aga_division":"Kurunegala","ps_mc_uc":"Kurunegala Divisional Secretariat","logitiute":80.371217,"latitude":7.504404,"orig_fid":-1},"geometry":{"x":80.371217000000058,"y":7.5044040000000223}},{"attributes":{"objectid":126,"name":"RIVERPOOL HOLIDAY BUNGALOW","address":"NO.01, BARANDA COLONY, KATABOOLA-NAWALAPITIYA.","rooms":4.0,"grade":"STANDARD","district":"Kandy","aga_division":"Pasbage Korale Pradeshiya Sabha","ps_mc_uc":"Pasbage Korale Divisional Secretariat","logitiute":80.584803,"latitude":7.014959,"orig_fid":-1},"geometry":{"x":80.584803000000079,"y":7.014959000000033}},{"attributes":{"objectid":127,"name":"218 HOLIDAY RESORT","address":"218-KETAWALA-LEWLA(VIA KANDY)","rooms":3.0,"grade":"STANDARD","district":"Kandy","aga_division":"Kandy","ps_mc_uc":"Gagawata","logitiute":80.67853,"latitude":7.258813,"orig_fid":-1},"geometry":{"x":80.67853000000008,"y":7.2588130000000319}},{"attributes":{"objectid":128,"name":"VILLA AMORE MIO BEACH","address":"GALLE ROAD,HABAKKALA,MAHA INDURUWA,80510","rooms":6.0,"grade":"SUPERIOR","district":"Galle","aga_division":"Bentota Pradeshiya Sabha","ps_mc_uc":"Benthota Divisional Secretariat","logitiute":80.012281,"latitude":6.365953,"orig_fid":-1},"geometry":{"x":80.01228100000003,"y":6.3659530000000473}},{"attributes":{"objectid":129,"name":"I.J. LAKE VIEW HOLIDAY BUNGALOW","address":"NO.66A, BONAVISTA ROAD, NUWARAELIYA.","rooms":3.0,"grade":"SUPERIOR","district":"Nuwara Eliya","aga_division":"Nuwara Eliya","ps_mc_uc":"Nuwara Eliya Divisional Secretariat","logitiute":80.774988,"latitude":6.955038,"orig_fid":-1},"geometry":{"x":80.774988000000064,"y":6.9550380000000587}},{"attributes":{"objectid":130,"name":"SNOWDROP","address":"NO.77,ST-JOSEPH MAWATHA,ETTUKALA,NEGOMBO.","rooms":5.0,"grade":"SUPERIOR","district":"Gampaha","aga_division":"Negombo","ps_mc_uc":"Negombo Divisional Secretariat","logitiute":79.844519,"latitude":7.241739,"orig_fid":-1},"geometry":{"x":79.844519000000048,"y":7.2417390000000523}},{"attributes":{"objectid":131,"name":"SRI BEACH","address":"BEACH ROAD, MUDUKATUWA NORTH, MARAWILA.","rooms":4.0,"grade":"SUPERIOR","district":"Puttalam","aga_division":"Nattandiya Pradeshiya Sabha","ps_mc_uc":"Nattandiya Divisional Secretariat","logitiute":79.818184,"latitude":7.407049,"orig_fid":-1},"geometry":{"x":79.818184000000031,"y":7.4070490000000291}},{"attributes":{"objectid":132,"name":"GALAHA TEA BUNGALOW","address":"GALAHA ESTATE BIG BUNGALOW,MORAGOLLA ROAD,GALAHA.","rooms":4.0,"grade":"DELUXE","district":"Kandy","aga_division":"Kandy","ps_mc_uc":"Delthota Divisional Secretariat","logitiute":80.663933,"latitude":7.203967,"orig_fid":-1},"geometry":{"x":80.663933000000043,"y":7.2039670000000342}},{"attributes":{"objectid":133,"name":"VILLA ATULYA","address":"MUHUDU MAWATHA, WELIKADE, THALARAMBA, KAMBURUGAMUWA.","rooms":6.0,"grade":"DELUXE","district":"Matara","aga_division":"Weligama Pradeshiya Sabha","ps_mc_uc":"Weligama Divisional Secretariat","logitiute":80.474229,"latitude":5.937654,"orig_fid":-1},"geometry":{"x":80.474229000000037,"y":5.9376540000000659}},{"attributes":{"objectid":134,"name":"ALBANY NUWARA ELIYA","address":"11/4, UPPER LAKE ROAD, NUWARA ELIYA","rooms":4.0,"grade":"DELUXE","district":"Nuwara Eliya","aga_division":"Nuwara Eliya","ps_mc_uc":"Nuwara Eliya Divisional Secretariat","logitiute":80.773455,"latitude":6.969254,"orig_fid":-1},"geometry":{"x":80.77345500000007,"y":6.9692540000000349}},{"attributes":{"objectid":135,"name":"KING FISHER LEISURE","address":"MALIMIYA WATTA,YADDEHIMULLA ROAD,UNAWATUNA,GALLE.","rooms":4.0,"grade":"DELUXE","district":"Galle","aga_division":"Habaraduwa","ps_mc_uc":"Habaraduwa Divisional Secretariat","logitiute":80.244339,"latitude":6.008391,"orig_fid":-1},"geometry":{"x":80.244339000000082,"y":6.0083910000000742}},{"attributes":{"objectid":136,"name":"LUMBINI LAGOON.","address":"MIRIHANAWATHTHA,KATHALUWA.AHANGAMA.","rooms":4.0,"grade":"DELUXE","district":"Galle","aga_division":"Habaraduwa","ps_mc_uc":"Habaraduwa Divisional Secretariat","logitiute":80.345444,"latitude":5.987618,"orig_fid":-1},"geometry":{"x":80.345444000000043,"y":5.9876180000000545}},{"attributes":{"objectid":137,"name":"MIHIRI BEACH HOUSE","address":"SANUK HOLDING,MIHIRI BEACH HOUSE,MATARA ROAD,TALPE","rooms":4.0,"grade":"DELUXE","district":"Galle","aga_division":"Habaraduwa","ps_mc_uc":"Habaraduwa Divisional Secretariat","logitiute":80.265508,"latitude":5.999711,"orig_fid":-1},"geometry":{"x":80.265508000000068,"y":5.9997110000000475}},{"attributes":{"objectid":138,"name":"VILLA GOODWILL PARADISE","address":"NO:5/23 B,PINKANDA ROAD,THIRANAGAMA,HIKKADUWA","rooms":5.0,"grade":"SUPERIOR","district":"Galle","aga_division":"Hikkaduwa","ps_mc_uc":"Hikkaduwa Divisional Secretariat","logitiute":80.115051,"latitude":6.122144,"orig_fid":-1},"geometry":{"x":80.115051000000051,"y":6.1221440000000484}},{"attributes":{"objectid":139,"name":"BELPEAK COTTAGE","address":"BELPEAK COTTAGE, GALAGAMA, BELIHULOYA","rooms":2.0,"grade":"STANDARD","district":"Ratnapura","aga_division":"Ratnapura","ps_mc_uc":"Imbulpe Divisional Secretariat","logitiute":80.768507,"latitude":6.720504,"orig_fid":-1},"geometry":{"x":80.768507000000056,"y":6.7205040000000622}},{"attributes":{"objectid":140,"name":"SAKARA HOLIDAY BUNGALOW","address":"NO:55/7,RASIKA,VISHUDHARAMA MAWATHA,AHANGAMA","rooms":4.0,"grade":"DELUXE","district":"Galle","aga_division":"Habaraduwa","ps_mc_uc":"Galle Divisional Secretariat","logitiute":80.373961,"latitude":5.97099,"orig_fid":-1},"geometry":{"x":80.373961000000065,"y":5.9709900000000289}},{"attributes":{"objectid":141,"name":"ELYSIUM","address":"NO: 776/2, MATARA ROAD ,MIHIRIPENNA ,TALPE.","rooms":5.0,"grade":"DELUXE","district":"Galle","aga_division":"Habaraduwa","ps_mc_uc":"Habaraduwa Divisional Secretariat","logitiute":80.270811,"latitude":5.998461,"orig_fid":-1},"geometry":{"x":80.270811000000037,"y":5.9984610000000202}},{"attributes":{"objectid":142,"name":"KANDA HOLIDAY BUNGALOW","address":"NO.104, PARADISE PARK, HANTANA, KANDY","rooms":3.0,"grade":"SUPERIOR","district":"Kandy","aga_division":"Gagawata Koralya","ps_mc_uc":"Gagawata","logitiute":80.63132,"latitude":7.279461,"orig_fid":-1},"geometry":{"x":80.631320000000073,"y":7.2794610000000262}},{"attributes":{"objectid":143,"name":"YALEGODA WALAUWA","address":"YALEGODA ESTATE, HANDESSA VIA PERADENIYA","rooms":4.0,"grade":"DELUXE","district":"Kandy","aga_division":"Udunuwara Pradeshiya Sabha","ps_mc_uc":"Udunuwara Divisional Secretariat","logitiute":80.588479,"latitude":7.24078,"orig_fid":-1},"geometry":{"x":80.588479000000063,"y":7.2407800000000293}},{"attributes":{"objectid":144,"name":"BAY BEACH BUNGALOW","address":"BAY BEACH HOTEL,GANDHI NAGAR,KUMBURUPITIYA,NILAVELI,TRINCOMALEE","rooms":5.0,"grade":"SUPERIOR","district":"Trincomalee","aga_division":"Kuchchaveli","ps_mc_uc":"Kuchchaveli Divisional Secretariat","logitiute":81.172867,"latitude":8.731013,"orig_fid":-1},"geometry":{"x":81.172867000000053,"y":8.7310130000000754}},{"attributes":{"objectid":145,"name":"OCEAN CREST","address":"NO:123,GALLE ROAD,AHANGAMA.","rooms":8.0,"grade":"DELUXE","district":"Galle","aga_division":"Habaraduwa","ps_mc_uc":"Habaraduwa Divisional Secretariat","logitiute":80.354672,"latitude":5.975647,"orig_fid":-1},"geometry":{"x":80.354672000000051,"y":5.9756470000000377}},{"attributes":{"objectid":146,"name":"NISALA VILLA","address":"108/6, HAPUGODA, AMBATENNA","rooms":3.0,"grade":"DELUXE","district":"Kandy","aga_division":"Harispattuwa Pradeshiya Sabha","ps_mc_uc":"Harispattuwa Divisional Secretariat","logitiute":80.608337,"latitude":7.349201,"orig_fid":-1},"geometry":{"x":80.608337000000063,"y":7.3492010000000505}},{"attributes":{"objectid":147,"name":"ECO LANKA VILLA","address":"MAUSSAWA ESTATE, HALPOLA, PUUDALUOYA","rooms":8.0,"grade":"STANDARD","district":"Nuwara Eliya","aga_division":"Nuwara Eliya","ps_mc_uc":"Kothmale Divisional Secretariat","logitiute":80.64202,"latitude":7.019245,"orig_fid":-1},"geometry":{"x":80.642020000000059,"y":7.019245000000069}},{"attributes":{"objectid":148,"name":"THE COVE PASSIKUDAH","address":"NASSIVANTHWU, OFF WALACHCHENAI","rooms":4.0,"grade":"DELUXE","district":"Batticaloa","aga_division":"Batticaloa","ps_mc_uc":"Batticaloa Divisional Secretariat","logitiute":81.539806,"latitude":7.934389,"orig_fid":-1},"geometry":{"x":81.539806000000056,"y":7.934389000000067}},{"attributes":{"objectid":149,"name":"CASA MIJA","address":"N0 37,GALLE ROAD,KAMBURUGAMUWA","rooms":5.0,"grade":"DELUXE","district":"Matara","aga_division":"Weligama Pradeshiya Sabha","ps_mc_uc":"Welimada Divisional Secretariat","logitiute":80.618416,"latitude":7.254844,"orig_fid":-1},"geometry":{"x":80.618416000000082,"y":7.2548440000000483}},{"attributes":{"objectid":150,"name":"THUSARE TALKING HANDS","address":"NO 103/12, DHARMAPALA MAWATHA, COLOMBO 07","rooms":2.0,"grade":"DELUXE","district":"Colombo","aga_division":"Colombo","ps_mc_uc":"Colombo Divisional Secretariat","logitiute":79.857257,"latitude":6.914122,"orig_fid":-1},"geometry":{"x":79.857257000000061,"y":6.9141220000000203}},{"attributes":{"objectid":151,"name":"SUNSHINE RESORTS","address":"NO 78, KOVIL ROAD,MASKELIYA.","rooms":4.0,"grade":"STANDARD","district":"Nuwara Eliya","aga_division":"Nuwara Eliya","ps_mc_uc":"Nuwara Eliya Divisional Secretariat","logitiute":80.571781,"latitude":6.831458,"orig_fid":-1},"geometry":{"x":80.571781000000044,"y":6.8314580000000547}},{"attributes":{"objectid":152,"name":"42 LIGHT HOUSE STREET","address":"42, LIGHTHOUSE STREET, GALLE","rooms":4.0,"grade":"DELUXE","district":"Galle","aga_division":"Galle","ps_mc_uc":"Galle Divisional Secretariat","logitiute":80.216417,"latitude":6.027748,"orig_fid":-1},"geometry":{"x":80.216417000000035,"y":6.027748000000031}},{"attributes":{"objectid":153,"name":"MOUNTAIN ROCK HOLIDAY RESORT","address":"NO.202/3,BOWELAWATTA,KANDY","rooms":2.0,"grade":"SUPERIOR","district":"Kandy","aga_division":"Gagawata Koralya","ps_mc_uc":"Kandy Divisional Secretariat","logitiute":80.617917,"latitude":7.260512,"orig_fid":-1},"geometry":{"x":80.617917000000034,"y":7.2605120000000625}},{"attributes":{"objectid":154,"name":"BACK OF BEYOND PIDURANGALA","address":"KURULU UYANA, TEMPLE ROAD, PIDURANGALA, SIGIRIYA","rooms":4.0,"grade":"SUPERIOR","district":"Matale","aga_division":"Dambulla Pradeshiya Sabha","ps_mc_uc":"Dambulla Divisional Secretariat","logitiute":80.763529,"latitude":7.969325,"orig_fid":-1},"geometry":{"x":80.763529000000062,"y":7.9693250000000262}},{"attributes":{"objectid":155,"name":"BACK OF BEYOND DEHIGAHA ELA","address":"ALAKOLAWEWA, DEHIGAHA ELA, SIGIRIYA","rooms":4.0,"grade":"DELUXE","district":"Matale","aga_division":"Dambulla Pradeshiya Sabha","ps_mc_uc":"Dambulla Divisional Secretariat","logitiute":80.787916,"latitude":7.914324,"orig_fid":-1},"geometry":{"x":80.787916000000052,"y":7.9143240000000219}},{"attributes":{"objectid":156,"name":"THE NEW LAND GUEST","address":"283,MAIN ROAD,KALKUDAH.","rooms":8.0,"grade":"STANDARD","district":"Batticaloa","aga_division":"Koralai Pattu","ps_mc_uc":"Koralai Pattu Divisional Secretariat","logitiute":81.553927,"latitude":7.897904,"orig_fid":-1},"geometry":{"x":81.553927000000044,"y":7.8979040000000396}},{"attributes":{"objectid":157,"name":"SIMLA INN","address":"PASSIKUDAH ROAD, KALKUDAH","rooms":8.0,"grade":"STANDARD","district":"Batticaloa","aga_division":"Batticaloa","ps_mc_uc":"Valaichchenai Divisional Secretariat","logitiute":81.554464,"latitude":7.920843,"orig_fid":-1},"geometry":{"x":81.554464000000053,"y":7.9208430000000476}},{"attributes":{"objectid":158,"name":"BLUE WATER VILLA","address":"318, DAMPE ROAD, PILIYANDALA","rooms":5.0,"grade":"DELUXE","district":"Colombo","aga_division":"Kesbewa","ps_mc_uc":"Kesbewa Divisional Secretariat","logitiute":79.913509,"latitude":6.785133,"orig_fid":-1},"geometry":{"x":79.913509000000033,"y":6.7851330000000303}},{"attributes":{"objectid":159,"name":"TROPICAL RETREAT","address":"NO 182, HEENATIGALA ROAD, UNAWATUNA, GALLE","rooms":5.0,"grade":"DELUXE","district":"Galle","aga_division":"Akmeemana","ps_mc_uc":"Akmeemana Divisional Secretariat","logitiute":80.254688,"latitude":6.020797,"orig_fid":-1},"geometry":{"x":80.254688000000044,"y":6.0207970000000728}},{"attributes":{"objectid":160,"name":"PLANTERS BUNGALOW","address":"10 MILE POST, UVA- KARADAGOLLA, ELLA","rooms":6.0,"grade":"DELUXE","district":"Badulla","aga_division":"Ella Pradeshiya Sabha","ps_mc_uc":"Ella Divisional Secretariat","logitiute":81.07644,"latitude":6.831055,"orig_fid":-1},"geometry":{"x":81.076440000000048,"y":6.8310550000000489}},{"attributes":{"objectid":161,"name":"AMBASEWANA MANSION","address":"NO 05, THOTAMUNA ROAD, THOTAMUNA, MATARA","rooms":4.0,"grade":"DELUXE","district":"Matara","aga_division":"Matara","ps_mc_uc":"Matara Divisional Secretariat","logitiute":80.541717,"latitude":5.944455,"orig_fid":-1},"geometry":{"x":80.541717000000062,"y":5.9444550000000618}},{"attributes":{"objectid":162,"name":"BUNGALOW 1926","address":"NO.20, CROSS STREET, NUWARA ELIYA","rooms":3.0,"grade":"DELUXE","district":"Nuwara Eliya","aga_division":"Nuwara Eliya","ps_mc_uc":"Nuwara Eliya Divisional Secretariat","logitiute":80.76542,"latitude":6.977103,"orig_fid":-1},"geometry":{"x":80.765420000000063,"y":6.9771030000000565}},{"attributes":{"objectid":163,"name":"P.G.C. RESIDENCE","address":"271, ELAGOLLA WATTA, HEERASSAGALA, KANDY","rooms":5.0,"grade":"DELUXE","district":"Kandy","aga_division":"Gagawata Koralya","ps_mc_uc":"Gagawata","logitiute":80.619967,"latitude":7.268558,"orig_fid":-1},"geometry":{"x":80.619967000000031,"y":7.2685580000000414}},{"attributes":{"objectid":164,"name":"SUBASHRI","address":"SUBASHRI, QUAILS RIDGE, VICTORIA GOLF & COUNTRY RESORT, DIGANA, KANDY","rooms":4.0,"grade":"DELUXE","district":"Kandy","aga_division":"Kandy","ps_mc_uc":"Kandy Divisional Secretariat","logitiute":80.765034,"latitude":7.267648,"orig_fid":-1},"geometry":{"x":80.765034000000071,"y":7.2676480000000652}},{"attributes":{"objectid":165,"name":"BELLA CASA","address":"9/2, 4TH LANE, RATMALANA","rooms":3.0,"grade":"STANDARD","district":"Colombo","aga_division":"Dehiwala-Mount Lavinia","ps_mc_uc":"Ratmalana Divisional Secretariat","logitiute":79.878536,"latitude":6.817599,"orig_fid":-1},"geometry":{"x":79.878536000000054,"y":6.8175990000000297}},{"attributes":{"objectid":166,"name":"ELADETTA WALAUWA","address":"ELADETTA ESTATE, HANDESSA, KANDY","rooms":5.0,"grade":"DELUXE","district":"Kandy","aga_division":"Udunuwara Pradeshiya Sabha","ps_mc_uc":"Kandy Divisional Secretariat","logitiute":80.578203,"latitude":7.21801,"orig_fid":-1},"geometry":{"x":80.57820300000003,"y":7.2180100000000493}},{"attributes":{"objectid":167,"name":"RIVER EDGE BUNGALOW","address":"WARAPITIYA ROAD,KATUDENIYA,MATALE","rooms":3.0,"grade":"SUPERIOR","district":"Matale","aga_division":"Matale","ps_mc_uc":"Rattota Divisional Secretariat","logitiute":80.644202,"latitude":7.430442,"orig_fid":-1},"geometry":{"x":80.644202000000064,"y":7.4304420000000277}},{"attributes":{"objectid":168,"name":"VISAL BUNGALOWS","address":"2/259, LOTUS AVENUE, VICTORIA RANGE, KENGALLA","rooms":3.0,"grade":"SUPERIOR","district":"Kandy","aga_division":"Kandy","ps_mc_uc":"Kandy Divisional Secretariat","logitiute":80.729544,"latitude":7.287538,"orig_fid":-1},"geometry":{"x":80.729544000000033,"y":7.2875380000000405}},{"attributes":{"objectid":169,"name":"ROBERT RESIDENCE","address":"NO. 12/7, ROBERT GUNAWARDENA MAWATHA, COLOMBO 06","rooms":3.0,"grade":"SUPERIOR","district":"Colombo","aga_division":"Colombo","ps_mc_uc":"Thimbirigasyaya Divisional Secretariat","logitiute":79.876095,"latitude":6.877735,"orig_fid":-1},"geometry":{"x":79.876095000000078,"y":6.8777350000000297}},{"attributes":{"objectid":170,"name":"CASSIA HILL","address":"WERAHERAWATTA,MEEPE,HABARADUWA,GALLE.","rooms":4.0,"grade":"DELUXE","district":"Galle","aga_division":"Habaraduwa","ps_mc_uc":"Habaraduwa Divisional Secretariat","logitiute":80.289822,"latitude":6.018153,"orig_fid":-1},"geometry":{"x":80.289822000000072,"y":6.0181530000000407}},{"attributes":{"objectid":171,"name":"GIRIULLA MAOYA ELEPHANT VILLA","address":"UDARA STATE, MASNORUWA, GIRIULLA","rooms":3.0,"grade":"SUPERIOR","district":"Kurunegala","aga_division":"Kurunegala","ps_mc_uc":"Kurunegala Divisional Secretariat","logitiute":80.150604,"latitude":7.192303,"orig_fid":-1},"geometry":{"x":80.150604000000044,"y":7.1923030000000381}},{"attributes":{"objectid":172,"name":"DEEP BLUE","address":"39/3, POLHENA ROAD, POLHENA, MATARA","rooms":5.0,"grade":"SUPERIOR","district":"Matara","aga_division":"Matara","ps_mc_uc":"Matara Divisional Secretariat","logitiute":80.525786,"latitude":5.940061,"orig_fid":-1},"geometry":{"x":80.525786000000039,"y":5.9400610000000711}},{"attributes":{"objectid":173,"name":"EAGAL'S NEST","address":"BUONA VISTA, UNAWATUNA, GALLE","rooms":4.0,"grade":"SUPERIOR","district":"Galle","aga_division":"Habaraduwa","ps_mc_uc":"Habaraduwa Divisional Secretariat","logitiute":80.241193,"latitude":6.021211,"orig_fid":-1},"geometry":{"x":80.241193000000067,"y":6.0212110000000507}},{"attributes":{"objectid":174,"name":"BENI BEACH RESORT","address":"NO.5/8A,8TH CROSS, THIRUCHENTHUR ROAD,KALLADY,BATTICALOA.","rooms":4.0,"grade":"STANDARD","district":"Batticaloa","aga_division":"Batticaloa","ps_mc_uc":"Batticaloa Divisional Secretariat","logitiute":81.713547,"latitude":7.721915,"orig_fid":-1},"geometry":{"x":81.713547000000062,"y":7.7219150000000241}},{"attributes":{"objectid":175,"name":"OLIVE GREEN RESORT","address":"NO.96,NEW DUTCH BAR ROAD,KALLADY,BATTICALOA.","rooms":4.0,"grade":"STANDARD","district":"Batticaloa","aga_division":"Batticaloa","ps_mc_uc":"Batticaloa Divisional Secretariat","logitiute":81.712474,"latitude":7.723162,"orig_fid":-1},"geometry":{"x":81.712474000000043,"y":7.7231620000000589}},{"attributes":{"objectid":176,"name":"BONGO STAY","address":"11, BOYD PLACE, COLOMBO 03","rooms":5.0,"grade":"DELUXE","district":"Colombo","aga_division":"Colombo","ps_mc_uc":"Colombo Divisional Secretariat","logitiute":79.85455,"latitude":6.913767,"orig_fid":-1},"geometry":{"x":79.854550000000074,"y":6.9137670000000639}},{"attributes":{"objectid":177,"name":"VILLA RAHA","address":"33, MCLEOD ROAD, BAMBALAPITIYA, COLOMBO 04","rooms":7.0,"grade":"DELUXE","district":"Colombo","aga_division":"Colombo","ps_mc_uc":"Colombo Divisional Secretariat","logitiute":79.860711,"latitude":6.884798,"orig_fid":-1},"geometry":{"x":79.860711000000038,"y":6.8847980000000462}},{"attributes":{"objectid":178,"name":"ANYAA LIFESTYLE","address":"HELENA MAWATHA, WENNAPUWA.","rooms":4.0,"grade":"SUPERIOR","district":"Puttalam","aga_division":"Wennappuwa Pradeshiya Sabha","ps_mc_uc":"Wennappuwa Divisional Secretariat","logitiute":79.839299,"latitude":7.337334,"orig_fid":-1},"geometry":{"x":79.83929900000004,"y":7.3373340000000553}},{"attributes":{"objectid":179,"name":"HOTEL SISIL THERA","address":"NO:558/A, D.S SENANAYAKE MAWATHA, STAGE TOWN, ANURADHAPURA","rooms":4.0,"grade":"STANDARD","district":"Anuradhapura","aga_division":"Anuradhapura","ps_mc_uc":"Anuradhapura East","logitiute":80.396271,"latitude":8.319266,"orig_fid":-1},"geometry":{"x":80.39627100000007,"y":8.3192660000000274}},{"attributes":{"objectid":180,"name":"GULANAHENA TEA ESTATE BUNGALOW","address":"GULANAHENA TEA ESTATE,NILGAHAHENA,THINIYAWALA","rooms":3.0,"grade":"STANDARD","district":"Kalutara","aga_division":"Palindanuwara Pradeshiya Sabha","ps_mc_uc":"Palindanuwara Divisional Secretariat","logitiute":80.321286,"latitude":6.404352,"orig_fid":-1},"geometry":{"x":80.321286000000043,"y":6.404352000000074}},{"attributes":{"objectid":181,"name":"KORAGAHA LODGE","address":"23, KORAGAHA ULPATHA, RANAKELIYA, TISSAMAHARAMA","rooms":4.0,"grade":"DELUXE","district":"Hambantota","aga_division":"Thissamaharama","ps_mc_uc":"Thissamaharama Divisional Secretariat","logitiute":81.332646,"latitude":6.239433,"orig_fid":-1},"geometry":{"x":81.332646000000068,"y":6.2394330000000764}},{"attributes":{"objectid":182,"name":"KURULU ESTATE","address":"KURUNDU WATTHA, NAGASPOLA,RAKWANA","rooms":2.0,"grade":"STANDARD","district":"Ratnapura","aga_division":"Ratnapura","ps_mc_uc":"Godakawela Divisional Secretariat","logitiute":80.643837,"latitude":6.502264,"orig_fid":-1},"geometry":{"x":80.643837000000076,"y":6.5022640000000251}},{"attributes":{"objectid":183,"name":"STAFFORD BUNGALOW","address":"HALGRANOYA,RAGALA","rooms":4.0,"grade":"DELUXE","district":"Nuwara Eliya","aga_division":"Nuwara Eliya","ps_mc_uc":"Walapane Divisional Secretariat","logitiute":80.857195,"latitude":7.011928,"orig_fid":-1},"geometry":{"x":80.857195000000047,"y":7.0119280000000686}},{"attributes":{"objectid":184,"name":"SANCHAREE MOUNTAIN VIEW BUNGALOW","address":"SANASA HOLIDAY RESORT, NO. 495, KANDY ROAD, TOP PASS, NUWARA ELIYA","rooms":5.0,"grade":"SUPERIOR","district":"Nuwara Eliya","aga_division":"Nuwara Eliya","ps_mc_uc":"Nuwara Eliya Divisional Secretariat","logitiute":80.748229,"latitude":6.990895,"orig_fid":-1},"geometry":{"x":80.748229000000038,"y":6.9908950000000232}},{"attributes":{"objectid":185,"name":"NERALU UYANA VILLAS","address":"NERALU UYANA ESTATE, NARAWALA, THALGASYAYA, AKMEEMANA, GALLE","rooms":1.0,"grade":"STANDARD","district":"Galle","aga_division":"Akmeemana","ps_mc_uc":"Akmeemana Divisional Secretariat","logitiute":80.243823,"latitude":6.099019,"orig_fid":-1},"geometry":{"x":80.243823000000077,"y":6.0990190000000553}},{"attributes":{"objectid":186,"name":"VILLA SUKUM","address":"18, QUAILS RIDGE, VICTORIA GOLF CLUB,DIGANE","rooms":6.0,"grade":"DELUXE","district":"Kandy","aga_division":"Kandy","ps_mc_uc":"Kandy Divisional Secretariat","logitiute":80.7742644,"latitude":7.2650791,"orig_fid":-1},"geometry":{"x":80.77426440000005,"y":7.2650791000000368}},{"attributes":{"objectid":187,"name":"HAWALLI VILLA","address":"492/2, PERADENIYA ROAD, KANDY","rooms":2.0,"grade":"SUPERIOR","district":"Kandy","aga_division":"Kandy","ps_mc_uc":"Kandy Divisional Secretariat","logitiute":80.621635,"latitude":7.282176,"orig_fid":-1},"geometry":{"x":80.621635000000083,"y":7.2821760000000495}},{"attributes":{"objectid":188,"name":"COZY NEST","address":"9, UPPER DICKSON ROAD, GALLE","rooms":2.0,"grade":"DELUXE","district":"Galle","aga_division":"Galle","ps_mc_uc":"Galle Divisional Secretariat","logitiute":80.218819,"latitude":6.038124,"orig_fid":-1},"geometry":{"x":80.218819000000053,"y":6.0381240000000389}},{"attributes":{"objectid":189,"name":"PITTANIYA VILLA","address":"37/14, DAMRUWAN MAWATHA, MIHIRIPENNA, THALPE, GALLE","rooms":3.0,"grade":"DELUXE","district":"Galle","aga_division":"Habaraduwa","ps_mc_uc":"Habaraduwa Divisional Secretariat","logitiute":80.27095,"latitude":6.001739,"orig_fid":-1},"geometry":{"x":80.270950000000084,"y":6.0017390000000432}},{"attributes":{"objectid":190,"name":"WELIGAMA GEDARA","address":"NO 5/6, BANDARANAYAKA MAWATHA, HETTIWEEDIYA, WELIGAMA","rooms":3.0,"grade":"STANDARD","district":"Matara","aga_division":"Weligama Pradeshiya Sabha","ps_mc_uc":"Weligama Divisional Secretariat","logitiute":80.428849,"latitude":5.977378,"orig_fid":-1},"geometry":{"x":80.428849000000071,"y":5.9773780000000443}},{"attributes":{"objectid":191,"name":"APPAS BREEZY HOME STAY","address":"15, PUTHU MUGATHUWARAM,BATTICALOA","rooms":2.0,"grade":"STANDARD","district":"Batticaloa","aga_division":"Batticaloa","ps_mc_uc":"Manmunai North Divisional Secretariat","logitiute":81.67473,"latitude":7.730997,"orig_fid":-1},"geometry":{"x":81.674730000000068,"y":7.730997000000059}},{"attributes":{"objectid":192,"name":"HOTEL TOBIKO","address":"NO 24, MURUGAPURI ROAD, UPPUVELI, TRINCOMALEE","rooms":4.0,"grade":"SUPERIOR","district":"Trincomalee","aga_division":"Trincomalee","ps_mc_uc":"Trincomalee Divisional Secretariat","logitiute":81.219524,"latitude":8.601562,"orig_fid":-1},"geometry":{"x":81.219524000000035,"y":8.6015620000000581}},{"attributes":{"objectid":193,"name":"SAFE HEAVEN FAMILY VILLA","address":"29/248 SHANTHA KUMAR RANASINGHE MW, AMPITIYA RD, KANDY","rooms":3.0,"grade":"SUPERIOR","district":"Kandy","aga_division":"Kandy","ps_mc_uc":"Kandy Divisional Secretariat","logitiute":80.651097,"latitude":7.283451,"orig_fid":-1},"geometry":{"x":80.65109700000005,"y":7.2834510000000705}},{"attributes":{"objectid":194,"name":"SPD BUNGALOW \"WATAWALA LASSANA\"","address":"MISTY RANGES, HATTON ROAD, WATAWALA.","rooms":5.0,"grade":"STANDARD","district":"Nuwara Eliya","aga_division":"Ginigathhena","ps_mc_uc":"Ambagamuwa Divisional Secretariat","logitiute":80.546785,"latitude":6.9323964,"orig_fid":-1},"geometry":{"x":80.546785000000057,"y":6.9323964000000728}},{"attributes":{"objectid":195,"name":"VILLA KANCHANA","address":"WELIKADE,MUHUDU MAWATHA,THALARAMBE,KAMBURUGAMUWA,MATARA","rooms":5.0,"grade":"DELUXE","district":"Matara","aga_division":"Weligama Pradeshiya Sabha","ps_mc_uc":"Weligama Divisional Secretariat","logitiute":80.493827,"latitude":5.948646,"orig_fid":-1},"geometry":{"x":80.493827000000067,"y":5.9486460000000534}},{"attributes":{"objectid":196,"name":"VILLA SEVEN","address":"NO:07(332/1),JUBILEE LANE,WALANA,PANADURA","rooms":3.0,"grade":"SUPERIOR","district":"Kalutara","aga_division":"Panadura Pradeshiya Sabha","ps_mc_uc":"Panadura Divisional Secretariat","logitiute":79.905723,"latitude":6.730944,"orig_fid":-1},"geometry":{"x":79.90572300000008,"y":6.7309440000000222}},{"attributes":{"objectid":197,"name":"SERENE VILLA","address":"245/55 BATUGEDARA MAIN ROAD,RATNAPURA","rooms":4.0,"grade":"SUPERIOR","district":"Ratnapura","aga_division":"Ratnapura","ps_mc_uc":"Ratnapura Divisional Secretariat","logitiute":80.417443,"latitude":6.675483,"orig_fid":-1},"geometry":{"x":80.417443000000048,"y":6.6754830000000425}},{"attributes":{"objectid":198,"name":"SP TOURS AND REST","address":"NO:873, HOSPITAL ROAD, JAFFNA","rooms":5.0,"grade":"STANDARD","district":"Jaffna","aga_division":"Jaffna","ps_mc_uc":"Jaffna Divisional Secretariat","logitiute":80.009362,"latitude":9.667259,"orig_fid":-1},"geometry":{"x":80.009362000000067,"y":9.6672590000000582}},{"attributes":{"objectid":199,"name":"MARGOSA","address":"STATION ROAD, URELU NORTH, CHUNNAKAM, JAFFNA","rooms":5.0,"grade":"DELUXE","district":"Jaffna","aga_division":"Jaffna","ps_mc_uc":"Jaffna Divisional Secretariat","logitiute":80.033083,"latitude":9.746404,"orig_fid":-1},"geometry":{"x":80.033083000000033,"y":9.7464040000000409}},{"attributes":{"objectid":200,"name":"PERERA HOME","address":"133, 16TH LANE,LAKE CITY HOME, JA ELA","rooms":3.0,"grade":"SUPERIOR","district":"Gampaha","aga_division":"Gampaha","ps_mc_uc":"Ja-Ela Divisional Secretariat","logitiute":80.031847,"latitude":7.166809,"orig_fid":-1},"geometry":{"x":80.031847000000084,"y":7.1668090000000575}},{"attributes":{"objectid":201,"name":"RANNA HOUSE BY FOX RESORT","address":"NO 2 MODARA ROAD,KAHADAMODARA,RANNA,TANGALLE.","rooms":3.0,"grade":"DELUXE","district":"Hambantota","aga_division":"Tangalle Pradeshiya Sabha","ps_mc_uc":"Tangalle Divisional Secretariat","logitiute":80.895067,"latitude":6.063352,"orig_fid":-1},"geometry":{"x":80.89506700000004,"y":6.0633520000000658}},{"attributes":{"objectid":202,"name":"AMBANWALA TOURIST BUNGALOW","address":"NO 56 AMBANWALA WALAWWA,AMBANWALA,WELAMBODA","rooms":4.0,"grade":"STANDARD","district":"Kandy","aga_division":"Uhana Pradeshiya Sabha","ps_mc_uc":"Udunuwara Divisional Secretariat","logitiute":80.544006,"latitude":7.216776,"orig_fid":-1},"geometry":{"x":80.544006000000081,"y":7.2167760000000385}},{"attributes":{"objectid":203,"name":"SIHINAYA VILLA","address":"273,KAPPARATOTA ROAD, KAPPARATOTA,WELIGAMA.","rooms":4.0,"grade":"DELUXE","district":"Matara","aga_division":"Weligama Pradeshiya Sabha","ps_mc_uc":"Weligama Divisional Secretariat","logitiute":80.41658,"latitude":5.958281,"orig_fid":-1},"geometry":{"x":80.416580000000067,"y":5.9582810000000563}},{"attributes":{"objectid":204,"name":"RIVERSIDE SUITES","address":"52 DUTUGEMUNU MAWATHA, LEWELLA, KANDY","rooms":4.0,"grade":"DELUXE","district":"Kandy","aga_division":"Kandy","ps_mc_uc":"Kundasale Divisional Secretariat","logitiute":80.651649,"latitude":7.302483,"orig_fid":-1},"geometry":{"x":80.651649000000077,"y":7.302483000000052}},{"attributes":{"objectid":205,"name":"SAKURA HANA","address":"NO/34,,PATHMINI PERIS MAWATHA,ALUTHGAMA","rooms":3.0,"grade":"SUPERIOR","district":"Kalutara","aga_division":"Beruwala Pradeshiya Sabha","ps_mc_uc":"Beruwala Divisional Secretariat","logitiute":79.99749,"latitude":6.428556,"orig_fid":-1},"geometry":{"x":79.997490000000084,"y":6.4285560000000714}},{"attributes":{"objectid":206,"name":"HOME FROM HOME","address":"NO 42/2,RUPASIRI MAWATHA,MIRIHANA NUGEGODA","rooms":3.0,"grade":"DELUXE","district":"Colombo","aga_division":"Kotte Muncipal Council","ps_mc_uc":"Kotte Divisional Secretariat","logitiute":79.899679,"latitude":6.864908,"orig_fid":-1},"geometry":{"x":79.899679000000049,"y":6.8649080000000708}},{"attributes":{"objectid":207,"name":"MOUNTAIN VILLA RIVERSTON","address":"PITAWALA,ILLUKKUMBURA,MATALE","rooms":3.0,"grade":"DELUXE","district":"Matale","aga_division":"Matale","ps_mc_uc":"Laggala-Pallegama Divisional Secretariat","logitiute":80.753128,"latitude":7.547738,"orig_fid":-1},"geometry":{"x":80.753128000000061,"y":7.547738000000038}},{"attributes":{"objectid":208,"name":"KAYJAY BEACH HOUSE","address":"OLD PASSIKUDHA ROAD,PASSIKUDHA","rooms":6.0,"grade":"SUPERIOR","district":"Batticaloa","aga_division":"Kalkudha","ps_mc_uc":"Valaichchenai Divisional Secretariat","logitiute":81.569541,"latitude":7.919074,"orig_fid":-1},"geometry":{"x":81.569541000000072,"y":7.9190740000000233}},{"attributes":{"objectid":209,"name":"HEAVEN BY O","address":"24/4,YADDEHIMULLA ROAD, UNAWATUNA,GALLE","rooms":8.0,"grade":"DELUXE","district":"Galle","aga_division":"Habaraduwa","ps_mc_uc":"Habaraduwa Divisional Secretariat","logitiute":80.244031,"latitude":6.010155,"orig_fid":-1},"geometry":{"x":80.244031000000064,"y":6.0101550000000543}},{"attributes":{"objectid":210,"name":"ANGEL TOWER","address":"NO 78/8A ,2ND LANE, HEERASSAGALA, KANDY,HEERASSAGALA ROAD,KANDY","rooms":4.0,"grade":"SUPERIOR","district":"Kandy","aga_division":"Kandy","ps_mc_uc":"Kandy Divisional Secretariat","logitiute":80.633726,"latitude":7.290572,"orig_fid":-1},"geometry":{"x":80.633726000000081,"y":7.2905720000000542}},{"attributes":{"objectid":211,"name":"ROBI GARDEN VILLA","address":"108,KATANA ROAD,THIMBIRIGASKATUWA, NEGAMBO, SRI-LANKA","rooms":4.0,"grade":"DELUXE","district":"Gampaha","aga_division":"Kelaniya Pradeshiya Sabha","ps_mc_uc":"Kelaniya Divisional Secretariat","logitiute":79.858999,"latitude":7.228002,"orig_fid":-1},"geometry":{"x":79.85899900000004,"y":7.2280020000000604}},{"attributes":{"objectid":212,"name":"MADUSANKA HOLYDAY HOME","address":"NO 15, DIGANA, RAJAWELLA,,","rooms":8.0,"grade":"STANDARD","district":"Kandy","aga_division":"Kundasle","ps_mc_uc":"Kundasale Divisional Secretariat","logitiute":80.735452,"latitude":7.296389,"orig_fid":-1},"geometry":{"x":80.735452000000066,"y":7.2963890000000333}},{"attributes":{"objectid":213,"name":"FRENCH LOTUS","address":"YADDEHIMULLA ROAD,,UNAWATUNA BEACH,,GALLE.","rooms":5.0,"grade":"DELUXE","district":"Galle","aga_division":"Habaraduwa","ps_mc_uc":"Galle Divisional Secretariat","logitiute":80.242874,"latitude":6.010178,"orig_fid":-1},"geometry":{"x":80.242874000000029,"y":6.0101780000000531}},{"attributes":{"objectid":214,"name":"MONERATENNA","address":"BACK OF BEYOND,WARNAKULASURIYA MAWATHA,KAHANDAMODARA,RANNA.","rooms":7.0,"grade":"DELUXE","district":"Hambantota","aga_division":"Tangalle Pradeshiya Sabha","ps_mc_uc":"Tangalle Divisional Secretariat","logitiute":80.891513,"latitude":6.069909,"orig_fid":-1},"geometry":{"x":80.891513000000032,"y":6.0699090000000524}},{"attributes":{"objectid":215,"name":"JOYOUS COTTAGE","address":"NO:62,NEELAMMAHARA ROAD, MAHARAGAMA","rooms":6.0,"grade":"DELUXE","district":"Colombo","aga_division":"Maharagama","ps_mc_uc":"Maharagama Divisional Secretariat","logitiute":79.926314,"latitude":6.837627,"orig_fid":-1},"geometry":{"x":79.926314000000048,"y":6.8376270000000545}},{"attributes":{"objectid":216,"name":"TARU VILLAS-RIVER COTTAGE","address":"111,BENTOTA CIRCULAR ROAD, BENTOTA 80500","rooms":2.0,"grade":"DELUXE","district":"Galle","aga_division":"Bentota Pradeshiya Sabha","ps_mc_uc":"Benthota Divisional Secretariat","logitiute":80.005979,"latitude":6.418918,"orig_fid":-1},"geometry":{"x":80.005979000000082,"y":6.4189180000000761}}]}