{"type":"FeatureCollection","features":[{"type":"Feature","id":1,"geometry":{"type":"Point","coordinates":[80.416952000000038,8.3337520000000609]},"properties":{"objectid":1,"name":"KIVGA HOLIDAY HOME","address":"4C/8 FIRST STAGE, MIHINDU MAWATHA, ANURADHAPURA","rooms":4,"grade":"DELUXE","district":"Anuradhapura","aga_division":"Anuradhapura","ps_mc_uc":"Anuradhapura East","logitiute":80.416951999999995,"latitude":8.3337520000000005,"orig_fid":-1}},{"type":"Feature","id":2,"geometry":{"type":"Point","coordinates":[79.83766200000008,7.3069260000000327]},"properties":{"objectid":2,"name":"VILLA SUNBIRD","address":"89B, WELLAMANKARAYA, OFF HUE FERNANDO MAWATHA, NAINAMADAMA","rooms":6,"grade":"DELUXE","district":"Puttalam","aga_division":"Polonnaruwa","ps_mc_uc":"Wennappuwa Divisional Secretariat","logitiute":79.837661999999995,"latitude":7.3069259999999998,"orig_fid":-1}},{"type":"Feature","id":3,"geometry":{"type":"Point","coordinates":[80.094262100000037,7.0566908000000694]},"properties":{"objectid":3,"name":"COMILLA BUNGALOW","address":"\"COMILLA WATHE\" 76/5, INDURUGALLA, WATHURUGAMA","rooms":3,"grade":"DELUXE","district":"Gampaha","aga_division":"Gampaha","ps_mc_uc":"Dompe Divisional Secretariat","logitiute":80.094262099999995,"latitude":7.0566908000000002,"orig_fid":-1}},{"type":"Feature","id":4,"geometry":{"type":"Point","coordinates":[79.831100000000049,7.1524170000000709]},"properties":{"objectid":4,"name":"SACHAL MIR'S","address":"2-C, DUNGALPITIYA, THALAHENA, NEGAMBO","rooms":4,"grade":"SUPERIOR","district":"Gampaha","aga_division":"Negombo","ps_mc_uc":"Negombo Divisional Secretariat","logitiute":79.831100000000006,"latitude":7.1524169999999998,"orig_fid":-1}},{"type":"Feature","id":5,"geometry":{"type":"Point","coordinates":[80.745866500000034,6.990671700000064]},"properties":{"objectid":5,"name":"MISTY HILLS BOUTIQUE COTTAGE","address":"20/23,TOP PASS, KANDY ROAD, NUWARAELIYA.(VIA SANASA RESORT)","rooms":4,"grade":"DELUXE","district":"Nuwara Eliya","aga_division":"Nuwara Eliya","ps_mc_uc":"Nuwara Eliya Divisional Secretariat","logitiute":80.745866500000005,"latitude":6.9906717,"orig_fid":-1}},{"type":"Feature","id":6,"geometry":{"type":"Point","coordinates":[79.888801000000058,6.7733350000000314]},"properties":{"objectid":6,"name":"THE PIER","address":"NO 113/8B ,DUWAWATTA, ST PETER'S ROAD, KORALAWELLA. MORATUWA.","rooms":4,"grade":"DELUXE","district":"Colombo","aga_division":"Moratuwa","ps_mc_uc":"Moratuwa Divisional Secretariat","logitiute":79.888801000000001,"latitude":6.7733349999999994,"orig_fid":-1}},{"type":"Feature","id":7,"geometry":{"type":"Point","coordinates":[80.430709700000079,8.3538076000000387]},"properties":{"objectid":7,"name":"SADULA HOLIDAY RESORT","address":"PULLAYAR JUNCTION, MIHINTHALE ROAD, ANURADHAPURA.","rooms":5,"grade":"SUPERIOR","district":"Anuradhapura","aga_division":"Anuradhapura","ps_mc_uc":"Anuradhapura East","logitiute":80.430709700000008,"latitude":8.3538075999999997,"orig_fid":-1}},{"type":"Feature","id":8,"geometry":{"type":"Point","coordinates":[79.759615000000053,8.2295330000000604]},"properties":{"objectid":8,"name":"ST.ANNE S LAGOON HOUSE","address":"SOTHTHUPITIYA WADIYA, KALPITIYA ROAD, PALAKKUDA.","rooms":6,"grade":"DELUXE","district":"Puttalam","aga_division":"Kalpitiya Pradeshiya Sabha","ps_mc_uc":"Kalpitiya Divisional Secretariat","logitiute":79.759615000000011,"latitude":8.229533,"orig_fid":-1}},{"type":"Feature","id":9,"geometry":{"type":"Point","coordinates":[81.051510000000064,6.8741640000000643]},"properties":{"objectid":9,"name":"FOREST PARADISE GUEST HOME","address":"PASSARA ROAD, ELLA.","rooms":5,"grade":"SUPERIOR","district":"Badulla","aga_division":"Ella Pradeshiya Sabha","ps_mc_uc":"Ella Divisional Secretariat","logitiute":81.051510000000007,"latitude":6.8741640000000004,"orig_fid":-1}},{"type":"Feature","id":10,"geometry":{"type":"Point","coordinates":[79.918606000000068,6.7660990000000538]},"properties":{"objectid":10,"name":"THE RANMIN BUNGALOW","address":"NO.9, TUDUWA, DAMPE, PILIYANDALA.","rooms":3,"grade":"SUPERIOR","district":"Colombo","aga_division":"Colombo","ps_mc_uc":"Colombo Divisional Secretariat","logitiute":79.918605999999997,"latitude":6.7660989999999996,"orig_fid":-1}},{"type":"Feature","id":11,"geometry":{"type":"Point","coordinates":[80.949920000000077,6.7647000000000617]},"properties":{"objectid":11,"name":"CLOUDS","address":"64,LILY AVE, HAPUTALE.","rooms":5,"grade":"DELUXE","district":"Badulla","aga_division":"Haputale","ps_mc_uc":"Haputale Divisional Secretariat","logitiute":80.949920000000006,"latitude":6.7647000000000004,"orig_fid":-1}},{"type":"Feature","id":12,"geometry":{"type":"Point","coordinates":[80.618416000000082,7.2548440000000483]},"properties":{"objectid":12,"name":"CASA BLANCO","address":"395/95, HILL CREST GREEN ,BOWALAWATTE, UDA PERADENIYA, KANDY.","rooms":4,"grade":"DELUXE","district":"Kandy","aga_division":"Kandy","ps_mc_uc":"Kandy Divisional Secretariat","logitiute":80.618415999999996,"latitude":7.2548440000000003,"orig_fid":-1}},{"type":"Feature","id":13,"geometry":{"type":"Point","coordinates":[79.971366000000046,7.2514450000000465]},"properties":{"objectid":13,"name":"HORAKELLE ESTATE","address":"BLOCK NO 2, PALLIYAPITIYA, DUNAGAHA.","rooms":9,"grade":"DELUXE","district":"Gampaha","aga_division":"Gampaha","ps_mc_uc":"Gampaha Divisional Secretariat","logitiute":79.971366000000003,"latitude":7.2514450000000004,"orig_fid":-1}},{"type":"Feature","id":14,"geometry":{"type":"Point","coordinates":[79.90494300000006,6.7402240000000688]},"properties":{"objectid":14,"name":"ANKINDA LUXURIOUS VILLA","address":"293/11M, SURAMYA PLACE, GORAKAPOLA, PANADURA","rooms":4,"grade":"DELUXE","district":"Kalutara","aga_division":"Panadura Pradeshiya Sabha","ps_mc_uc":"Panadura Divisional Secretariat","logitiute":79.904943000000003,"latitude":6.7402239999999995,"orig_fid":-1}},{"type":"Feature","id":15,"geometry":{"type":"Point","coordinates":[81.218226000000072,8.6167670000000385]},"properties":{"objectid":15,"name":"SILVER BEACH HOTEL","address":"66/12, ALLES GARDEN, UPPUVELI,TRINCOMALEE","rooms":5,"grade":"STANDARD","district":"Trincomalee","aga_division":"Trincomalee","ps_mc_uc":"Trincomalee Divisional Secretariat","logitiute":81.218226000000001,"latitude":8.6167669999999994,"orig_fid":-1}},{"type":"Feature","id":16,"geometry":{"type":"Point","coordinates":[80.983702000000051,6.8428480000000604]},"properties":{"objectid":16,"name":"SAMANPAYA HOLIDAY BUNGALOW","address":"HELAMUDUNA, BANDARAWELA.","rooms":4,"grade":"DELUXE","district":"Badulla","aga_division":"Bandarawela Pradeshiya Sabha","ps_mc_uc":"Haputale Divisional Secretariat","logitiute":80.983701999999994,"latitude":6.842848,"orig_fid":-1}},{"type":"Feature","id":17,"geometry":{"type":"Point","coordinates":[80.760551000000078,8.0482840000000238]},"properties":{"objectid":17,"name":"LE GRAND MEAULNES - FAMILY HOLIDAY BUNGALOW","address":"\"GREEN PATH\", TRINCOMALEE RD,HABARANA.","rooms":3,"grade":"SUPERIOR","district":"Anuradhapura","aga_division":"Anuradhapura","ps_mc_uc":"Anuradhapura East","logitiute":80.760550999999992,"latitude":8.0482839999999989,"orig_fid":-1}},{"type":"Feature","id":18,"geometry":{"type":"Point","coordinates":[80.465755000000058,6.9968410000000745]},"properties":{"objectid":18,"name":"ABERDEEN RANGE HOLIDAY HOME","address":"RANJIRAWA, GINIGATHHENA","rooms":3,"grade":"SUPERIOR","district":"Nuwara Eliya","aga_division":"Nuwara Eliya","ps_mc_uc":"Nuwara Eliya Divisional Secretariat","logitiute":80.465755000000001,"latitude":6.9968410000000008,"orig_fid":-1}},{"type":"Feature","id":19,"geometry":{"type":"Point","coordinates":[80.63986600000004,7.199854000000073]},"properties":{"objectid":19,"name":"CLUB LESPRI","address":"322,TRANQUILITY, GALAHA ROAD, NILLAMBA","rooms":6,"grade":"DELUXE","district":"Kandy","aga_division":"Kandy","ps_mc_uc":"Kandy Divisional Secretariat","logitiute":80.639865999999998,"latitude":7.1998540000000002,"orig_fid":-1}},{"type":"Feature","id":20,"geometry":{"type":"Point","coordinates":[80.101595000000032,6.1470390000000634]},"properties":{"objectid":20,"name":"BLUE LAGOON","address":"\"BLUE LAGOON'WELLAWATTE,HIKKADUWA","rooms":3,"grade":"SUPERIOR","district":"Galle","aga_division":"Hikkaduwa","ps_mc_uc":"Hikkaduwa Divisional Secretariat","logitiute":80.101595000000003,"latitude":6.1470390000000004,"orig_fid":-1}},{"type":"Feature","id":21,"geometry":{"type":"Point","coordinates":[80.776064000000076,6.9735480000000507]},"properties":{"objectid":21,"name":"SENANI COLONIAL HOLIDAY BUNGALOW","address":"NO.80,LADY MC CALUM DRIVE,HAWAELIYA,NUWARA ELIYA","rooms":4,"grade":"DELUXE","district":"Nuwara Eliya","aga_division":"Nuwara Eliya","ps_mc_uc":"Nuwara Eliya Divisional Secretariat","logitiute":80.776063999999991,"latitude":6.9735479999999992,"orig_fid":-1}},{"type":"Feature","id":22,"geometry":{"type":"Point","coordinates":[80.007141000000047,6.4281510000000708]},"properties":{"objectid":22,"name":"RIVER SIDE INN FUJI","address":"81,CIRCULAR ROAD,OBADAWATTA,BENTOTA","rooms":4,"grade":"DELUXE","district":"Galle","aga_division":"Bentota Pradeshiya Sabha","ps_mc_uc":"Benthota Divisional Secretariat","logitiute":80.00714099999999,"latitude":6.4281509999999997,"orig_fid":-1}},{"type":"Feature","id":23,"geometry":{"type":"Point","coordinates":[80.61395200000004,7.2820270000000278]},"properties":{"objectid":23,"name":"KANDY HOUSE","address":"NO 95,UPUL MAWATHA, ,5TH LANE,PRIMROSE GARDEN,KANDY","rooms":2,"grade":"DELUXE","district":"Kandy","aga_division":"Kandy","ps_mc_uc":"Kandy Divisional Secretariat","logitiute":80.613951999999998,"latitude":7.2820270000000002,"orig_fid":-1}},{"type":"Feature","id":24,"geometry":{"type":"Point","coordinates":[80.570361000000048,5.9391560000000254]},"properties":{"objectid":24,"name":"LANDS END","address":"649/13,SK TOWN,MEDDAWATTA,MATARA","rooms":3,"grade":"STANDARD","district":"Matara","aga_division":"Matara","ps_mc_uc":"Matara Divisional Secretariat","logitiute":80.570361000000005,"latitude":5.9391559999999997,"orig_fid":-1}},{"type":"Feature","id":25,"geometry":{"type":"Point","coordinates":[80.101597000000083,6.1398430000000417]},"properties":{"objectid":25,"name":"SERENITY VILLA","address":"NO.14/2,AMARASENA MAWATHA,HIKKADUWA","rooms":3,"grade":"STANDARD","district":"Galle","aga_division":"Hikkaduwa","ps_mc_uc":"Hikkaduwa Divisional Secretariat","logitiute":80.101596999999998,"latitude":6.1398429999999999,"orig_fid":-1}},{"type":"Feature","id":26,"geometry":{"type":"Point","coordinates":[80.748221000000058,6.990897000000075]},"properties":{"objectid":26,"name":"SPRING ACRE","address":"NO.495 A-4, KANDY ROAD, TOPPASS,NUWARA ELIYA","rooms":4,"grade":"DELUXE","district":"Nuwara Eliya","aga_division":"Nuwara Eliya","ps_mc_uc":"Nuwara Eliya Divisional Secretariat","logitiute":80.748221000000001,"latitude":6.9908970000000004,"orig_fid":-1}},{"type":"Feature","id":27,"geometry":{"type":"Point","coordinates":[80.590915000000052,6.8969880000000217]},"properties":{"objectid":27,"name":"TEA HILLS","address":"LYND HEAVEN , FRUIT HILL, HATTON","rooms":4,"grade":"SUPERIOR","district":"Nuwara Eliya","aga_division":"Nuwara Eliya","ps_mc_uc":"Nuwara Eliya Divisional Secretariat","logitiute":80.59091500000001,"latitude":6.8969880000000003,"orig_fid":-1}},{"type":"Feature","id":28,"geometry":{"type":"Point","coordinates":[80.528325000000052,5.9369690000000332]},"properties":{"objectid":28,"name":"REEF EDGE RESORT","address":"NO 11C, BEACH ROAD , POLHENA ,MATARA","rooms":4,"grade":"SUPERIOR","district":"Matara","aga_division":"Matara","ps_mc_uc":"Matara Divisional Secretariat","logitiute":80.528324999999995,"latitude":5.9369689999999995,"orig_fid":-1}},{"type":"Feature","id":29,"geometry":{"type":"Point","coordinates":[79.849100000000078,6.9083510000000388]},"properties":{"objectid":29,"name":"THE OCEAN FRONT","address":"14, SELLAMUTTU AVENUE, COLOMBO 3","rooms":6,"grade":"DELUXE","district":"Colombo","aga_division":"Colombo","ps_mc_uc":"Colombo Divisional Secretariat","logitiute":79.849100000000007,"latitude":6.9083509999999997,"orig_fid":-1}},{"type":"Feature","id":30,"geometry":{"type":"Point","coordinates":[79.920950000000062,6.8763240000000678]},"properties":{"objectid":30,"name":"JASMINE HOMES","address":"27/1, GREENFIELD PARK, MADIWELA, KOTTE","rooms":3,"grade":"DELUXE","district":"Colombo","aga_division":"Colombo","ps_mc_uc":"Colombo Divisional Secretariat","logitiute":79.920950000000005,"latitude":6.8763240000000003,"orig_fid":-1}},{"type":"Feature","id":31,"geometry":{"type":"Point","coordinates":[79.867188000000056,6.897036000000071]},"properties":{"objectid":31,"name":"CEILAO VILLAS COLOMBO","address":"47/1,JAWATTE ROAD, COLOMBO 5.","rooms":6,"grade":"DELUXE","district":"Colombo","aga_division":"Colombo","ps_mc_uc":"Colombo Divisional Secretariat","logitiute":79.867187999999999,"latitude":6.8970359999999999,"orig_fid":-1}},{"type":"Feature","id":32,"geometry":{"type":"Point","coordinates":[79.854306000000065,6.9045860000000516]},"properties":{"objectid":32,"name":"5TH LANE HOUSE","address":"51/1A, FIFTH LANE COLOMBO 3.","rooms":4,"grade":"DELUXE","district":"Colombo","aga_division":"Colombo","ps_mc_uc":"Colombo Divisional Secretariat","logitiute":79.854305999999994,"latitude":6.9045860000000001,"orig_fid":-1}},{"type":"Feature","id":33,"geometry":{"type":"Point","coordinates":[80.644256000000041,7.2841230000000223]},"properties":{"objectid":33,"name":"MUTTON BUTTON","address":"96/21/D, RAJAPIHILLA MAWATHA, KANDY","rooms":8,"grade":"DELUXE","district":"Kandy","aga_division":"Kandy","ps_mc_uc":"Kandy Divisional Secretariat","logitiute":80.644255999999999,"latitude":7.2841230000000001,"orig_fid":-1}},{"type":"Feature","id":34,"geometry":{"type":"Point","coordinates":[81.333860000000072,6.2283750000000282]},"properties":{"objectid":34,"name":"CEILAO VILLAS KIRINDA","address":"SUDUWELIPALASSA, KATTADIWEWA, KIRINDA.","rooms":2,"grade":"DELUXE","district":"Hambantota","aga_division":"Hambantota","ps_mc_uc":"Hambantota Divisional Secretariat","logitiute":81.333860000000001,"latitude":6.2283749999999998,"orig_fid":-1}},{"type":"Feature","id":35,"geometry":{"type":"Point","coordinates":[80.346907000000044,5.9780850000000214]},"properties":{"objectid":35,"name":"CEILAO VILLAS KABALANA","address":"KABALANA, WELHENGODA, AHANGAMA.","rooms":4,"grade":"DELUXE","district":"Galle","aga_division":"Galle","ps_mc_uc":"Galle Divisional Secretariat","logitiute":80.346907000000002,"latitude":5.9780850000000001,"orig_fid":-1}},{"type":"Feature","id":36,"geometry":{"type":"Point","coordinates":[80.643597000000057,7.2841370000000438]},"properties":{"objectid":36,"name":"FOREST VILLA","address":"185B, RAJAPIHILLA MW, KANDY","rooms":5,"grade":"SUPERIOR","district":"Kandy","aga_division":"Kandy","ps_mc_uc":"Kandy Divisional Secretariat","logitiute":80.643597,"latitude":7.2841370000000003,"orig_fid":-1}},{"type":"Feature","id":37,"geometry":{"type":"Point","coordinates":[80.941688000000056,6.7607530000000224]},"properties":{"objectid":37,"name":"VIHARAGALA ESTATE BUNGALOW","address":"BERAGALA KOSLANDA RD, NIKAPOTHA P.O. VIA HAPUTALE","rooms":5,"grade":"DELUXE","district":"Badulla","aga_division":"Haldummulla Pradeshiya Sabha","ps_mc_uc":"Haldummulla Divisional Secretariat","logitiute":80.941687999999999,"latitude":6.7607530000000002,"orig_fid":-1}},{"type":"Feature","id":38,"geometry":{"type":"Point","coordinates":[79.932122000000049,6.8791580000000749]},"properties":{"objectid":38,"name":"LA VILLA SANCTUARY","address":"1143/G/6, THE SANCTUARY, FOREST DRIVE, THALAWATHUGODA.","rooms":2,"grade":"DELUXE","district":"Colombo","aga_division":"Colombo","ps_mc_uc":"Colombo Divisional Secretariat","logitiute":79.932122000000007,"latitude":6.8791580000000003,"orig_fid":-1}},{"type":"Feature","id":39,"geometry":{"type":"Point","coordinates":[80.619126000000051,7.2764240000000768]},"properties":{"objectid":39,"name":"PARADISE KANDY","address":"195/7A,RICHMOND HILL ESTATE, HEERASSAGALA,KANDY","rooms":5,"grade":"DELUXE","district":"Kandy","aga_division":"Kandy","ps_mc_uc":"Kandy Divisional Secretariat","logitiute":80.619126000000009,"latitude":7.2764239999999996,"orig_fid":-1}},{"type":"Feature","id":40,"geometry":{"type":"Point","coordinates":[80.622612000000061,7.2708200000000716]},"properties":{"objectid":40,"name":"SUNROCK","address":"195/1A, HEERASSAGALA ROAD, KANDY.","rooms":5,"grade":"DELUXE","district":"Kandy","aga_division":"Kandy","ps_mc_uc":"Kandy Divisional Secretariat","logitiute":80.622612000000004,"latitude":7.2708200000000005,"orig_fid":-1}},{"type":"Feature","id":41,"geometry":{"type":"Point","coordinates":[79.893517000000031,7.0666220000000521]},"properties":{"objectid":41,"name":"THE BLISS","address":"18, WIJEYA ROAD, TUDELLA, JA ELA.","rooms":5,"grade":"SUPERIOR","district":"Gampaha","aga_division":"Gampaha","ps_mc_uc":"Ja-Ela Divisional Secretariat","logitiute":79.893517000000003,"latitude":7.0666220000000006,"orig_fid":-1}},{"type":"Feature","id":42,"geometry":{"type":"Point","coordinates":[80.655947000000083,7.2338310000000661]},"properties":{"objectid":42,"name":"JUNGLE TIDE","address":"UDUWELA,HANTANE,KANDY","rooms":4,"grade":"DELUXE","district":"Kandy","aga_division":"Kandy","ps_mc_uc":"Kandy Divisional Secretariat","logitiute":80.655946999999998,"latitude":7.2338310000000003,"orig_fid":-1}},{"type":"Feature","id":43,"geometry":{"type":"Point","coordinates":[79.920741000000078,6.9148020000000656]},"properties":{"objectid":43,"name":"NATURES TREAT BUNGLOW","address":"494/4, 4TH LANE,RUWANPURA SOUTH, KALAPALALUWAWE ROAD, AGGONA JUNCTION","rooms":3,"grade":"DELUXE","district":"Colombo","aga_division":"Kaduwela Pradeshiya Sabha","ps_mc_uc":"Battaramulla","logitiute":79.920740999999992,"latitude":6.9148019999999999,"orig_fid":-1}},{"type":"Feature","id":44,"geometry":{"type":"Point","coordinates":[80.610315000000071,7.4094760000000406]},"properties":{"objectid":44,"name":"KANO LANKA CENTRE","address":"MAHATENNA ESTATE, ELKADUWA, MATALE.","rooms":10,"grade":"STANDARD","district":"Matale","aga_division":"N/A","ps_mc_uc":"Ukuwela Divisional Secretariat","logitiute":80.610315,"latitude":7.4094759999999997,"orig_fid":-1}},{"type":"Feature","id":45,"geometry":{"type":"Point","coordinates":[79.736991000000046,8.2290380000000596]},"properties":{"objectid":45,"name":"DINUDA RESORT","address":"PUDUKUDUERIPPU, SETHAWADI, KALPITIYA","rooms":4,"grade":"STANDARD","district":"Puttalam","aga_division":"Kalpitiya Pradeshiya Sabha","ps_mc_uc":"Kalpitiya Divisional Secretariat","logitiute":79.736991000000003,"latitude":8.2290379999999992,"orig_fid":-1}},{"type":"Feature","id":46,"geometry":{"type":"Point","coordinates":[80.240342000000055,6.0087250000000267]},"properties":{"objectid":46,"name":"LANDS END BUNGALOW","address":"YADDEHIMULLA ROAD, UNAWATUNA","rooms":7,"grade":"DELUXE","district":"Galle","aga_division":"Habaraduwa","ps_mc_uc":"Habaraduwa Divisional Secretariat","logitiute":80.240341999999998,"latitude":6.0087250000000001,"orig_fid":-1}},{"type":"Feature","id":47,"geometry":{"type":"Point","coordinates":[80.784538000000055,6.9563620000000697]},"properties":{"objectid":47,"name":"GREGORY'S BUNGALOW","address":"109, UPPER LAKE ROAD, NUWARA ELIYA","rooms":6,"grade":"DELUXE","district":"Nuwara Eliya","aga_division":"Nuwara Eliya","ps_mc_uc":"Nuwara Eliya Divisional Secretariat","logitiute":80.784537999999998,"latitude":6.9563619999999995,"orig_fid":-1}},{"type":"Feature","id":48,"geometry":{"type":"Point","coordinates":[80.550455000000056,7.2557760000000258]},"properties":{"objectid":48,"name":"KAHAMBE ESTATE VILLA","address":"73/1, KAHAMBE ESTATE, KAHAMBE, PILIMATHALAWA","rooms":4,"grade":"STANDARD","district":"Kandy","aga_division":"Udunuwara Pradeshiya Sabha","ps_mc_uc":"Udunuwara Divisional Secretariat","logitiute":80.550454999999999,"latitude":7.255776,"orig_fid":-1}},{"type":"Feature","id":49,"geometry":{"type":"Point","coordinates":[80.676164000000085,7.0741530000000239]},"properties":{"objectid":49,"name":"TEARAMB HOLIDAY BUNGALOW","address":"38, KARAGASTHALAWA, KATUKITHULA","rooms":4,"grade":"SUPERIOR","district":"Nuwara Eliya","aga_division":"Wellawaya","ps_mc_uc":"Kothmale Divisional Secretariat","logitiute":80.676164,"latitude":7.0741529999999999,"orig_fid":-1}},{"type":"Feature","id":50,"geometry":{"type":"Point","coordinates":[79.872697000000073,7.1422270000000481]},"properties":{"objectid":50,"name":"AIRPORT VILLA","address":"LIVER BROTHER ROAD, LIYANAGEMULLA ROAD, SEEDUWA","rooms":5,"grade":"DELUXE","district":"Gampaha","aga_division":"Seeduwa","ps_mc_uc":"Katana Divisional Secretariat","logitiute":79.872697000000002,"latitude":7.1422270000000001,"orig_fid":-1}},{"type":"Feature","id":51,"geometry":{"type":"Point","coordinates":[80.271419000000037,6.0215240000000563]},"properties":{"objectid":51,"name":"SATORI VILLA","address":"KORATUWA GEDARA, MATARAMBA ROAD, UNAWATUNA, GALLE.","rooms":4,"grade":"DELUXE","district":"Galle","aga_division":"Akmeemana","ps_mc_uc":"Akmeemana Divisional Secretariat","logitiute":80.271418999999995,"latitude":6.0215239999999994,"orig_fid":-1}},{"type":"Feature","id":52,"geometry":{"type":"Point","coordinates":[80.687187000000051,7.3191490000000385]},"properties":{"objectid":52,"name":"GALKANDA WALAUWE","address":"27, WALALA, MENIKHINNA","rooms":3,"grade":"SUPERIOR","district":"Kandy","aga_division":"Kundasle","ps_mc_uc":"Kundasale Divisional Secretariat","logitiute":80.687186999999994,"latitude":7.3191489999999995,"orig_fid":-1}},{"type":"Feature","id":53,"geometry":{"type":"Point","coordinates":[80.649055000000033,7.2839880000000221]},"properties":{"objectid":53,"name":"HILL WAY TOUR INN","address":"102 1/1, RAJAPIHILLAWA MAWATHA, KANDY","rooms":5,"grade":"STANDARD","district":"Kandy","aga_division":"Kandy","ps_mc_uc":"Kandy Divisional Secretariat","logitiute":80.649055000000004,"latitude":7.2839879999999999,"orig_fid":-1}},{"type":"Feature","id":54,"geometry":{"type":"Point","coordinates":[80.650061000000051,7.3000520000000506]},"properties":{"objectid":54,"name":"DEERPOINT BUNGALOW","address":"18/7A,SISIL SEWANA, SIRIMALWATTA, KANDY","rooms":6,"grade":"SUPERIOR","district":"Kandy","aga_division":"Kundasle","ps_mc_uc":"Kandy Divisional Secretariat","logitiute":80.650061000000008,"latitude":7.300052,"orig_fid":-1}},{"type":"Feature","id":55,"geometry":{"type":"Point","coordinates":[79.900295000000085,6.7762100000000487]},"properties":{"objectid":55,"name":"SERENITY LAKE FRONT VILLA","address":"90/15(90/13A), BILYMORIA MAWATHA, IHALA INDEBEDDA, MORATUWA","rooms":4,"grade":"DELUXE","district":"Colombo","aga_division":"Moratuwa","ps_mc_uc":"Moratuwa Divisional Secretariat","logitiute":79.900295,"latitude":6.7762099999999998,"orig_fid":-1}},{"type":"Feature","id":56,"geometry":{"type":"Point","coordinates":[80.692520000000059,8.031355000000076]},"properties":{"objectid":56,"name":"GALKADAWALA FOREST LODGE","address":"GALKADAWALA, PALUGASWEWA, HABARANA","rooms":4,"grade":"DELUXE","district":"Polonnaruwa","aga_division":"Palugaswewa","ps_mc_uc":"Palugaswewa","logitiute":80.692520000000002,"latitude":8.0313549999999996,"orig_fid":-1}},{"type":"Feature","id":57,"geometry":{"type":"Point","coordinates":[79.918264000000079,6.6864620000000627]},"properties":{"objectid":57,"name":"ABEYS VILLA","address":"140, GALLE ROAD,PINWATTE,PANADURA","rooms":5,"grade":"DELUXE","district":"Kalutara","aga_division":"Panadura Pradeshiya Sabha","ps_mc_uc":"Kalutara Divisional Secretariat","logitiute":79.918263999999994,"latitude":6.6864619999999997,"orig_fid":-1}},{"type":"Feature","id":58,"geometry":{"type":"Point","coordinates":[80.592182000000037,7.0631350000000452]},"properties":{"objectid":58,"name":"KOTHMALE HOLIDAY BUNGALOW","address":"126, NAWA NUGAWELA, GAMPOLA","rooms":3,"grade":"SUPERIOR","district":"Nuwara Eliya","aga_division":"Nuwara Eliya","ps_mc_uc":"Kothmale Divisional Secretariat","logitiute":80.592182000000008,"latitude":7.0631349999999999,"orig_fid":-1}},{"type":"Feature","id":59,"geometry":{"type":"Point","coordinates":[80.389930000000049,8.3084460000000604]},"properties":{"objectid":59,"name":"PEACOCK RESIDENCE","address":"NIDANGALA WATTE, MALIGATENNA, 5 ELA, SHRAWASTIPURA","rooms":5,"grade":"STANDARD","district":"Anuradhapura","aga_division":"Anuradhapura","ps_mc_uc":"Anuradhapura East","logitiute":80.389929999999993,"latitude":8.308446,"orig_fid":-1}},{"type":"Feature","id":60,"geometry":{"type":"Point","coordinates":[80.062346000000048,6.5488250000000221]},"properties":{"objectid":60,"name":"PLANTATION VILLA","address":"PLANTATION VILLA, WATTALAYA WATTE, NEHINNA, DODANGODA","rooms":8,"grade":"DELUXE","district":"Kalutara","aga_division":"Kalutara Pradeshiya Sabha","ps_mc_uc":"Kalutara Divisional Secretariat","logitiute":80.062345999999991,"latitude":6.5488249999999999,"orig_fid":-1}},{"type":"Feature","id":61,"geometry":{"type":"Point","coordinates":[80.34156900000005,6.0076560000000541]},"properties":{"objectid":61,"name":"VILLA MAYURANA","address":"PELASSA ROAD, SANTHOSAGAMA 80650, AHANGAMA","rooms":4,"grade":"DELUXE","district":"Galle","aga_division":"Habaraduwa","ps_mc_uc":"Habaraduwa Divisional Secretariat","logitiute":80.341568999999993,"latitude":6.0076559999999999,"orig_fid":-1}},{"type":"Feature","id":62,"geometry":{"type":"Point","coordinates":[80.770444000000055,6.9684450000000311]},"properties":{"objectid":62,"name":"ROYAL COCOON","address":"2, WEDDERBURN ROAD, NUWARA ELIYA","rooms":7,"grade":"DELUXE","district":"Nuwara Eliya","aga_division":"Nuwara Eliya","ps_mc_uc":"Nuwara Eliya Divisional Secretariat","logitiute":80.770443999999998,"latitude":6.968445,"orig_fid":-1}},{"type":"Feature","id":63,"geometry":{"type":"Point","coordinates":[80.003386000000035,6.4335250000000315]},"properties":{"objectid":63,"name":"APSARA","address":"332, WELIPENNA ROAD, ALUTHGAMA","rooms":3,"grade":"DELUXE","district":"Kalutara","aga_division":"Aluthgama","ps_mc_uc":"Aluthgama","logitiute":80.003385999999992,"latitude":6.4335250000000004,"orig_fid":-1}},{"type":"Feature","id":64,"geometry":{"type":"Point","coordinates":[79.966016000000081,6.5889940000000706]},"properties":{"objectid":64,"name":"PASMEEGODA ESTATE BUNGALOW","address":"PASMEEGODA ESTATE, KOHOLANA, KALUTARA","rooms":4,"grade":"STANDARD","district":"Kalutara","aga_division":"Kalutara Pradeshiya Sabha","ps_mc_uc":"Kalutara Divisional Secretariat","logitiute":79.966015999999996,"latitude":6.5889939999999996,"orig_fid":-1}},{"type":"Feature","id":65,"geometry":{"type":"Point","coordinates":[80.616940000000056,7.2576610000000414]},"properties":{"objectid":65,"name":"HILL CREST VILLA","address":"3, HILL CREST VILLA GREEN, UDA PERADENIYA, KANDY","rooms":5,"grade":"SUPERIOR","district":"Kandy","aga_division":"Kandy","ps_mc_uc":"Gagawata","logitiute":80.61694,"latitude":7.2576609999999997,"orig_fid":-1}},{"type":"Feature","id":66,"geometry":{"type":"Point","coordinates":[80.218427000000077,6.0267960000000471]},"properties":{"objectid":66,"name":"MANGO HOUSE","address":"3, LEYN BAAN CROSS STREET, GALLE FORT, GALLE","rooms":7,"grade":"DELUXE","district":"Galle","aga_division":"Galle","ps_mc_uc":"Galle Divisional Secretariat","logitiute":80.218427000000005,"latitude":6.026796,"orig_fid":-1}},{"type":"Feature","id":67,"geometry":{"type":"Point","coordinates":[80.62202700000006,7.2665160000000242]},"properties":{"objectid":67,"name":"THE KANDYAN VILLA","address":"532/30, HEERASSAGALA ROAD, HEERASSAGALA, KANDY","rooms":3,"grade":"DELUXE","district":"Kandy","aga_division":"Gagawata Koralya","ps_mc_uc":"Gagawata","logitiute":80.622027000000003,"latitude":7.2665159999999993,"orig_fid":-1}},{"type":"Feature","id":68,"geometry":{"type":"Point","coordinates":[80.217201000000045,6.0246910000000753]},"properties":{"objectid":68,"name":"FORT BLISS","address":"84, LIGHT HOUSE STREET, FORT, GALLE","rooms":4,"grade":"DELUXE","district":"Galle","aga_division":"Galle","ps_mc_uc":"Galle Divisional Secretariat","logitiute":80.217201000000003,"latitude":6.0246910000000007,"orig_fid":-1}},{"type":"Feature","id":69,"geometry":{"type":"Point","coordinates":[79.875503000000037,6.8196360000000595]},"properties":{"objectid":69,"name":"1ST CHOICE","address":"9/1, FIRST LANE, RATMALANA, MOUNT LAVINIA","rooms":5,"grade":"STANDARD","district":"Colombo","aga_division":"Dehiwala-Mount Lavinia","ps_mc_uc":"Ratmalana Divisional Secretariat","logitiute":79.875503000000009,"latitude":6.819636,"orig_fid":-1}},{"type":"Feature","id":70,"geometry":{"type":"Point","coordinates":[80.238370000000032,6.0163490000000479]},"properties":{"objectid":70,"name":"VILLA BAYWATCH","address":"PEELA ROAD, BUONAVISTA, RUMASSALA, GALLE","rooms":6,"grade":"DELUXE","district":"Galle","aga_division":"Habaraduwa","ps_mc_uc":"Habaraduwa Divisional Secretariat","logitiute":80.238369999999989,"latitude":6.0163489999999999,"orig_fid":-1}},{"type":"Feature","id":71,"geometry":{"type":"Point","coordinates":[80.623796000000084,7.2996040000000448]},"properties":{"objectid":71,"name":"VILLA ROSA","address":"71/20, DODANWELA PASSAGE, ASGIRIYA, KANDY","rooms":5,"grade":"DELUXE","district":"Kandy","aga_division":"Kandy","ps_mc_uc":"Gagawata","logitiute":80.623795999999999,"latitude":7.2996039999999995,"orig_fid":-1}},{"type":"Feature","id":72,"geometry":{"type":"Point","coordinates":[79.844831000000056,7.2124440000000618]},"properties":{"objectid":72,"name":"MODERN CITY INN","address":"426, MAIN STREET, NEGAMBO","rooms":8,"grade":"SUPERIOR","district":"Gampaha","aga_division":"Gampaha","ps_mc_uc":"Negombo Divisional Secretariat","logitiute":79.844831000000013,"latitude":7.2124439999999996,"orig_fid":-1}},{"type":"Feature","id":73,"geometry":{"type":"Point","coordinates":[80.057195000000036,6.220452000000023]},"properties":{"objectid":73,"name":"MAX WADIYA","address":"147,GALLE ROAD, (PARROT JUNCTION), URAWATTE, AMBALANGODA","rooms":3,"grade":"DELUXE","district":"Galle","aga_division":"Galle","ps_mc_uc":"Galle Divisional Secretariat","logitiute":80.057195000000007,"latitude":6.2204519999999999,"orig_fid":-1}},{"type":"Feature","id":74,"geometry":{"type":"Point","coordinates":[80.749437000000057,7.2654860000000667]},"properties":{"objectid":74,"name":"TAMARIND","address":"1/104, RAHULA MAWATHA, DIGANA","rooms":3,"grade":"SUPERIOR","district":"Kandy","aga_division":"Kundasle","ps_mc_uc":"Kundasale Divisional Secretariat","logitiute":80.749437,"latitude":7.2654859999999992,"orig_fid":-1}},{"type":"Feature","id":75,"geometry":{"type":"Point","coordinates":[80.856300000000033,6.7974260000000299]},"properties":{"objectid":75,"name":"HILL SAFARI","address":"LOWER BRAY ESTATE, OHIYA","rooms":5,"grade":"STANDARD","district":"Badulla","aga_division":"Welimada Pradeshiya Sabha","ps_mc_uc":"Haldummulla Divisional Secretariat","logitiute":80.856300000000005,"latitude":6.7974259999999997,"orig_fid":-1}},{"type":"Feature","id":76,"geometry":{"type":"Point","coordinates":[79.932283000000041,6.9709550000000604]},"properties":{"objectid":76,"name":"OAK RESIDENCIES","address":"NO. 83/2/1 & 83/2/2, SARATHCHANDRA DIAS MAWATHA, PAMUNUVILA, KIRIBATHGODA","rooms":4,"grade":"DELUXE","district":"Gampaha","aga_division":"Gampaha","ps_mc_uc":"Biyagama Divisional Secretariat","logitiute":79.932282999999998,"latitude":6.970955,"orig_fid":-1}},{"type":"Feature","id":77,"geometry":{"type":"Point","coordinates":[79.92614100000003,6.8864010000000349]},"properties":{"objectid":77,"name":"LANKA STAR BUNGALOW","address":"66/6, RATHNAYKE MAWATHA, PELAWATTE, BATTARAMULLA","rooms":4,"grade":"DELUXE","district":"Colombo","aga_division":"Kaduwela Pradeshiya Sabha","ps_mc_uc":"kaduwela Divisional Secretariat","logitiute":79.926141000000001,"latitude":6.8864010000000002,"orig_fid":-1}},{"type":"Feature","id":78,"geometry":{"type":"Point","coordinates":[79.922982000000047,6.6709270000000629]},"properties":{"objectid":78,"name":"WADDUWA BEACH VILLA","address":"36/17, SANATH PERERA MAWATHA, SOUTH THALPITIYA, WADDUWA","rooms":6,"grade":"DELUXE","district":"Kalutara","aga_division":"Panadura Pradeshiya Sabha","ps_mc_uc":"Panadura Divisional Secretariat","logitiute":79.922982000000005,"latitude":6.6709269999999998,"orig_fid":-1}},{"type":"Feature","id":79,"geometry":{"type":"Point","coordinates":[81.022640000000081,6.3651190000000497]},"properties":{"objectid":79,"name":"LOTUS CHALETS ECO HOTEL-UDAWALAWA","address":"PAHALA KUMBUKEWEWA, CANAL ROAD, MIGAHAJANDURA, SOORIYAWEWA","rooms":3,"grade":"SUPERIOR","district":"Hambantota","aga_division":"Hambantota","ps_mc_uc":"Sooriyawewa Divisional Secretariat","logitiute":81.022639999999996,"latitude":6.365119,"orig_fid":-1}},{"type":"Feature","id":80,"geometry":{"type":"Point","coordinates":[80.762589000000048,6.9638890000000515]},"properties":{"objectid":80,"name":"VILLA DE ROSHE","address":"60 6C, UNIQUE VIEW ROAD, NUWARA ELIYA","rooms":3,"grade":"DELUXE","district":"Nuwara Eliya","aga_division":"Nuwara Eliya","ps_mc_uc":"Nuwara Eliya Divisional Secretariat","logitiute":80.762589000000006,"latitude":6.963889,"orig_fid":-1}},{"type":"Feature","id":81,"geometry":{"type":"Point","coordinates":[80.737145000000055,7.2882350000000429]},"properties":{"objectid":81,"name":"THE SHADY NOOK - DIGANA","address":"1/149, VICTORIA RANGE, KENGALLA","rooms":4,"grade":"SUPERIOR","district":"Kandy","aga_division":"Kundasle","ps_mc_uc":"Kundasale Divisional Secretariat","logitiute":80.737144999999998,"latitude":7.2882349999999994,"orig_fid":-1}},{"type":"Feature","id":82,"geometry":{"type":"Point","coordinates":[80.727487000000053,7.374981000000048]},"properties":{"objectid":82,"name":"HATALE BUNGALOW","address":"392, MAIN STREET, MATALE","rooms":5,"grade":"DELUXE","district":"Kandy","aga_division":"Kandy","ps_mc_uc":"Kandy Divisional Secretariat","logitiute":80.727486999999996,"latitude":7.374981,"orig_fid":-1}},{"type":"Feature","id":83,"geometry":{"type":"Point","coordinates":[81.565127000000075,7.9103180000000748]},"properties":{"objectid":83,"name":"COCO VILLE","address":"WATERVILLE ESTATE, KUMBURUMULA ROAD, KALKUDA","rooms":3,"grade":"DELUXE","district":"Batticaloa","aga_division":"Batticaloa","ps_mc_uc":"Batticaloa Divisional Secretariat","logitiute":81.565127000000004,"latitude":7.9103180000000002,"orig_fid":-1}},{"type":"Feature","id":84,"geometry":{"type":"Point","coordinates":[79.913016000000084,6.8812390000000505]},"properties":{"objectid":84,"name":"ESCONDITE","address":"17/2, SUDHARMAN MAWATHA, RAJAMAHA VIHARA ROAD, PITA-KOTTE","rooms":5,"grade":"DELUXE","district":"Colombo","aga_division":"Colombo","ps_mc_uc":"Battaramulla","logitiute":79.913015999999999,"latitude":6.8812389999999999,"orig_fid":-1}},{"type":"Feature","id":85,"geometry":{"type":"Point","coordinates":[80.346964000000071,5.9936680000000706]},"properties":{"objectid":85,"name":"LAKE VIEW VILLA","address":"LAKE VIEW VILLA, KATHALUWA, AHANGAMA.","rooms":4,"grade":"DELUXE","district":"Galle","aga_division":"Habaraduwa","ps_mc_uc":"Habaraduwa Divisional Secretariat","logitiute":80.346964,"latitude":5.9936679999999996,"orig_fid":-1}},{"type":"Feature","id":86,"geometry":{"type":"Point","coordinates":[80.386898000000031,7.3046270000000391]},"properties":{"objectid":86,"name":"ELEPHANT REACH VILLA","address":"NO 686, KEGALLE - RAMBUKKANA ROAD, PINNAWALA","rooms":4,"grade":"SUPERIOR","district":"Kegalle","aga_division":"Rambukkana Pradeshiya Sabha","ps_mc_uc":"Rambukkana Divisional Secretariat","logitiute":80.386897999999988,"latitude":7.304627,"orig_fid":-1}},{"type":"Feature","id":87,"geometry":{"type":"Point","coordinates":[80.260597000000075,6.0014700000000403]},"properties":{"objectid":87,"name":"AMBALAMA VILLA","address":"596, MATARA ROAD, DALAWELLA, UNAWATUNA","rooms":4,"grade":"DELUXE","district":"Galle","aga_division":"Habaraduwa","ps_mc_uc":"Habaraduwa Divisional Secretariat","logitiute":80.26059699999999,"latitude":6.0014700000000003,"orig_fid":-1}},{"type":"Feature","id":88,"geometry":{"type":"Point","coordinates":[80.643400000000042,7.3216310000000249]},"properties":{"objectid":88,"name":"SHADY GROVE TOURIST BUNGALOW","address":"7, GANTHERA MAWATHA, WATAPULAWA, KANDY","rooms":4,"grade":"SUPERIOR","district":"Kandy","aga_division":"Kandy","ps_mc_uc":"Kandy Divisional Secretariat","logitiute":80.6434,"latitude":7.321631,"orig_fid":-1}},{"type":"Feature","id":89,"geometry":{"type":"Point","coordinates":[80.610235000000046,7.2249080000000276]},"properties":{"objectid":89,"name":"VILLA PANORAMA","address":"429/5, SARASAVIGAMA ROAD, MAHAKANDA, HINDAGALA","rooms":6,"grade":"DELUXE","district":"Kandy","aga_division":"Gagawata Koralya","ps_mc_uc":"Kandy Divisional Secretariat","logitiute":80.610235000000003,"latitude":7.2249080000000001,"orig_fid":-1}},{"type":"Feature","id":90,"geometry":{"type":"Point","coordinates":[80.387853000000064,7.2888990000000717]},"properties":{"objectid":90,"name":"DIYAGAL VILLA","address":"42, PITAWALA ROAD, HIRIWADUNNA, PINNAWALA, RAMBUKKANA","rooms":4,"grade":"SUPERIOR","district":"Kegalle","aga_division":"Kegalle","ps_mc_uc":"Rambukkana Divisional Secretariat","logitiute":80.387852999999993,"latitude":7.2888989999999998,"orig_fid":-1}},{"type":"Feature","id":91,"geometry":{"type":"Point","coordinates":[79.860018000000082,6.9073450000000207]},"properties":{"objectid":91,"name":"COLOMBO VILLA","address":"16/6, CAMBRIDGE PLACE, COLOMBO 7","rooms":4,"grade":"DELUXE","district":"Colombo","aga_division":"Colombo","ps_mc_uc":"Colombo Divisional Secretariat","logitiute":79.860017999999997,"latitude":6.9073450000000003,"orig_fid":-1}},{"type":"Feature","id":92,"geometry":{"type":"Point","coordinates":[79.843006000000059,7.2140540000000328]},"properties":{"objectid":92,"name":"LODGE 19","address":"NO 19, AVE MARIA ROAD, NEGOMBO","rooms":6,"grade":"DELUXE","district":"Gampaha","aga_division":"Negombo","ps_mc_uc":"Negombo Divisional Secretariat","logitiute":79.843006000000003,"latitude":7.2140540000000009,"orig_fid":-1}},{"type":"Feature","id":93,"geometry":{"type":"Point","coordinates":[79.905837000000076,6.8955210000000307]},"properties":{"objectid":93,"name":"ALLSPICE VILLA","address":"730A, KOTTE ROAD, ETHUL KOTTE","rooms":4,"grade":"DELUXE","district":"Colombo","aga_division":"Sri Jayawardenapura-Kotte","ps_mc_uc":"Sri jayawadanapura","logitiute":79.905837000000005,"latitude":6.8955210000000005,"orig_fid":-1}},{"type":"Feature","id":94,"geometry":{"type":"Point","coordinates":[80.215530000000058,6.0280710000000681]},"properties":{"objectid":94,"name":"NEW OLD DUTCH HOUSE","address":"NO 21, MIDDLE STREET, FORT, GALLE","rooms":6,"grade":"STANDARD","district":"Galle","aga_division":"Galle","ps_mc_uc":"Galle Divisional Secretariat","logitiute":80.215530000000001,"latitude":6.0280709999999997,"orig_fid":-1}},{"type":"Feature","id":95,"geometry":{"type":"Point","coordinates":[80.983510000000081,6.8640060000000744]},"properties":{"objectid":95,"name":"KIRCHHAYN BUNGALOW","address":"KIRCHHAYN BUNGALOW, AISLABY FARM & ESTATE, BANDARAWELA","rooms":5,"grade":"DELUXE","district":"Badulla","aga_division":"Bandarawela Pradeshiya Sabha","ps_mc_uc":"Bandarawela Divisional Secretariat","logitiute":80.98351000000001,"latitude":6.8640059999999998,"orig_fid":-1}},{"type":"Feature","id":96,"geometry":{"type":"Point","coordinates":[79.997339000000068,6.4444420000000378]},"properties":{"objectid":96,"name":"VILLA 4 U","address":"VILLA 4 U\", SHRAMADHANA MAWATHA, KALUWAMODARA, ALUTHGAMA","rooms":4,"grade":"DELUXE","district":"Kalutara","aga_division":"Beruwala Pradeshiya Sabha","ps_mc_uc":"Beruwala Divisional Secretariat","logitiute":79.997338999999997,"latitude":6.4444419999999996,"orig_fid":-1}},{"type":"Feature","id":97,"geometry":{"type":"Point","coordinates":[80.566296000000079,6.1624240000000441]},"properties":{"objectid":97,"name":"ECO JUNGLE HIDEOUT","address":"ECO JUNGLE HIDEOUT, BERAGAMA, MAKADURA, MULATIANA","rooms":4,"grade":"SUPERIOR","district":"Matara","aga_division":"Mulatiyana Pradeshiya Sabha","ps_mc_uc":"Mulatiyana Divisional Secretariat","logitiute":80.566295999999994,"latitude":6.1624239999999997,"orig_fid":-1}},{"type":"Feature","id":98,"geometry":{"type":"Point","coordinates":[79.843058000000042,7.9791810000000396]},"properties":{"objectid":98,"name":"GROVE SRI LANKA","address":"DIAS WATTE, ATTAVILLU, PALAVIA, PUTTALAM","rooms":2,"grade":"DELUXE","district":"Puttalam","aga_division":"Puttalam Pradeshiya Sabha","ps_mc_uc":"Puttalam Divisional Secretariat","logitiute":79.843057999999999,"latitude":7.9791809999999996,"orig_fid":-1}},{"type":"Feature","id":99,"geometry":{"type":"Point","coordinates":[80.754210000000057,8.049015000000054]},"properties":{"objectid":99,"name":"SEVENAGAMA","address":"SEVANAGAMA ROAD, OFF TRINCO ROAD, HABARANA","rooms":4,"grade":"SUPERIOR","district":"Anuradhapura","aga_division":"Palugaswewa","ps_mc_uc":"Palugaswewa","logitiute":80.75421,"latitude":8.0490149999999989,"orig_fid":-1}},{"type":"Feature","id":100,"geometry":{"type":"Point","coordinates":[80.743527000000086,8.0002150000000256]},"properties":{"objectid":100,"name":"KUMBUKGAS MANKADA-SIGIRIYA","address":"KUMBUKGAS MANKADA, AUDANGAWA, SIGIRIYA","rooms":3,"grade":"SUPERIOR","district":"Matale","aga_division":"Dambulla Pradeshiya Sabha","ps_mc_uc":"Dambulla Divisional Secretariat","logitiute":80.743527,"latitude":8.000214999999999,"orig_fid":-1}},{"type":"Feature","id":101,"geometry":{"type":"Point","coordinates":[80.998309000000063,6.8244410000000357]},"properties":{"objectid":101,"name":"DUTCH HOUSE","address":"DUTCH HOUSE, \"SAGALA\",POONAGALA ROAD, BANDARAWELA","rooms":2,"grade":"DELUXE","district":"Badulla","aga_division":"Bandarawela Pradeshiya Sabha","ps_mc_uc":"Bandarawela Divisional Secretariat","logitiute":80.998309000000006,"latitude":6.8244410000000002,"orig_fid":-1}},{"type":"Feature","id":102,"geometry":{"type":"Point","coordinates":[81.685484000000031,7.2991770000000429]},"properties":{"objectid":102,"name":"WHITE HOUSE-AMPARA","address":"NO 229, NEW TOWN, AMPARA","rooms":5,"grade":"SUPERIOR","district":"Ampara","aga_division":"Ampara","ps_mc_uc":"Ampara Divisional Secretariat","logitiute":81.685484000000002,"latitude":7.2991770000000002,"orig_fid":-1}},{"type":"Feature","id":103,"geometry":{"type":"Point","coordinates":[79.942617000000041,7.4468260000000441]},"properties":{"objectid":103,"name":"KIZUNA HOUSE","address":"MEEGAHAPALLASSA JUNCTION, MEEGAHAPALLASSA, WELIPANNAGAHAMULLA","rooms":4,"grade":"DELUXE","district":"Kurunegala","aga_division":"Udubaddawa Pradeshiya Sabha","ps_mc_uc":"Udubaddawa Divisional Secretariat","logitiute":79.942616999999998,"latitude":7.4468259999999997,"orig_fid":-1}},{"type":"Feature","id":104,"geometry":{"type":"Point","coordinates":[79.998279000000082,6.4205900000000611]},"properties":{"objectid":104,"name":"SUPUN VILLA","address":"SUPUN VILLA, PITARAMA, BENTOTA","rooms":5,"grade":"DELUXE","district":"Galle","aga_division":"Bentota Pradeshiya Sabha","ps_mc_uc":"Benthota Divisional Secretariat","logitiute":79.998278999999997,"latitude":6.4205899999999998,"orig_fid":-1}},{"type":"Feature","id":105,"geometry":{"type":"Point","coordinates":[80.769690000000082,6.9710910000000581]},"properties":{"objectid":105,"name":"FERNCLIFF BOUTIQUE BUNGALOW","address":"NO 7/10,WEDDER BURN ROAD,NUWARA ELIYA","rooms":4,"grade":"DELUXE","district":"Nuwara Eliya","aga_division":"Nuwara Eliya","ps_mc_uc":"Nuwara Eliya Divisional Secretariat","logitiute":80.769689999999997,"latitude":6.9710910000000004,"orig_fid":-1}},{"type":"Feature","id":106,"geometry":{"type":"Point","coordinates":[80.745094000000051,8.0442810000000691]},"properties":{"objectid":106,"name":"THE FICUS GROVE","address":"ANURADHAPURA ROAD,HABARANA","rooms":5,"grade":"DELUXE","district":"Anuradhapura","aga_division":"Pathahewaheta","ps_mc_uc":"Palugaswewa","logitiute":80.745094000000009,"latitude":8.0442809999999998,"orig_fid":-1}},{"type":"Feature","id":107,"geometry":{"type":"Point","coordinates":[79.883241000000055,6.9150850000000332]},"properties":{"objectid":107,"name":"VILLA CAPERS","address":"26,CHANDRALEKHA MAWATHA, COLOMBO 08","rooms":5,"grade":"DELUXE","district":"Colombo","aga_division":"Colombo","ps_mc_uc":"Colombo Divisional Secretariat","logitiute":79.883240999999998,"latitude":6.9150850000000004,"orig_fid":-1}},{"type":"Feature","id":108,"geometry":{"type":"Point","coordinates":[80.244119000000069,6.743342000000041]},"properties":{"objectid":108,"name":"TAPPERS VILLAGE ESTATE BANGALOW","address":"JAYASUNDARAKELE, EPITAWALA WATTE, EPITAWALA, KIRIELLA","rooms":4,"grade":"DELUXE","district":"Ratnapura","aga_division":"Kuruwita Pradeshiya Sabha","ps_mc_uc":"Kiriella Divisional Secretariat","logitiute":80.244118999999998,"latitude":6.7433419999999993,"orig_fid":-1}},{"type":"Feature","id":109,"geometry":{"type":"Point","coordinates":[80.639766000000066,7.3014510000000428]},"properties":{"objectid":109,"name":"KANDY COTTAGE","address":"NO. 160, LADY GORDON DRIVE, KANDY","rooms":3,"grade":"SUPERIOR","district":"Kandy","aga_division":"Kandy","ps_mc_uc":"Kandy Divisional Secretariat","logitiute":80.639766000000009,"latitude":7.3014510000000001,"orig_fid":-1}},{"type":"Feature","id":110,"geometry":{"type":"Point","coordinates":[80.545213000000047,6.3584690000000705]},"properties":{"objectid":110,"name":"AKKARA DAHAYA","address":"VICTORS LAND, KIRIWELDOLA RD, BATAYAYA, DENIYAYA","rooms":3,"grade":"DELUXE","district":"Matara","aga_division":"Matara","ps_mc_uc":"Matara Divisional Secretariat","logitiute":80.54521299999999,"latitude":6.3584689999999995,"orig_fid":-1}},{"type":"Feature","id":111,"geometry":{"type":"Point","coordinates":[80.102254000000073,6.1358540000000517]},"properties":{"objectid":111,"name":"VILLA TARA","address":"SARATH GUNAWARDANA MAWATHA, WAULUGODA, 2ND CROSS STREET, HIKKADUWA, SRI LANKA","rooms":5,"grade":"DELUXE","district":"Galle","aga_division":"Galle","ps_mc_uc":"Galle Divisional Secretariat","logitiute":80.102254000000002,"latitude":6.1358540000000001,"orig_fid":-1}},{"type":"Feature","id":112,"geometry":{"type":"Point","coordinates":[79.904940000000067,7.0155800000000568]},"properties":{"objectid":112,"name":"NATURES BLISS HOLIDAYS","address":"112/6, HETTIYAWATTA, ELAPITIWALA, RAGAMA","rooms":3,"grade":"SUPERIOR","district":"Gampaha","aga_division":"Wattala Pradeshiya Sabha","ps_mc_uc":"Wattala Divisional Secretariat","logitiute":79.904939999999996,"latitude":7.0155799999999999,"orig_fid":-1}},{"type":"Feature","id":113,"geometry":{"type":"Point","coordinates":[79.842018000000053,7.2507830000000695]},"properties":{"objectid":113,"name":"THE COVE","address":"193 PORUTOTA ROAD KOCHCHIKADE","rooms":3,"grade":"DELUXE","district":"Gampaha","aga_division":"Negombo","ps_mc_uc":"Gampaha Divisional Secretariat","logitiute":79.842017999999996,"latitude":7.2507830000000002,"orig_fid":-1}},{"type":"Feature","id":114,"geometry":{"type":"Point","coordinates":[80.209678000000054,6.0687100000000669]},"properties":{"objectid":114,"name":"GALLE HILL TOP","address":"PALAGALAGODAKANDA, NAVINNA, ULUVITIKE (GALLE)","rooms":5,"grade":"SUPERIOR","district":"Galle","aga_division":"Bope","ps_mc_uc":"Thumpane Divisional Secretariat","logitiute":80.209677999999997,"latitude":6.0687099999999994,"orig_fid":-1}},{"type":"Feature","id":115,"geometry":{"type":"Point","coordinates":[79.84096500000004,7.3150200000000609]},"properties":{"objectid":115,"name":"VILLA ALICE AND FRIENDS","address":"NO.110C, HANATHOTUPOLA ROAD, NAINAMADAMA (EAST)","rooms":4,"grade":"DELUXE","district":"Gampaha","aga_division":"Negombo","ps_mc_uc":"Negombo Divisional Secretariat","logitiute":79.840965000000011,"latitude":7.3150200000000005,"orig_fid":-1}},{"type":"Feature","id":116,"geometry":{"type":"Point","coordinates":[80.669435000000078,6.9030360000000428]},"properties":{"objectid":116,"name":"DIYANILLAKELLE ESTATE BUNGALOW","address":"DIYANILLAKELLE ESTATE BUNGALOW, DIYANILLAKELLE ESTATE,LINDULA.","rooms":5,"grade":"DELUXE","district":"Nuwara Eliya","aga_division":"Nuwara Eliya","ps_mc_uc":"Nuwara Eliya Divisional Secretariat","logitiute":80.669434999999993,"latitude":6.9030360000000002,"orig_fid":-1}},{"type":"Feature","id":117,"geometry":{"type":"Point","coordinates":[80.680021000000067,7.0787370000000465]},"properties":{"objectid":117,"name":"VILLA GLENLOCH","address":"48,GLENLOCH ESTATE,KATUKITULA.","rooms":5,"grade":"DELUXE","district":"Nuwara Eliya","aga_division":"Nuwara Eliya","ps_mc_uc":"Kothmale Divisional Secretariat","logitiute":80.680021000000011,"latitude":7.0787370000000003,"orig_fid":-1}},{"type":"Feature","id":118,"geometry":{"type":"Point","coordinates":[80.70400200000006,5.959839000000045]},"properties":{"objectid":118,"name":"THE SAFFRON HOUSE","address":"WETAKEIYAGAHAHENA, PEHEMBIYA, DICKWELLA.","rooms":4,"grade":"DELUXE","district":"Matara","aga_division":"Dickwella","ps_mc_uc":"Dickwella Divisional Secretariat","logitiute":80.704001999999988,"latitude":5.9598390000000006,"orig_fid":-1}},{"type":"Feature","id":119,"geometry":{"type":"Point","coordinates":[80.562739000000079,7.2514510000000314]},"properties":{"objectid":119,"name":"SAMAUYANA HOLIDAY BUNGALOW","address":"KADUGANNAWA ROAD, BOWALA, GAMPOLA.","rooms":5,"grade":"DELUXE","district":"Kandy","aga_division":"Gampola","ps_mc_uc":"Gampola Divisional Secretariat","logitiute":80.562739000000008,"latitude":7.2514510000000003,"orig_fid":-1}},{"type":"Feature","id":120,"geometry":{"type":"Point","coordinates":[80.545954000000052,6.9345540000000483]},"properties":{"objectid":120,"name":"THE GREENDALE-WATAWALA","address":"63RD MILE POST, WATAWALA TEA ESTATE, AVISSAWELLA-HATTON RD, WATAWALA.","rooms":3,"grade":"STANDARD","district":"Nuwara Eliya","aga_division":"Ambagamuwa Pradeshiya Sabha","ps_mc_uc":"Ambagamuwa Divisional Secretariat","logitiute":80.545954000000009,"latitude":6.9345540000000003,"orig_fid":-1}},{"type":"Feature","id":121,"geometry":{"type":"Point","coordinates":[79.859458000000075,6.8682150000000206]},"properties":{"objectid":121,"name":"RAJA HOUSE","address":"39A, 39A/1, RAJASINGHE ROAD, COLOMBO 06.","rooms":4,"grade":"DELUXE","district":"Colombo","aga_division":"Colombo","ps_mc_uc":"Colombo Divisional Secretariat","logitiute":79.859457999999989,"latitude":6.8682150000000002,"orig_fid":-1}},{"type":"Feature","id":122,"geometry":{"type":"Point","coordinates":[79.868829000000062,6.8791740000000345]},"properties":{"objectid":122,"name":"HAVELOCK SANCTUARY","address":"425/15, HAVELOCK ROAD, COLOMBO 06.","rooms":3,"grade":"DELUXE","district":"Colombo","aga_division":"Colombo","ps_mc_uc":"Thimbirigasyaya Divisional Secretariat","logitiute":79.868828999999991,"latitude":6.8791739999999999,"orig_fid":-1}},{"type":"Feature","id":123,"geometry":{"type":"Point","coordinates":[79.986403000000053,6.4542830000000322]},"properties":{"objectid":123,"name":"BASILEA GUEST","address":"282/5, DIYARILLA ROAD, MORAGALLA, BERUWALA","rooms":6,"grade":"SUPERIOR","district":"Kalutara","aga_division":"Beruwala Pradeshiya Sabha","ps_mc_uc":"Beruwala Divisional Secretariat","logitiute":79.98640300000001,"latitude":6.4542830000000002,"orig_fid":-1}},{"type":"Feature","id":124,"geometry":{"type":"Point","coordinates":[81.299168000000066,6.2973420000000715]},"properties":{"objectid":124,"name":"THIRASARA HOLIDAY RESORT","address":"NO.279, MAHASENPURA, TISSAMAHARAMAYA.","rooms":5,"grade":"SUPERIOR","district":"Hambantota","aga_division":"Thissamaharama","ps_mc_uc":"Thissamaharama Divisional Secretariat","logitiute":81.299167999999995,"latitude":6.2973419999999996,"orig_fid":-1}},{"type":"Feature","id":125,"geometry":{"type":"Point","coordinates":[80.371217000000058,7.5044040000000223]},"properties":{"objectid":125,"name":"ADS BUNGALOW","address":"NO.156/14, 2ND STAGE, ANDAGALA ESTATE, BAMUNUGEDARA, KURUNEGALA.","rooms":5,"grade":"SUPERIOR","district":"Kurunegala","aga_division":"Kurunegala","ps_mc_uc":"Kurunegala Divisional Secretariat","logitiute":80.371217000000001,"latitude":7.5044040000000001,"orig_fid":-1}},{"type":"Feature","id":126,"geometry":{"type":"Point","coordinates":[80.584803000000079,7.014959000000033]},"properties":{"objectid":126,"name":"RIVERPOOL HOLIDAY BUNGALOW","address":"NO.01, BARANDA COLONY, KATABOOLA-NAWALAPITIYA.","rooms":4,"grade":"STANDARD","district":"Kandy","aga_division":"Pasbage Korale Pradeshiya Sabha","ps_mc_uc":"Pasbage Korale Divisional Secretariat","logitiute":80.584803000000008,"latitude":7.0149590000000002,"orig_fid":-1}},{"type":"Feature","id":127,"geometry":{"type":"Point","coordinates":[80.67853000000008,7.2588130000000319]},"properties":{"objectid":127,"name":"218 HOLIDAY RESORT","address":"218-KETAWALA-LEWLA(VIA KANDY)","rooms":3,"grade":"STANDARD","district":"Kandy","aga_division":"Kandy","ps_mc_uc":"Gagawata","logitiute":80.678529999999995,"latitude":7.258813,"orig_fid":-1}},{"type":"Feature","id":128,"geometry":{"type":"Point","coordinates":[80.01228100000003,6.3659530000000473]},"properties":{"objectid":128,"name":"VILLA AMORE MIO BEACH","address":"GALLE ROAD,HABAKKALA,MAHA INDURUWA,80510","rooms":6,"grade":"SUPERIOR","district":"Galle","aga_division":"Bentota Pradeshiya Sabha","ps_mc_uc":"Benthota Divisional Secretariat","logitiute":80.012281000000002,"latitude":6.3659530000000002,"orig_fid":-1}},{"type":"Feature","id":129,"geometry":{"type":"Point","coordinates":[80.774988000000064,6.9550380000000587]},"properties":{"objectid":129,"name":"I.J. LAKE VIEW HOLIDAY BUNGALOW","address":"NO.66A, BONAVISTA ROAD, NUWARAELIYA.","rooms":3,"grade":"SUPERIOR","district":"Nuwara Eliya","aga_division":"Nuwara Eliya","ps_mc_uc":"Nuwara Eliya Divisional Secretariat","logitiute":80.774988000000008,"latitude":6.9550380000000001,"orig_fid":-1}},{"type":"Feature","id":130,"geometry":{"type":"Point","coordinates":[79.844519000000048,7.2417390000000523]},"properties":{"objectid":130,"name":"SNOWDROP","address":"NO.77,ST-JOSEPH MAWATHA,ETTUKALA,NEGOMBO.","rooms":5,"grade":"SUPERIOR","district":"Gampaha","aga_division":"Negombo","ps_mc_uc":"Negombo Divisional Secretariat","logitiute":79.844518999999991,"latitude":7.2417389999999999,"orig_fid":-1}},{"type":"Feature","id":131,"geometry":{"type":"Point","coordinates":[79.818184000000031,7.4070490000000291]},"properties":{"objectid":131,"name":"SRI BEACH","address":"BEACH ROAD, MUDUKATUWA NORTH, MARAWILA.","rooms":4,"grade":"SUPERIOR","district":"Puttalam","aga_division":"Nattandiya Pradeshiya Sabha","ps_mc_uc":"Nattandiya Divisional Secretariat","logitiute":79.818184000000002,"latitude":7.4070489999999998,"orig_fid":-1}},{"type":"Feature","id":132,"geometry":{"type":"Point","coordinates":[80.663933000000043,7.2039670000000342]},"properties":{"objectid":132,"name":"GALAHA TEA BUNGALOW","address":"GALAHA ESTATE BIG BUNGALOW,MORAGOLLA ROAD,GALAHA.","rooms":4,"grade":"DELUXE","district":"Kandy","aga_division":"Kandy","ps_mc_uc":"Delthota Divisional Secretariat","logitiute":80.663933,"latitude":7.2039669999999996,"orig_fid":-1}},{"type":"Feature","id":133,"geometry":{"type":"Point","coordinates":[80.474229000000037,5.9376540000000659]},"properties":{"objectid":133,"name":"VILLA ATULYA","address":"MUHUDU MAWATHA, WELIKADE, THALARAMBA, KAMBURUGAMUWA.","rooms":6,"grade":"DELUXE","district":"Matara","aga_division":"Weligama Pradeshiya Sabha","ps_mc_uc":"Weligama Divisional Secretariat","logitiute":80.474228999999994,"latitude":5.9376540000000002,"orig_fid":-1}},{"type":"Feature","id":134,"geometry":{"type":"Point","coordinates":[80.77345500000007,6.9692540000000349]},"properties":{"objectid":134,"name":"ALBANY NUWARA ELIYA","address":"11/4, UPPER LAKE ROAD, NUWARA ELIYA","rooms":4,"grade":"DELUXE","district":"Nuwara Eliya","aga_division":"Nuwara Eliya","ps_mc_uc":"Nuwara Eliya Divisional Secretariat","logitiute":80.773454999999998,"latitude":6.9692540000000003,"orig_fid":-1}},{"type":"Feature","id":135,"geometry":{"type":"Point","coordinates":[80.244339000000082,6.0083910000000742]},"properties":{"objectid":135,"name":"KING FISHER LEISURE","address":"MALIMIYA WATTA,YADDEHIMULLA ROAD,UNAWATUNA,GALLE.","rooms":4,"grade":"DELUXE","district":"Galle","aga_division":"Habaraduwa","ps_mc_uc":"Habaraduwa Divisional Secretariat","logitiute":80.244338999999997,"latitude":6.0083910000000005,"orig_fid":-1}},{"type":"Feature","id":136,"geometry":{"type":"Point","coordinates":[80.345444000000043,5.9876180000000545]},"properties":{"objectid":136,"name":"LUMBINI LAGOON.","address":"MIRIHANAWATHTHA,KATHALUWA.AHANGAMA.","rooms":4,"grade":"DELUXE","district":"Galle","aga_division":"Habaraduwa","ps_mc_uc":"Habaraduwa Divisional Secretariat","logitiute":80.345444000000001,"latitude":5.9876180000000003,"orig_fid":-1}},{"type":"Feature","id":137,"geometry":{"type":"Point","coordinates":[80.265508000000068,5.9997110000000475]},"properties":{"objectid":137,"name":"MIHIRI BEACH HOUSE","address":"SANUK HOLDING,MIHIRI BEACH HOUSE,MATARA ROAD,TALPE","rooms":4,"grade":"DELUXE","district":"Galle","aga_division":"Habaraduwa","ps_mc_uc":"Habaraduwa Divisional Secretariat","logitiute":80.265507999999997,"latitude":5.9997109999999996,"orig_fid":-1}},{"type":"Feature","id":138,"geometry":{"type":"Point","coordinates":[80.115051000000051,6.1221440000000484]},"properties":{"objectid":138,"name":"VILLA GOODWILL PARADISE","address":"NO:5/23 B,PINKANDA ROAD,THIRANAGAMA,HIKKADUWA","rooms":5,"grade":"SUPERIOR","district":"Galle","aga_division":"Hikkaduwa","ps_mc_uc":"Hikkaduwa Divisional Secretariat","logitiute":80.115050999999994,"latitude":6.1221439999999996,"orig_fid":-1}},{"type":"Feature","id":139,"geometry":{"type":"Point","coordinates":[80.768507000000056,6.7205040000000622]},"properties":{"objectid":139,"name":"BELPEAK COTTAGE","address":"BELPEAK COTTAGE, GALAGAMA, BELIHULOYA","rooms":2,"grade":"STANDARD","district":"Ratnapura","aga_division":"Ratnapura","ps_mc_uc":"Imbulpe Divisional Secretariat","logitiute":80.768507,"latitude":6.720504,"orig_fid":-1}},{"type":"Feature","id":140,"geometry":{"type":"Point","coordinates":[80.373961000000065,5.9709900000000289]},"properties":{"objectid":140,"name":"SAKARA HOLIDAY BUNGALOW","address":"NO:55/7,RASIKA,VISHUDHARAMA MAWATHA,AHANGAMA","rooms":4,"grade":"DELUXE","district":"Galle","aga_division":"Habaraduwa","ps_mc_uc":"Galle Divisional Secretariat","logitiute":80.373961000000008,"latitude":5.9709900000000005,"orig_fid":-1}},{"type":"Feature","id":141,"geometry":{"type":"Point","coordinates":[80.270811000000037,5.9984610000000202]},"properties":{"objectid":141,"name":"ELYSIUM","address":"NO: 776/2, MATARA ROAD ,MIHIRIPENNA ,TALPE.","rooms":5,"grade":"DELUXE","district":"Galle","aga_division":"Habaraduwa","ps_mc_uc":"Habaraduwa Divisional Secretariat","logitiute":80.270810999999995,"latitude":5.9984609999999998,"orig_fid":-1}},{"type":"Feature","id":142,"geometry":{"type":"Point","coordinates":[80.631320000000073,7.2794610000000262]},"properties":{"objectid":142,"name":"KANDA HOLIDAY BUNGALOW","address":"NO.104, PARADISE PARK, HANTANA, KANDY","rooms":3,"grade":"SUPERIOR","district":"Kandy","aga_division":"Gagawata Koralya","ps_mc_uc":"Gagawata","logitiute":80.631320000000002,"latitude":7.2794609999999995,"orig_fid":-1}},{"type":"Feature","id":143,"geometry":{"type":"Point","coordinates":[80.588479000000063,7.2407800000000293]},"properties":{"objectid":143,"name":"YALEGODA WALAUWA","address":"YALEGODA ESTATE, HANDESSA VIA PERADENIYA","rooms":4,"grade":"DELUXE","district":"Kandy","aga_division":"Udunuwara Pradeshiya Sabha","ps_mc_uc":"Udunuwara Divisional Secretariat","logitiute":80.588479000000007,"latitude":7.24078,"orig_fid":-1}},{"type":"Feature","id":144,"geometry":{"type":"Point","coordinates":[81.172867000000053,8.7310130000000754]},"properties":{"objectid":144,"name":"BAY BEACH BUNGALOW","address":"BAY BEACH HOTEL,GANDHI NAGAR,KUMBURUPITIYA,NILAVELI,TRINCOMALEE","rooms":5,"grade":"SUPERIOR","district":"Trincomalee","aga_division":"Kuchchaveli","ps_mc_uc":"Kuchchaveli Divisional Secretariat","logitiute":81.172866999999997,"latitude":8.731012999999999,"orig_fid":-1}},{"type":"Feature","id":145,"geometry":{"type":"Point","coordinates":[80.354672000000051,5.9756470000000377]},"properties":{"objectid":145,"name":"OCEAN CREST","address":"NO:123,GALLE ROAD,AHANGAMA.","rooms":8,"grade":"DELUXE","district":"Galle","aga_division":"Habaraduwa","ps_mc_uc":"Habaraduwa Divisional Secretariat","logitiute":80.354672000000008,"latitude":5.9756470000000004,"orig_fid":-1}},{"type":"Feature","id":146,"geometry":{"type":"Point","coordinates":[80.608337000000063,7.3492010000000505]},"properties":{"objectid":146,"name":"NISALA VILLA","address":"108/6, HAPUGODA, AMBATENNA","rooms":3,"grade":"DELUXE","district":"Kandy","aga_division":"Harispattuwa Pradeshiya Sabha","ps_mc_uc":"Harispattuwa Divisional Secretariat","logitiute":80.608337000000006,"latitude":7.3492009999999999,"orig_fid":-1}},{"type":"Feature","id":147,"geometry":{"type":"Point","coordinates":[80.642020000000059,7.019245000000069]},"properties":{"objectid":147,"name":"ECO LANKA VILLA","address":"MAUSSAWA ESTATE, HALPOLA, PUUDALUOYA","rooms":8,"grade":"STANDARD","district":"Nuwara Eliya","aga_division":"Nuwara Eliya","ps_mc_uc":"Kothmale Divisional Secretariat","logitiute":80.642020000000002,"latitude":7.0192449999999997,"orig_fid":-1}},{"type":"Feature","id":148,"geometry":{"type":"Point","coordinates":[81.539806000000056,7.934389000000067]},"properties":{"objectid":148,"name":"THE COVE PASSIKUDAH","address":"NASSIVANTHWU, OFF WALACHCHENAI","rooms":4,"grade":"DELUXE","district":"Batticaloa","aga_division":"Batticaloa","ps_mc_uc":"Batticaloa Divisional Secretariat","logitiute":81.539805999999999,"latitude":7.9343890000000004,"orig_fid":-1}},{"type":"Feature","id":149,"geometry":{"type":"Point","coordinates":[80.618416000000082,7.2548440000000483]},"properties":{"objectid":149,"name":"CASA MIJA","address":"N0 37,GALLE ROAD,KAMBURUGAMUWA","rooms":5,"grade":"DELUXE","district":"Matara","aga_division":"Weligama Pradeshiya Sabha","ps_mc_uc":"Welimada Divisional Secretariat","logitiute":80.618415999999996,"latitude":7.2548440000000003,"orig_fid":-1}},{"type":"Feature","id":150,"geometry":{"type":"Point","coordinates":[79.857257000000061,6.9141220000000203]},"properties":{"objectid":150,"name":"THUSARE TALKING HANDS","address":"NO 103/12, DHARMAPALA MAWATHA, COLOMBO 07","rooms":2,"grade":"DELUXE","district":"Colombo","aga_division":"Colombo","ps_mc_uc":"Colombo Divisional Secretariat","logitiute":79.857257000000004,"latitude":6.9141220000000008,"orig_fid":-1}},{"type":"Feature","id":151,"geometry":{"type":"Point","coordinates":[80.571781000000044,6.8314580000000547]},"properties":{"objectid":151,"name":"SUNSHINE RESORTS","address":"NO 78, KOVIL ROAD,MASKELIYA.","rooms":4,"grade":"STANDARD","district":"Nuwara Eliya","aga_division":"Nuwara Eliya","ps_mc_uc":"Nuwara Eliya Divisional Secretariat","logitiute":80.571781000000001,"latitude":6.8314580000000005,"orig_fid":-1}},{"type":"Feature","id":152,"geometry":{"type":"Point","coordinates":[80.216417000000035,6.027748000000031]},"properties":{"objectid":152,"name":"42 LIGHT HOUSE STREET","address":"42, LIGHTHOUSE STREET, GALLE","rooms":4,"grade":"DELUXE","district":"Galle","aga_division":"Galle","ps_mc_uc":"Galle Divisional Secretariat","logitiute":80.216416999999993,"latitude":6.0277479999999999,"orig_fid":-1}},{"type":"Feature","id":153,"geometry":{"type":"Point","coordinates":[80.617917000000034,7.2605120000000625]},"properties":{"objectid":153,"name":"MOUNTAIN ROCK HOLIDAY RESORT","address":"NO.202/3,BOWELAWATTA,KANDY","rooms":2,"grade":"SUPERIOR","district":"Kandy","aga_division":"Gagawata Koralya","ps_mc_uc":"Kandy Divisional Secretariat","logitiute":80.617917000000006,"latitude":7.2605120000000003,"orig_fid":-1}},{"type":"Feature","id":154,"geometry":{"type":"Point","coordinates":[80.763529000000062,7.9693250000000262]},"properties":{"objectid":154,"name":"BACK OF BEYOND PIDURANGALA","address":"KURULU UYANA, TEMPLE ROAD, PIDURANGALA, SIGIRIYA","rooms":4,"grade":"SUPERIOR","district":"Matale","aga_division":"Dambulla Pradeshiya Sabha","ps_mc_uc":"Dambulla Divisional Secretariat","logitiute":80.763528999999991,"latitude":7.9693250000000004,"orig_fid":-1}},{"type":"Feature","id":155,"geometry":{"type":"Point","coordinates":[80.787916000000052,7.9143240000000219]},"properties":{"objectid":155,"name":"BACK OF BEYOND DEHIGAHA ELA","address":"ALAKOLAWEWA, DEHIGAHA ELA, SIGIRIYA","rooms":4,"grade":"DELUXE","district":"Matale","aga_division":"Dambulla Pradeshiya Sabha","ps_mc_uc":"Dambulla Divisional Secretariat","logitiute":80.787915999999996,"latitude":7.9143239999999997,"orig_fid":-1}},{"type":"Feature","id":156,"geometry":{"type":"Point","coordinates":[81.553927000000044,7.8979040000000396]},"properties":{"objectid":156,"name":"THE NEW LAND GUEST","address":"283,MAIN ROAD,KALKUDAH.","rooms":8,"grade":"STANDARD","district":"Batticaloa","aga_division":"Koralai Pattu","ps_mc_uc":"Koralai Pattu Divisional Secretariat","logitiute":81.553927000000002,"latitude":7.8979039999999996,"orig_fid":-1}},{"type":"Feature","id":157,"geometry":{"type":"Point","coordinates":[81.554464000000053,7.9208430000000476]},"properties":{"objectid":157,"name":"SIMLA INN","address":"PASSIKUDAH ROAD, KALKUDAH","rooms":8,"grade":"STANDARD","district":"Batticaloa","aga_division":"Batticaloa","ps_mc_uc":"Valaichchenai Divisional Secretariat","logitiute":81.554463999999996,"latitude":7.9208429999999996,"orig_fid":-1}},{"type":"Feature","id":158,"geometry":{"type":"Point","coordinates":[79.913509000000033,6.7851330000000303]},"properties":{"objectid":158,"name":"BLUE WATER VILLA","address":"318, DAMPE ROAD, PILIYANDALA","rooms":5,"grade":"DELUXE","district":"Colombo","aga_division":"Kesbewa","ps_mc_uc":"Kesbewa Divisional Secretariat","logitiute":79.913509000000005,"latitude":6.7851330000000001,"orig_fid":-1}},{"type":"Feature","id":159,"geometry":{"type":"Point","coordinates":[80.254688000000044,6.0207970000000728]},"properties":{"objectid":159,"name":"TROPICAL RETREAT","address":"NO 182, HEENATIGALA ROAD, UNAWATUNA, GALLE","rooms":5,"grade":"DELUXE","district":"Galle","aga_division":"Akmeemana","ps_mc_uc":"Akmeemana Divisional Secretariat","logitiute":80.254688000000002,"latitude":6.020797,"orig_fid":-1}},{"type":"Feature","id":160,"geometry":{"type":"Point","coordinates":[81.076440000000048,6.8310550000000489]},"properties":{"objectid":160,"name":"PLANTERS BUNGALOW","address":"10 MILE POST, UVA- KARADAGOLLA, ELLA","rooms":6,"grade":"DELUXE","district":"Badulla","aga_division":"Ella Pradeshiya Sabha","ps_mc_uc":"Ella Divisional Secretariat","logitiute":81.076440000000005,"latitude":6.8310550000000001,"orig_fid":-1}},{"type":"Feature","id":161,"geometry":{"type":"Point","coordinates":[80.541717000000062,5.9444550000000618]},"properties":{"objectid":161,"name":"AMBASEWANA MANSION","address":"NO 05, THOTAMUNA ROAD, THOTAMUNA, MATARA","rooms":4,"grade":"DELUXE","district":"Matara","aga_division":"Matara","ps_mc_uc":"Matara Divisional Secretariat","logitiute":80.541717000000006,"latitude":5.9444549999999996,"orig_fid":-1}},{"type":"Feature","id":162,"geometry":{"type":"Point","coordinates":[80.765420000000063,6.9771030000000565]},"properties":{"objectid":162,"name":"BUNGALOW 1926","address":"NO.20, CROSS STREET, NUWARA ELIYA","rooms":3,"grade":"DELUXE","district":"Nuwara Eliya","aga_division":"Nuwara Eliya","ps_mc_uc":"Nuwara Eliya Divisional Secretariat","logitiute":80.765420000000006,"latitude":6.9771030000000005,"orig_fid":-1}},{"type":"Feature","id":163,"geometry":{"type":"Point","coordinates":[80.619967000000031,7.2685580000000414]},"properties":{"objectid":163,"name":"P.G.C. RESIDENCE","address":"271, ELAGOLLA WATTA, HEERASSAGALA, KANDY","rooms":5,"grade":"DELUXE","district":"Kandy","aga_division":"Gagawata Koralya","ps_mc_uc":"Gagawata","logitiute":80.619967000000003,"latitude":7.2685580000000005,"orig_fid":-1}},{"type":"Feature","id":164,"geometry":{"type":"Point","coordinates":[80.765034000000071,7.2676480000000652]},"properties":{"objectid":164,"name":"SUBASHRI","address":"SUBASHRI, QUAILS RIDGE, VICTORIA GOLF & COUNTRY RESORT, DIGANA, KANDY","rooms":4,"grade":"DELUXE","district":"Kandy","aga_division":"Kandy","ps_mc_uc":"Kandy Divisional Secretariat","logitiute":80.765034,"latitude":7.2676479999999994,"orig_fid":-1}},{"type":"Feature","id":165,"geometry":{"type":"Point","coordinates":[79.878536000000054,6.8175990000000297]},"properties":{"objectid":165,"name":"BELLA CASA","address":"9/2, 4TH LANE, RATMALANA","rooms":3,"grade":"STANDARD","district":"Colombo","aga_division":"Dehiwala-Mount Lavinia","ps_mc_uc":"Ratmalana Divisional Secretariat","logitiute":79.878535999999997,"latitude":6.8175989999999995,"orig_fid":-1}},{"type":"Feature","id":166,"geometry":{"type":"Point","coordinates":[80.57820300000003,7.2180100000000493]},"properties":{"objectid":166,"name":"ELADETTA WALAUWA","address":"ELADETTA ESTATE, HANDESSA, KANDY","rooms":5,"grade":"DELUXE","district":"Kandy","aga_division":"Udunuwara Pradeshiya Sabha","ps_mc_uc":"Kandy Divisional Secretariat","logitiute":80.578203000000002,"latitude":7.2180099999999996,"orig_fid":-1}},{"type":"Feature","id":167,"geometry":{"type":"Point","coordinates":[80.644202000000064,7.4304420000000277]},"properties":{"objectid":167,"name":"RIVER EDGE BUNGALOW","address":"WARAPITIYA ROAD,KATUDENIYA,MATALE","rooms":3,"grade":"SUPERIOR","district":"Matale","aga_division":"Matale","ps_mc_uc":"Rattota Divisional Secretariat","logitiute":80.644201999999993,"latitude":7.4304419999999993,"orig_fid":-1}},{"type":"Feature","id":168,"geometry":{"type":"Point","coordinates":[80.729544000000033,7.2875380000000405]},"properties":{"objectid":168,"name":"VISAL BUNGALOWS","address":"2/259, LOTUS AVENUE, VICTORIA RANGE, KENGALLA","rooms":3,"grade":"SUPERIOR","district":"Kandy","aga_division":"Kandy","ps_mc_uc":"Kandy Divisional Secretariat","logitiute":80.729544000000004,"latitude":7.2875379999999996,"orig_fid":-1}},{"type":"Feature","id":169,"geometry":{"type":"Point","coordinates":[79.876095000000078,6.8777350000000297]},"properties":{"objectid":169,"name":"ROBERT RESIDENCE","address":"NO. 12/7, ROBERT GUNAWARDENA MAWATHA, COLOMBO 06","rooms":3,"grade":"SUPERIOR","district":"Colombo","aga_division":"Colombo","ps_mc_uc":"Thimbirigasyaya Divisional Secretariat","logitiute":79.876095000000007,"latitude":6.8777349999999995,"orig_fid":-1}},{"type":"Feature","id":170,"geometry":{"type":"Point","coordinates":[80.289822000000072,6.0181530000000407]},"properties":{"objectid":170,"name":"CASSIA HILL","address":"WERAHERAWATTA,MEEPE,HABARADUWA,GALLE.","rooms":4,"grade":"DELUXE","district":"Galle","aga_division":"Habaraduwa","ps_mc_uc":"Habaraduwa Divisional Secretariat","logitiute":80.289822000000001,"latitude":6.0181529999999999,"orig_fid":-1}},{"type":"Feature","id":171,"geometry":{"type":"Point","coordinates":[80.150604000000044,7.1923030000000381]},"properties":{"objectid":171,"name":"GIRIULLA MAOYA ELEPHANT VILLA","address":"UDARA STATE, MASNORUWA, GIRIULLA","rooms":3,"grade":"SUPERIOR","district":"Kurunegala","aga_division":"Kurunegala","ps_mc_uc":"Kurunegala Divisional Secretariat","logitiute":80.150604000000001,"latitude":7.1923030000000008,"orig_fid":-1}},{"type":"Feature","id":172,"geometry":{"type":"Point","coordinates":[80.525786000000039,5.9400610000000711]},"properties":{"objectid":172,"name":"DEEP BLUE","address":"39/3, POLHENA ROAD, POLHENA, MATARA","rooms":5,"grade":"SUPERIOR","district":"Matara","aga_division":"Matara","ps_mc_uc":"Matara Divisional Secretariat","logitiute":80.525785999999997,"latitude":5.940061,"orig_fid":-1}},{"type":"Feature","id":173,"geometry":{"type":"Point","coordinates":[80.241193000000067,6.0212110000000507]},"properties":{"objectid":173,"name":"EAGAL'S NEST","address":"BUONA VISTA, UNAWATUNA, GALLE","rooms":4,"grade":"SUPERIOR","district":"Galle","aga_division":"Habaraduwa","ps_mc_uc":"Habaraduwa Divisional Secretariat","logitiute":80.24119300000001,"latitude":6.0212110000000001,"orig_fid":-1}},{"type":"Feature","id":174,"geometry":{"type":"Point","coordinates":[81.713547000000062,7.7219150000000241]},"properties":{"objectid":174,"name":"BENI BEACH RESORT","address":"NO.5/8A,8TH CROSS, THIRUCHENTHUR ROAD,KALLADY,BATTICALOA.","rooms":4,"grade":"STANDARD","district":"Batticaloa","aga_division":"Batticaloa","ps_mc_uc":"Batticaloa Divisional Secretariat","logitiute":81.713546999999991,"latitude":7.7219150000000001,"orig_fid":-1}},{"type":"Feature","id":175,"geometry":{"type":"Point","coordinates":[81.712474000000043,7.7231620000000589]},"properties":{"objectid":175,"name":"OLIVE GREEN RESORT","address":"NO.96,NEW DUTCH BAR ROAD,KALLADY,BATTICALOA.","rooms":4,"grade":"STANDARD","district":"Batticaloa","aga_division":"Batticaloa","ps_mc_uc":"Batticaloa Divisional Secretariat","logitiute":81.712474,"latitude":7.7231620000000003,"orig_fid":-1}},{"type":"Feature","id":176,"geometry":{"type":"Point","coordinates":[79.854550000000074,6.9137670000000639]},"properties":{"objectid":176,"name":"BONGO STAY","address":"11, BOYD PLACE, COLOMBO 03","rooms":5,"grade":"DELUXE","district":"Colombo","aga_division":"Colombo","ps_mc_uc":"Colombo Divisional Secretariat","logitiute":79.854550000000003,"latitude":6.913767,"orig_fid":-1}},{"type":"Feature","id":177,"geometry":{"type":"Point","coordinates":[79.860711000000038,6.8847980000000462]},"properties":{"objectid":177,"name":"VILLA RAHA","address":"33, MCLEOD ROAD, BAMBALAPITIYA, COLOMBO 04","rooms":7,"grade":"DELUXE","district":"Colombo","aga_division":"Colombo","ps_mc_uc":"Colombo Divisional Secretariat","logitiute":79.860710999999995,"latitude":6.8847980000000009,"orig_fid":-1}},{"type":"Feature","id":178,"geometry":{"type":"Point","coordinates":[79.83929900000004,7.3373340000000553]},"properties":{"objectid":178,"name":"ANYAA LIFESTYLE","address":"HELENA MAWATHA, WENNAPUWA.","rooms":4,"grade":"SUPERIOR","district":"Puttalam","aga_division":"Wennappuwa Pradeshiya Sabha","ps_mc_uc":"Wennappuwa Divisional Secretariat","logitiute":79.839299000000011,"latitude":7.3373340000000002,"orig_fid":-1}},{"type":"Feature","id":179,"geometry":{"type":"Point","coordinates":[80.39627100000007,8.3192660000000274]},"properties":{"objectid":179,"name":"HOTEL SISIL THERA","address":"NO:558/A, D.S SENANAYAKE MAWATHA, STAGE TOWN, ANURADHAPURA","rooms":4,"grade":"STANDARD","district":"Anuradhapura","aga_division":"Anuradhapura","ps_mc_uc":"Anuradhapura East","logitiute":80.396270999999999,"latitude":8.3192660000000007,"orig_fid":-1}},{"type":"Feature","id":180,"geometry":{"type":"Point","coordinates":[80.321286000000043,6.404352000000074]},"properties":{"objectid":180,"name":"GULANAHENA TEA ESTATE BUNGALOW","address":"GULANAHENA TEA ESTATE,NILGAHAHENA,THINIYAWALA","rooms":3,"grade":"STANDARD","district":"Kalutara","aga_division":"Palindanuwara Pradeshiya Sabha","ps_mc_uc":"Palindanuwara Divisional Secretariat","logitiute":80.321286000000001,"latitude":6.4043520000000003,"orig_fid":-1}},{"type":"Feature","id":181,"geometry":{"type":"Point","coordinates":[81.332646000000068,6.2394330000000764]},"properties":{"objectid":181,"name":"KORAGAHA LODGE","address":"23, KORAGAHA ULPATHA, RANAKELIYA, TISSAMAHARAMA","rooms":4,"grade":"DELUXE","district":"Hambantota","aga_division":"Thissamaharama","ps_mc_uc":"Thissamaharama Divisional Secretariat","logitiute":81.332645999999997,"latitude":6.239433,"orig_fid":-1}},{"type":"Feature","id":182,"geometry":{"type":"Point","coordinates":[80.643837000000076,6.5022640000000251]},"properties":{"objectid":182,"name":"KURULU ESTATE","address":"KURUNDU WATTHA, NAGASPOLA,RAKWANA","rooms":2,"grade":"STANDARD","district":"Ratnapura","aga_division":"Ratnapura","ps_mc_uc":"Godakawela Divisional Secretariat","logitiute":80.643837000000005,"latitude":6.5022640000000003,"orig_fid":-1}},{"type":"Feature","id":183,"geometry":{"type":"Point","coordinates":[80.857195000000047,7.0119280000000686]},"properties":{"objectid":183,"name":"STAFFORD BUNGALOW","address":"HALGRANOYA,RAGALA","rooms":4,"grade":"DELUXE","district":"Nuwara Eliya","aga_division":"Nuwara Eliya","ps_mc_uc":"Walapane Divisional Secretariat","logitiute":80.857195000000004,"latitude":7.0119280000000002,"orig_fid":-1}},{"type":"Feature","id":184,"geometry":{"type":"Point","coordinates":[80.748229000000038,6.9908950000000232]},"properties":{"objectid":184,"name":"SANCHAREE MOUNTAIN VIEW BUNGALOW","address":"SANASA HOLIDAY RESORT, NO. 495, KANDY ROAD, TOP PASS, NUWARA ELIYA","rooms":5,"grade":"SUPERIOR","district":"Nuwara Eliya","aga_division":"Nuwara Eliya","ps_mc_uc":"Nuwara Eliya Divisional Secretariat","logitiute":80.748228999999995,"latitude":6.9908950000000001,"orig_fid":-1}},{"type":"Feature","id":185,"geometry":{"type":"Point","coordinates":[80.243823000000077,6.0990190000000553]},"properties":{"objectid":185,"name":"NERALU UYANA VILLAS","address":"NERALU UYANA ESTATE, NARAWALA, THALGASYAYA, AKMEEMANA, GALLE","rooms":1,"grade":"STANDARD","district":"Galle","aga_division":"Akmeemana","ps_mc_uc":"Akmeemana Divisional Secretariat","logitiute":80.243822999999992,"latitude":6.0990190000000002,"orig_fid":-1}},{"type":"Feature","id":186,"geometry":{"type":"Point","coordinates":[80.77426440000005,7.2650791000000368]},"properties":{"objectid":186,"name":"VILLA SUKUM","address":"18, QUAILS RIDGE, VICTORIA GOLF CLUB,DIGANE","rooms":6,"grade":"DELUXE","district":"Kandy","aga_division":"Kandy","ps_mc_uc":"Kandy Divisional Secretariat","logitiute":80.774264399999993,"latitude":7.2650790999999995,"orig_fid":-1}},{"type":"Feature","id":187,"geometry":{"type":"Point","coordinates":[80.621635000000083,7.2821760000000495]},"properties":{"objectid":187,"name":"HAWALLI VILLA","address":"492/2, PERADENIYA ROAD, KANDY","rooms":2,"grade":"SUPERIOR","district":"Kandy","aga_division":"Kandy","ps_mc_uc":"Kandy Divisional Secretariat","logitiute":80.621634999999998,"latitude":7.2821759999999998,"orig_fid":-1}},{"type":"Feature","id":188,"geometry":{"type":"Point","coordinates":[80.218819000000053,6.0381240000000389]},"properties":{"objectid":188,"name":"COZY NEST","address":"9, UPPER DICKSON ROAD, GALLE","rooms":2,"grade":"DELUXE","district":"Galle","aga_division":"Galle","ps_mc_uc":"Galle Divisional Secretariat","logitiute":80.218818999999996,"latitude":6.0381239999999998,"orig_fid":-1}},{"type":"Feature","id":189,"geometry":{"type":"Point","coordinates":[80.270950000000084,6.0017390000000432]},"properties":{"objectid":189,"name":"PITTANIYA VILLA","address":"37/14, DAMRUWAN MAWATHA, MIHIRIPENNA, THALPE, GALLE","rooms":3,"grade":"DELUXE","district":"Galle","aga_division":"Habaraduwa","ps_mc_uc":"Habaraduwa Divisional Secretariat","logitiute":80.270949999999999,"latitude":6.0017389999999997,"orig_fid":-1}},{"type":"Feature","id":190,"geometry":{"type":"Point","coordinates":[80.428849000000071,5.9773780000000443]},"properties":{"objectid":190,"name":"WELIGAMA GEDARA","address":"NO 5/6, BANDARANAYAKA MAWATHA, HETTIWEEDIYA, WELIGAMA","rooms":3,"grade":"STANDARD","district":"Matara","aga_division":"Weligama Pradeshiya Sabha","ps_mc_uc":"Weligama Divisional Secretariat","logitiute":80.428849,"latitude":5.9773779999999999,"orig_fid":-1}},{"type":"Feature","id":191,"geometry":{"type":"Point","coordinates":[81.674730000000068,7.730997000000059]},"properties":{"objectid":191,"name":"APPAS BREEZY HOME STAY","address":"15, PUTHU MUGATHUWARAM,BATTICALOA","rooms":2,"grade":"STANDARD","district":"Batticaloa","aga_division":"Batticaloa","ps_mc_uc":"Manmunai North Divisional Secretariat","logitiute":81.674729999999997,"latitude":7.7309970000000003,"orig_fid":-1}},{"type":"Feature","id":192,"geometry":{"type":"Point","coordinates":[81.219524000000035,8.6015620000000581]},"properties":{"objectid":192,"name":"HOTEL TOBIKO","address":"NO 24, MURUGAPURI ROAD, UPPUVELI, TRINCOMALEE","rooms":4,"grade":"SUPERIOR","district":"Trincomalee","aga_division":"Trincomalee","ps_mc_uc":"Trincomalee Divisional Secretariat","logitiute":81.219523999999993,"latitude":8.6015619999999995,"orig_fid":-1}},{"type":"Feature","id":193,"geometry":{"type":"Point","coordinates":[80.65109700000005,7.2834510000000705]},"properties":{"objectid":193,"name":"SAFE HEAVEN FAMILY VILLA","address":"29/248 SHANTHA KUMAR RANASINGHE MW, AMPITIYA RD, KANDY","rooms":3,"grade":"SUPERIOR","district":"Kandy","aga_division":"Kandy","ps_mc_uc":"Kandy Divisional Secretariat","logitiute":80.651096999999993,"latitude":7.2834510000000003,"orig_fid":-1}},{"type":"Feature","id":194,"geometry":{"type":"Point","coordinates":[80.546785000000057,6.9323964000000728]},"properties":{"objectid":194,"name":"SPD BUNGALOW \"WATAWALA LASSANA\"","address":"MISTY RANGES, HATTON ROAD, WATAWALA.","rooms":5,"grade":"STANDARD","district":"Nuwara Eliya","aga_division":"Ginigathhena","ps_mc_uc":"Ambagamuwa Divisional Secretariat","logitiute":80.546785,"latitude":6.9323964,"orig_fid":-1}},{"type":"Feature","id":195,"geometry":{"type":"Point","coordinates":[80.493827000000067,5.9486460000000534]},"properties":{"objectid":195,"name":"VILLA KANCHANA","address":"WELIKADE,MUHUDU MAWATHA,THALARAMBE,KAMBURUGAMUWA,MATARA","rooms":5,"grade":"DELUXE","district":"Matara","aga_division":"Weligama Pradeshiya Sabha","ps_mc_uc":"Weligama Divisional Secretariat","logitiute":80.493826999999996,"latitude":5.9486460000000001,"orig_fid":-1}},{"type":"Feature","id":196,"geometry":{"type":"Point","coordinates":[79.90572300000008,6.7309440000000222]},"properties":{"objectid":196,"name":"VILLA SEVEN","address":"NO:07(332/1),JUBILEE LANE,WALANA,PANADURA","rooms":3,"grade":"SUPERIOR","district":"Kalutara","aga_division":"Panadura Pradeshiya Sabha","ps_mc_uc":"Panadura Divisional Secretariat","logitiute":79.905722999999995,"latitude":6.730944,"orig_fid":-1}},{"type":"Feature","id":197,"geometry":{"type":"Point","coordinates":[80.417443000000048,6.6754830000000425]},"properties":{"objectid":197,"name":"SERENE VILLA","address":"245/55 BATUGEDARA MAIN ROAD,RATNAPURA","rooms":4,"grade":"SUPERIOR","district":"Ratnapura","aga_division":"Ratnapura","ps_mc_uc":"Ratnapura Divisional Secretariat","logitiute":80.417443000000006,"latitude":6.6754829999999998,"orig_fid":-1}},{"type":"Feature","id":198,"geometry":{"type":"Point","coordinates":[80.009362000000067,9.6672590000000582]},"properties":{"objectid":198,"name":"SP TOURS AND REST","address":"NO:873, HOSPITAL ROAD, JAFFNA","rooms":5,"grade":"STANDARD","district":"Jaffna","aga_division":"Jaffna","ps_mc_uc":"Jaffna Divisional Secretariat","logitiute":80.009361999999996,"latitude":9.6672589999999996,"orig_fid":-1}},{"type":"Feature","id":199,"geometry":{"type":"Point","coordinates":[80.033083000000033,9.7464040000000409]},"properties":{"objectid":199,"name":"MARGOSA","address":"STATION ROAD, URELU NORTH, CHUNNAKAM, JAFFNA","rooms":5,"grade":"DELUXE","district":"Jaffna","aga_division":"Jaffna","ps_mc_uc":"Jaffna Divisional Secretariat","logitiute":80.033083000000005,"latitude":9.7464040000000001,"orig_fid":-1}},{"type":"Feature","id":200,"geometry":{"type":"Point","coordinates":[80.031847000000084,7.1668090000000575]},"properties":{"objectid":200,"name":"PERERA HOME","address":"133, 16TH LANE,LAKE CITY HOME, JA ELA","rooms":3,"grade":"SUPERIOR","district":"Gampaha","aga_division":"Gampaha","ps_mc_uc":"Ja-Ela Divisional Secretariat","logitiute":80.031846999999999,"latitude":7.1668090000000007,"orig_fid":-1}},{"type":"Feature","id":201,"geometry":{"type":"Point","coordinates":[80.89506700000004,6.0633520000000658]},"properties":{"objectid":201,"name":"RANNA HOUSE BY FOX RESORT","address":"NO 2 MODARA ROAD,KAHADAMODARA,RANNA,TANGALLE.","rooms":3,"grade":"DELUXE","district":"Hambantota","aga_division":"Tangalle Pradeshiya Sabha","ps_mc_uc":"Tangalle Divisional Secretariat","logitiute":80.895066999999997,"latitude":6.0633520000000001,"orig_fid":-1}},{"type":"Feature","id":202,"geometry":{"type":"Point","coordinates":[80.544006000000081,7.2167760000000385]},"properties":{"objectid":202,"name":"AMBANWALA TOURIST BUNGALOW","address":"NO 56 AMBANWALA WALAWWA,AMBANWALA,WELAMBODA","rooms":4,"grade":"STANDARD","district":"Kandy","aga_division":"Uhana Pradeshiya Sabha","ps_mc_uc":"Udunuwara Divisional Secretariat","logitiute":80.544005999999996,"latitude":7.2167760000000003,"orig_fid":-1}},{"type":"Feature","id":203,"geometry":{"type":"Point","coordinates":[80.416580000000067,5.9582810000000563]},"properties":{"objectid":203,"name":"SIHINAYA VILLA","address":"273,KAPPARATOTA ROAD, KAPPARATOTA,WELIGAMA.","rooms":4,"grade":"DELUXE","district":"Matara","aga_division":"Weligama Pradeshiya Sabha","ps_mc_uc":"Weligama Divisional Secretariat","logitiute":80.416579999999996,"latitude":5.9582809999999995,"orig_fid":-1}},{"type":"Feature","id":204,"geometry":{"type":"Point","coordinates":[80.651649000000077,7.302483000000052]},"properties":{"objectid":204,"name":"RIVERSIDE SUITES","address":"52 DUTUGEMUNU MAWATHA, LEWELLA, KANDY","rooms":4,"grade":"DELUXE","district":"Kandy","aga_division":"Kandy","ps_mc_uc":"Kundasale Divisional Secretariat","logitiute":80.651649000000006,"latitude":7.3024830000000005,"orig_fid":-1}},{"type":"Feature","id":205,"geometry":{"type":"Point","coordinates":[79.997490000000084,6.4285560000000714]},"properties":{"objectid":205,"name":"SAKURA HANA","address":"NO/34,,PATHMINI PERIS MAWATHA,ALUTHGAMA","rooms":3,"grade":"SUPERIOR","district":"Kalutara","aga_division":"Beruwala Pradeshiya Sabha","ps_mc_uc":"Beruwala Divisional Secretariat","logitiute":79.997489999999999,"latitude":6.4285559999999995,"orig_fid":-1}},{"type":"Feature","id":206,"geometry":{"type":"Point","coordinates":[79.899679000000049,6.8649080000000708]},"properties":{"objectid":206,"name":"HOME FROM HOME","address":"NO 42/2,RUPASIRI MAWATHA,MIRIHANA NUGEGODA","rooms":3,"grade":"DELUXE","district":"Colombo","aga_division":"Kotte Muncipal Council","ps_mc_uc":"Kotte Divisional Secretariat","logitiute":79.899679000000006,"latitude":6.8649080000000007,"orig_fid":-1}},{"type":"Feature","id":207,"geometry":{"type":"Point","coordinates":[80.753128000000061,7.547738000000038]},"properties":{"objectid":207,"name":"MOUNTAIN VILLA RIVERSTON","address":"PITAWALA,ILLUKKUMBURA,MATALE","rooms":3,"grade":"DELUXE","district":"Matale","aga_division":"Matale","ps_mc_uc":"Laggala-Pallegama Divisional Secretariat","logitiute":80.753128000000004,"latitude":7.5477379999999998,"orig_fid":-1}},{"type":"Feature","id":208,"geometry":{"type":"Point","coordinates":[81.569541000000072,7.9190740000000233]},"properties":{"objectid":208,"name":"KAYJAY BEACH HOUSE","address":"OLD PASSIKUDHA ROAD,PASSIKUDHA","rooms":6,"grade":"SUPERIOR","district":"Batticaloa","aga_division":"Kalkudha","ps_mc_uc":"Valaichchenai Divisional Secretariat","logitiute":81.569541000000001,"latitude":7.9190740000000002,"orig_fid":-1}},{"type":"Feature","id":209,"geometry":{"type":"Point","coordinates":[80.244031000000064,6.0101550000000543]},"properties":{"objectid":209,"name":"HEAVEN BY O","address":"24/4,YADDEHIMULLA ROAD, UNAWATUNA,GALLE","rooms":8,"grade":"DELUXE","district":"Galle","aga_division":"Habaraduwa","ps_mc_uc":"Habaraduwa Divisional Secretariat","logitiute":80.244031000000007,"latitude":6.0101550000000001,"orig_fid":-1}},{"type":"Feature","id":210,"geometry":{"type":"Point","coordinates":[80.633726000000081,7.2905720000000542]},"properties":{"objectid":210,"name":"ANGEL TOWER","address":"NO 78/8A ,2ND LANE, HEERASSAGALA, KANDY,HEERASSAGALA ROAD,KANDY","rooms":4,"grade":"SUPERIOR","district":"Kandy","aga_division":"Kandy","ps_mc_uc":"Kandy Divisional Secretariat","logitiute":80.63372600000001,"latitude":7.2905720000000001,"orig_fid":-1}},{"type":"Feature","id":211,"geometry":{"type":"Point","coordinates":[79.85899900000004,7.2280020000000604]},"properties":{"objectid":211,"name":"ROBI GARDEN VILLA","address":"108,KATANA ROAD,THIMBIRIGASKATUWA, NEGAMBO, SRI-LANKA","rooms":4,"grade":"DELUXE","district":"Gampaha","aga_division":"Kelaniya Pradeshiya Sabha","ps_mc_uc":"Kelaniya Divisional Secretariat","logitiute":79.858999000000011,"latitude":7.228002,"orig_fid":-1}},{"type":"Feature","id":212,"geometry":{"type":"Point","coordinates":[80.735452000000066,7.2963890000000333]},"properties":{"objectid":212,"name":"MADUSANKA HOLYDAY HOME","address":"NO 15, DIGANA, RAJAWELLA,,","rooms":8,"grade":"STANDARD","district":"Kandy","aga_division":"Kundasle","ps_mc_uc":"Kundasale Divisional Secretariat","logitiute":80.735451999999995,"latitude":7.2963890000000005,"orig_fid":-1}},{"type":"Feature","id":213,"geometry":{"type":"Point","coordinates":[80.242874000000029,6.0101780000000531]},"properties":{"objectid":213,"name":"FRENCH LOTUS","address":"YADDEHIMULLA ROAD,,UNAWATUNA BEACH,,GALLE.","rooms":5,"grade":"DELUXE","district":"Galle","aga_division":"Habaraduwa","ps_mc_uc":"Galle Divisional Secretariat","logitiute":80.242874,"latitude":6.0101780000000007,"orig_fid":-1}},{"type":"Feature","id":214,"geometry":{"type":"Point","coordinates":[80.891513000000032,6.0699090000000524]},"properties":{"objectid":214,"name":"MONERATENNA","address":"BACK OF BEYOND,WARNAKULASURIYA MAWATHA,KAHANDAMODARA,RANNA.","rooms":7,"grade":"DELUXE","district":"Hambantota","aga_division":"Tangalle Pradeshiya Sabha","ps_mc_uc":"Tangalle Divisional Secretariat","logitiute":80.891512999999989,"latitude":6.069909,"orig_fid":-1}},{"type":"Feature","id":215,"geometry":{"type":"Point","coordinates":[79.926314000000048,6.8376270000000545]},"properties":{"objectid":215,"name":"JOYOUS COTTAGE","address":"NO:62,NEELAMMAHARA ROAD, MAHARAGAMA","rooms":6,"grade":"DELUXE","district":"Colombo","aga_division":"Maharagama","ps_mc_uc":"Maharagama Divisional Secretariat","logitiute":79.926313999999991,"latitude":6.8376270000000003,"orig_fid":-1}},{"type":"Feature","id":216,"geometry":{"type":"Point","coordinates":[80.005979000000082,6.4189180000000761]},"properties":{"objectid":216,"name":"TARU VILLAS-RIVER COTTAGE","address":"111,BENTOTA CIRCULAR ROAD, BENTOTA 80500","rooms":2,"grade":"DELUXE","district":"Galle","aga_division":"Bentota Pradeshiya Sabha","ps_mc_uc":"Benthota Divisional Secretariat","logitiute":80.005978999999996,"latitude":6.4189179999999997,"orig_fid":-1}}]}