{"displayFieldName":"name","fieldAliases":{"objectid":"objectid","name":"name","address":"address","rooms":"rooms","grade":"grade","district":"district","aga_division":"AGA Division","ps_mc_uc":"PS/MC/UC","logitiute":"logitiute","latitude":"latitude","orig_fid":"orig_fid"},"geometryType":"esriGeometryPoint","spatialReference":{"wkid":4326,"latestWkid":4326},"fields":[{"name":"objectid","type":"esriFieldTypeOID","alias":"objectid"},{"name":"name","type":"esriFieldTypeString","alias":"name","length":255},{"name":"address","type":"esriFieldTypeString","alias":"address","length":255},{"name":"rooms","type":"esriFieldTypeDouble","alias":"rooms"},{"name":"grade","type":"esriFieldTypeString","alias":"grade","length":255},{"name":"district","type":"esriFieldTypeString","alias":"district","length":255},{"name":"aga_division","type":"esriFieldTypeString","alias":"AGA Division","length":255},{"name":"ps_mc_uc","type":"esriFieldTypeString","alias":"PS/MC/UC","length":255},{"name":"logitiute","type":"esriFieldTypeDouble","alias":"logitiute"},{"name":"latitude","type":"esriFieldTypeDouble","alias":"latitude"},{"name":"orig_fid","type":"esriFieldTypeInteger","alias":"orig_fid"}],"features":[{"attributes":{"objectid":1,"name":"CINNAMON GRAND HOTEL","address":"NO. 77, GALLE ROAD, COLOMBO 03","rooms":501.0,"grade":"FIVE","district":"Colombo","aga_division":"Colombo","ps_mc_uc":"Colombo Divisional Secretariat","logitiute":79.849235,"latitude":6.918034,"orig_fid":-1},"geometry":{"x":79.849235000000078,"y":6.9180340000000342}},{"attributes":{"objectid":2,"name":"CINNAMON LAKESIDE COLOMBO","address":"115, SRI CHITAMPALAM A GARDINER MAWATHA, COLOMBO 02","rooms":352.0,"grade":"FIVE","district":"Colombo","aga_division":"Colombo","ps_mc_uc":"Colombo Divisional Secretariat","logitiute":79.849414,"latitude":6.929273,"orig_fid":-1},"geometry":{"x":79.849414000000081,"y":6.9292730000000233}},{"attributes":{"objectid":3,"name":"CINNAMON LODGE","address":"P.O. BOX 02, HABARANE","rooms":162.0,"grade":"FIVE","district":"Anuradhapura","aga_division":"Anuradhapura","ps_mc_uc":"Anuradhapura East","logitiute":80.74881,"latitude":8.034584,"orig_fid":-1},"geometry":{"x":80.748810000000049,"y":8.0345840000000521}},{"attributes":{"objectid":4,"name":"GALADARI HOTEL","address":"NO. 64, LOTUS ROAD, COLOMBO 01","rooms":408.0,"grade":"THREE","district":"Colombo","aga_division":"Colombo","ps_mc_uc":"Colombo Divisional Secretariat","logitiute":79.843155,"latitude":6.931679,"orig_fid":-1},"geometry":{"x":79.843155000000081,"y":6.931679000000031}},{"attributes":{"objectid":5,"name":"EDEN RESORTS AND SPA","address":"KALUWAMODARA, BERUWALA","rooms":158.0,"grade":"FIVE","district":"Kalutara","aga_division":"Kalutara Pradeshiya Sabha","ps_mc_uc":"Kalmunai Divisional Secretariat","logitiute":79.990213,"latitude":6.444585,"orig_fid":-1},"geometry":{"x":79.99021300000004,"y":6.4445850000000746}},{"attributes":{"objectid":6,"name":"HERITANCE KANDALAMA","address":"P.O. BOX 11, DAMBULLA.","rooms":162.0,"grade":"FIVE","district":"Matale","aga_division":"Matale","ps_mc_uc":"Matale Divisional Secretariat","logitiute":80.70784,"latitude":7.871055,"orig_fid":-1},"geometry":{"x":80.707840000000033,"y":7.8710550000000694}},{"attributes":{"objectid":7,"name":"TAJ SAMUDRA HOTEL","address":"NO. 25, GALLE FACE CENTER ROAD, COLOMBO 03","rooms":291.0,"grade":"FIVE","district":"Colombo","aga_division":"Colombo","ps_mc_uc":"Colombo Divisional Secretariat","logitiute":79.846841,"latitude":6.922654,"orig_fid":-1},"geometry":{"x":79.84684100000004,"y":6.9226540000000227}},{"attributes":{"objectid":8,"name":"EARLS REGENCY HOTEL","address":"TENNEKUMURA, KANDY","rooms":96.0,"grade":"FIVE","district":"Kandy","aga_division":"Kandy","ps_mc_uc":"Kandy Divisional Secretariat","logitiute":80.669495,"latitude":7.281795,"orig_fid":-1},"geometry":{"x":80.66949500000004,"y":7.2817950000000451}},{"attributes":{"objectid":9,"name":"HILTON-COLOMBO","address":"LOTUS ROAD,ECHELON SQUARE,COLOMBO 01","rooms":382.0,"grade":"FIVE","district":"Colombo","aga_division":"Colombo","ps_mc_uc":"Colombo Divisional Secretariat","logitiute":79.845193,"latitude":6.932248,"orig_fid":-1},"geometry":{"x":79.845193000000052,"y":6.9322480000000724}},{"attributes":{"objectid":10,"name":"MAHAWELI REACH HOTEL","address":"35,P.B.A. WEERAKOON MAWATHA, KANDY","rooms":116.0,"grade":"FIVE","district":"Kandy","aga_division":"Kandy","ps_mc_uc":"Kandy Divisional Secretariat","logitiute":80.631227,"latitude":7.325148,"orig_fid":-1},"geometry":{"x":80.631227000000081,"y":7.3251480000000697}},{"attributes":{"objectid":11,"name":"CHAAYA BLU","address":"UPPAVELI, TRINCOMALEE","rooms":56.0,"grade":"FOUR","district":"Trincomalee","aga_division":"Trincomalee","ps_mc_uc":"Trincomalee Divisional Secretariat","logitiute":81.217522,"latitude":8.617773,"orig_fid":-1},"geometry":{"x":81.217522000000031,"y":8.6177730000000565}},{"attributes":{"objectid":12,"name":"HABARANA VILLAGE BY CINNAMON","address":"P.O. BOX. 01, HABARANA.","rooms":108.0,"grade":"FOUR","district":"Anuradhapura","aga_division":"Hingurakgoda Pradeshiya Sabha","ps_mc_uc":"Polonnaruwa Divisional Secretariat","logitiute":80.74991,"latitude":8.036549,"orig_fid":-1},"geometry":{"x":80.749910000000057,"y":8.0365490000000364}},{"attributes":{"objectid":13,"name":"CINNAMON CITADEL","address":"NO.124, SRIMATH KUDA RATWATTA MAWATHA, KANDY","rooms":121.0,"grade":"THREE","district":"Kandy","aga_division":"Kandy","ps_mc_uc":"Kandy Divisional Secretariat","logitiute":80.624274,"latitude":7.305864,"orig_fid":-1},"geometry":{"x":80.624274000000071,"y":7.3058640000000423}},{"attributes":{"objectid":14,"name":"HERITANCE AHUNGALLE","address":"AHUNGALLE","rooms":154.0,"grade":"FIVE","district":"Galle","aga_division":"Galle","ps_mc_uc":"Galle Divisional Secretariat","logitiute":80.034536,"latitude":6.31218,"orig_fid":-1},"geometry":{"x":80.03453600000006,"y":6.312180000000069}},{"attributes":{"objectid":15,"name":"HERITANCE TEA FACTORY","address":"KANDAPOLA, NUWARAELIYA","rooms":57.0,"grade":"FOUR","district":"Nuwara Eliya","aga_division":"Nuwara Eliya","ps_mc_uc":"Nuwara Eliya Divisional Secretariat","logitiute":80.833796,"latitude":6.991101,"orig_fid":-1},"geometry":{"x":80.833796000000063,"y":6.9911010000000715}},{"attributes":{"objectid":16,"name":"BENTOTA BEACH HOTEL","address":"NATIONAL HOLIDAY RESORT, BENTOTA","rooms":133.0,"grade":"FOUR","district":"Galle","aga_division":"Bentota Pradeshiya Sabha","ps_mc_uc":"Benthota Divisional Secretariat","logitiute":79.996543,"latitude":6.424974,"orig_fid":-1},"geometry":{"x":79.996543000000031,"y":6.4249740000000202}},{"attributes":{"objectid":17,"name":"THE BLUE WATER","address":"THALPITIYA, WADDUWA","rooms":100.0,"grade":"FIVE","district":"Kalutara","aga_division":"Kalutara Pradeshiya Sabha","ps_mc_uc":"Kalutara Divisional Secretariat","logitiute":79.920159,"latitude":6.678167,"orig_fid":-1},"geometry":{"x":79.920159000000069,"y":6.6781670000000304}},{"attributes":{"objectid":18,"name":"GRAND HOTEL","address":"GRAND HOTEL ROAD, NUWARAELIYA","rooms":155.0,"grade":"FOUR","district":"Nuwara Eliya","aga_division":"Nuwara Eliya","ps_mc_uc":"Nuwara Eliya Divisional Secretariat","logitiute":80.764731,"latitude":6.968335,"orig_fid":-1},"geometry":{"x":80.76473100000004,"y":6.9683350000000246}},{"attributes":{"objectid":19,"name":"AMAYA LAKE","address":"P.O. BOX. 12, KANDALAMA, DAMBULLA","rooms":92.0,"grade":"FOUR","district":"Matale","aga_division":"Matale","ps_mc_uc":"Matale Divisional Secretariat","logitiute":80.698555,"latitude":7.891526,"orig_fid":-1},"geometry":{"x":80.698555000000056,"y":7.8915260000000558}},{"attributes":{"objectid":20,"name":"AMAYA HILLS","address":"P.O. BOX. 16, HEERASSAGALA, KANDY","rooms":100.0,"grade":"FOUR","district":"Kandy","aga_division":"Kandy","ps_mc_uc":"Kandy Divisional Secretariat","logitiute":80.619224,"latitude":7.259008,"orig_fid":-1},"geometry":{"x":80.619224000000031,"y":7.2590080000000512}},{"attributes":{"objectid":21,"name":"HILTON COLOMBO RESIDENCE","address":"NO. 200, UNION PLACE, COLOMBO 02","rooms":176.0,"grade":"FOUR","district":"Colombo","aga_division":"Colombo","ps_mc_uc":"Colombo Divisional Secretariat","logitiute":79.856131,"latitude":6.920386,"orig_fid":-1},"geometry":{"x":79.856131000000062,"y":6.9203860000000645}},{"attributes":{"objectid":22,"name":"MANDARA ROSEN HOTEL","address":"NO.57, DETAGAMUWA, KATARAGAMA","rooms":58.0,"grade":"FOUR","district":"Moneragala","aga_division":"Galle","ps_mc_uc":"Moneragala Divisional Secretariat","logitiute":81.326364,"latitude":6.401201,"orig_fid":-1},"geometry":{"x":81.326364000000069,"y":6.4012010000000714}},{"attributes":{"objectid":23,"name":"RAMADA - COLOMBO","address":"NO.30, SIR MOHAMED MACAN MARKAR MAWATHA, COLOMBO 03","rooms":94.0,"grade":"THREE","district":"Colombo","aga_division":"Colombo","ps_mc_uc":"Colombo Divisional Secretariat","logitiute":79.84778,"latitude":6.921261,"orig_fid":-1},"geometry":{"x":79.847780000000057,"y":6.9212610000000723}},{"attributes":{"objectid":24,"name":"PEGASUS REEF HOTEL","address":"P.O.BOX. 02, HENDALA, WATTALA","rooms":140.0,"grade":"FOUR","district":"Gampaha","aga_division":"Gampaha","ps_mc_uc":"Gampaha Divisional Secretariat","logitiute":79.868917,"latitude":6.999892,"orig_fid":-1},"geometry":{"x":79.868917000000067,"y":6.9998920000000453}},{"attributes":{"objectid":25,"name":"MOUNT LAVINIA HOTEL","address":"NO. 100, HOTEL ROAD, MT. LAVINIA","rooms":204.0,"grade":"FOUR","district":"Colombo","aga_division":"Colombo","ps_mc_uc":"Colombo Divisional Secretariat","logitiute":79.862043,"latitude":6.833151,"orig_fid":-1},"geometry":{"x":79.862043000000085,"y":6.8331510000000435}},{"attributes":{"objectid":26,"name":"CLUB PALM BAY","address":"THALWILAWILIA, THUDUWAWA, MARAWILA","rooms":162.0,"grade":"THREE","district":"Puttalam","aga_division":"Puttalam Pradeshiya Sabha","ps_mc_uc":"Puttalam Divisional Secretariat","logitiute":79.812589,"latitude":7.434188,"orig_fid":-1},"geometry":{"x":79.81258900000006,"y":7.4341880000000629}},{"attributes":{"objectid":27,"name":"CLUB HOTEL DOLPHIN","address":"KAMMAL SOUTH, WAIKKAL","rooms":151.0,"grade":"FOUR","district":"Puttalam","aga_division":"Wennappuwa Pradeshiya Sabha","ps_mc_uc":"Wennappuwa Divisional Secretariat","logitiute":79.839576,"latitude":7.293789,"orig_fid":-1},"geometry":{"x":79.839576000000079,"y":7.2937890000000607}},{"attributes":{"objectid":28,"name":"JETWING BLUE","address":"LEWIS PLACE, NEGOMBO","rooms":108.0,"grade":"FIVE","district":"Gampaha","aga_division":"Negombo","ps_mc_uc":"Negombo Divisional Secretariat","logitiute":79.841797,"latitude":7.241616,"orig_fid":-1},"geometry":{"x":79.841797000000042,"y":7.2416160000000218}},{"attributes":{"objectid":29,"name":"THE DEER PARK HOTEL","address":"GIRITALE, POLONNARUWA","rooms":85.0,"grade":"FOUR","district":"Polonnaruwa","aga_division":"Polonnaruwa","ps_mc_uc":"Polonnaruwa Divisional Secretariat","logitiute":80.9218,"latitude":7.989152,"orig_fid":-1},"geometry":{"x":80.921800000000076,"y":7.9891520000000469}},{"attributes":{"objectid":30,"name":"NILAVELI BEACH HOTEL","address":"11TH MILE POST, NILAVELI, TRINCOMALEE","rooms":53.0,"grade":"TWO","district":"Trincomalee","aga_division":"Trincomalee","ps_mc_uc":"Trincomalee Divisional Secretariat","logitiute":81.189426,"latitude":8.706269,"orig_fid":-1},"geometry":{"x":81.189426000000083,"y":8.7062690000000771}},{"attributes":{"objectid":31,"name":"SOROWWA RESORT AND SPA","address":"LAKE ROAD, HABARANE","rooms":23.0,"grade":"THREE","district":"Anuradhapura","aga_division":"Polonnaruwa","ps_mc_uc":"Polonnaruwa Divisional Secretariat","logitiute":80.7508775,"latitude":8.0405578,"orig_fid":-1},"geometry":{"x":80.750877500000058,"y":8.0405578000000446}},{"attributes":{"objectid":32,"name":"PALM BEACH HOTEL","address":"NO. 52, DE SERAM ROAD, MOUNT LAVINIA","rooms":43.0,"grade":"ONE","district":"Colombo","aga_division":"Dehiwala-Mount Lavinia","ps_mc_uc":"Colombo Divisional Secretariat","logitiute":79.864858,"latitude":6.836241,"orig_fid":-1},"geometry":{"x":79.864858000000083,"y":6.8362410000000295}},{"attributes":{"objectid":33,"name":"GALWAY FOREST LODGE","address":"NO. 89, UPPER LAKE ROAD, HAVELOCK DRIVE, NUWARA ELIYA.","rooms":52.0,"grade":"THREE","district":"Nuwara Eliya","aga_division":"Nuwara Eliya","ps_mc_uc":"Nuwara Eliya Divisional Secretariat","logitiute":80.769993,"latitude":6.980005,"orig_fid":-1},"geometry":{"x":80.769993000000056,"y":6.9800050000000624}},{"attributes":{"objectid":34,"name":"SENANI RESTAURANT","address":"NO 167, RAJAPIHILLA MAWATHA, KANDY.","rooms":27.0,"grade":"ONE","district":"Kandy","aga_division":"Kandy","ps_mc_uc":"Kandy Divisional Secretariat","logitiute":80.643433,"latitude":7.285218,"orig_fid":-1},"geometry":{"x":80.643433000000073,"y":7.285218000000043}},{"attributes":{"objectid":35,"name":"GLOBAL TOWERS HOTEL","address":"NO.11, STATION AVENUE, COLOMBO 06.","rooms":54.0,"grade":"THREE","district":"Colombo","aga_division":"Colombo","ps_mc_uc":"Colombo Divisional Secretariat","logitiute":79.857182,"latitude":6.877516,"orig_fid":-1},"geometry":{"x":79.85718200000008,"y":6.877516000000071}},{"attributes":{"objectid":36,"name":"HUNNAS FALLS HOTEL","address":"ELKADUWA, KANDY","rooms":31.0,"grade":"THREE","district":"Matale","aga_division":"Matale","ps_mc_uc":"Ukuwela Divisional Secretariat","logitiute":80.690599,"latitude":7.401023,"orig_fid":-1},"geometry":{"x":80.690599000000077,"y":7.4010230000000661}},{"attributes":{"objectid":37,"name":"GRAND ORIENTAL HOTEL","address":"NO.2, YORK STREET, COLOMBO 01.","rooms":72.0,"grade":"TWO","district":"Colombo","aga_division":"Colombo","ps_mc_uc":"Colombo Divisional Secretariat","logitiute":79.845067,"latitude":6.937474,"orig_fid":-1},"geometry":{"x":79.845067000000085,"y":6.9374740000000656}},{"attributes":{"objectid":38,"name":"OLENKA SUNSIDE BEACH HOTEL","address":"THALWILA, MODERAWELLA, MARAWILA","rooms":40.0,"grade":"TWO","district":"Puttalam","aga_division":"Gampaha","ps_mc_uc":"Gampaha Divisional Secretariat","logitiute":79.813377,"latitude":7.42604,"orig_fid":-1},"geometry":{"x":79.81337700000006,"y":7.4260400000000573}},{"attributes":{"objectid":39,"name":"HOTEL SIGIRIYA","address":"SIGIRIYA","rooms":80.0,"grade":"ONE","district":"Matale","aga_division":"Matale","ps_mc_uc":"Matale Divisional Secretariat","logitiute":80.763363,"latitude":7.949891,"orig_fid":-1},"geometry":{"x":80.763363000000084,"y":7.9498910000000365}},{"attributes":{"objectid":40,"name":"THE OASIS HOTEL","address":"SISILASGAMA, HAMBANTOTA.","rooms":50.0,"grade":"THREE","district":"Hambantota","aga_division":"Hambantota","ps_mc_uc":"Hambantota Divisional Secretariat","logitiute":81.123001,"latitude":6.122001,"orig_fid":-1},"geometry":{"x":81.123001000000045,"y":6.1220010000000684}},{"attributes":{"objectid":41,"name":"ST.ANDREWS HOTEL","address":"NO.10,ST.ANDREWS DRIVE,NUWARA ELIYA.","rooms":52.0,"grade":"THREE","district":"Nuwara Eliya","aga_division":"Nuwara Eliya","ps_mc_uc":"Nuwara Eliya Divisional Secretariat","logitiute":80.763855,"latitude":6.979589,"orig_fid":-1},"geometry":{"x":80.763855000000035,"y":6.9795890000000327}},{"attributes":{"objectid":42,"name":"CLUB BENTOTA","address":"PARADISE ISLAND,ALUTHGAMA.","rooms":68.0,"grade":"TWO","district":"Galle","aga_division":"Aluthgama","ps_mc_uc":"Aluthgama","logitiute":79.991648,"latitude":6.437361,"orig_fid":-1},"geometry":{"x":79.991648000000055,"y":6.4373610000000667}},{"attributes":{"objectid":43,"name":"JETWING SEA","address":"PALAGITURAI, KOCHCHIKADE, NEGOMBO.","rooms":72.0,"grade":"FOUR","district":"Gampaha","aga_division":"Gampaha","ps_mc_uc":"Negombo Divisional Secretariat","logitiute":79.84212,"latitude":7.25177,"orig_fid":-1},"geometry":{"x":79.842120000000079,"y":7.2517700000000218}},{"attributes":{"objectid":44,"name":"RANWELI HOLIDAY VILLAGE","address":"WAIKKAL.","rooms":84.0,"grade":"TWO","district":"Puttalam","aga_division":"Negombo","ps_mc_uc":"Negombo Divisional Secretariat","logitiute":79.840701,"latitude":7.282694,"orig_fid":-1},"geometry":{"x":79.840701000000081,"y":7.2826940000000491}},{"attributes":{"objectid":45,"name":"MISUKI PLAZA HOTEL","address":"NO.309,COLOMBO ROAD,WELISARA,RAGAMA.","rooms":26.0,"grade":"ONE","district":"Gampaha","aga_division":"Ja-Ela Pradeshiya Sabha","ps_mc_uc":"Ja-Ela Divisional Secretariat","logitiute":79.898618,"latitude":7.033237,"orig_fid":-1},"geometry":{"x":79.898618000000056,"y":7.0332370000000424}},{"attributes":{"objectid":46,"name":"TANGALLE BAY HOTELS","address":"MAHAWELA ROAD,PALLIKKUDUWA,TANGALLE.","rooms":28.0,"grade":"TWO","district":"Hambantota","aga_division":"Tangalle Pradeshiya Sabha","ps_mc_uc":"Tangalle Divisional Secretariat","logitiute":80.789152,"latitude":6.01689,"orig_fid":-1},"geometry":{"x":80.789152000000058,"y":6.0168900000000463}},{"attributes":{"objectid":47,"name":"THE SURF","address":"THE SURF BENTOTA.","rooms":86.0,"grade":"TWO","district":"Galle","aga_division":"Bentota Pradeshiya Sabha","ps_mc_uc":"Benthota Divisional Secretariat","logitiute":79.996111,"latitude":6.420273,"orig_fid":-1},"geometry":{"x":79.996111000000042,"y":6.4202730000000656}},{"attributes":{"objectid":48,"name":"VIVANTA BY TAJ-BENTOTA","address":"NATIONAL HOLIDAY RESORT, BENTOTA","rooms":162.0,"grade":"FIVE","district":"Galle","aga_division":"Bentota Pradeshiya Sabha","ps_mc_uc":"Benthota Divisional Secretariat","logitiute":79.996423,"latitude":6.417162,"orig_fid":-1},"geometry":{"x":79.99642300000005,"y":6.4171620000000757}},{"attributes":{"objectid":49,"name":"GOLDI SANDS HOTEL","address":"GOLDI SANDS HOTELS (PRIVATE) LIMITED, ETHUKALA, NEGOMBO","rooms":70.0,"grade":"TWO","district":"Gampaha","aga_division":"Negombo","ps_mc_uc":"Negombo Divisional Secretariat","logitiute":79.841745,"latitude":7.245416,"orig_fid":-1},"geometry":{"x":79.84174500000006,"y":7.2454160000000343}},{"attributes":{"objectid":50,"name":"HOTEL SAPPHIRE","address":"NO.371,GALLE ROAD,COLOMBO 06.","rooms":40.0,"grade":"TWO","district":"Colombo","aga_division":"Colombo","ps_mc_uc":"Colombo Divisional Secretariat","logitiute":79.862144,"latitude":6.870956,"orig_fid":-1},"geometry":{"x":79.862144000000058,"y":6.8709560000000351}},{"attributes":{"objectid":51,"name":"CENTARA CEYSANDS RESORT & SPA","address":"NATIONAL HOLIDAY RESORT,BENTOTA.","rooms":84.0,"grade":"TWO","district":"Galle","aga_division":"Bentota Pradeshiya Sabha","ps_mc_uc":"Benthota Divisional Secretariat","logitiute":79.994388,"latitude":6.430908,"orig_fid":-1},"geometry":{"x":79.994388000000072,"y":6.4309080000000449}},{"attributes":{"objectid":52,"name":"CAROLINA BEACH HOTEL","address":"AMBANKANDAWILA, CHILAW","rooms":45.0,"grade":"TWO","district":"Puttalam","aga_division":"Chilaw Pradeshiya Sabha","ps_mc_uc":"Chilaw Divisional Secretariat","logitiute":79.787779,"latitude":7.562663,"orig_fid":-1},"geometry":{"x":79.787779000000057,"y":7.5626630000000432}},{"attributes":{"objectid":53,"name":"DEVON HOTEL","address":"NO.51, AMPITIYA ROAD, KANDY.","rooms":25.0,"grade":"TWO","district":"Kandy","aga_division":"Kandy","ps_mc_uc":"Kandy Divisional Secretariat","logitiute":80.649976,"latitude":7.284506,"orig_fid":-1},"geometry":{"x":80.649976000000038,"y":7.2845060000000217}},{"attributes":{"objectid":54,"name":"GALLE FACE HOTEL","address":"NO.02, GALLE ROAD, COLOMBO 03","rooms":145.0,"grade":"THREE","district":"Colombo","aga_division":"Colombo","ps_mc_uc":"Colombo Divisional Secretariat","logitiute":79.84648,"latitude":6.920125,"orig_fid":-1},"geometry":{"x":79.846480000000042,"y":6.9201250000000414}},{"attributes":{"objectid":55,"name":"RENUKA HOTEL","address":"NO.328, GALLE ROAD, COLOMBO 03","rooms":81.0,"grade":"THREE","district":"Colombo","aga_division":"Colombo","ps_mc_uc":"Colombo Divisional Secretariat","logitiute":79.850428,"latitude":6.908535,"orig_fid":-1},"geometry":{"x":79.850428000000079,"y":6.908535000000029}},{"attributes":{"objectid":56,"name":"PALM GARDEN VILLAGE HOTEL","address":"POST 42,PUTTALAM ROAD, PANDULAGAMA, ANURADHAPURA.","rooms":50.0,"grade":"THREE","district":"Anuradhapura","aga_division":"Madyama Nuwaragam Palatha Pradeshiya Sabawa","ps_mc_uc":"Anuradhapura East","logitiute":80.345324,"latitude":8.314734,"orig_fid":-1},"geometry":{"x":80.345324000000062,"y":8.314734000000044}},{"attributes":{"objectid":57,"name":"SIGIRIYA VILLAGE HOTEL","address":"P.O.BOX 01, SIGIRIYA","rooms":120.0,"grade":"THREE","district":"Matale","aga_division":"Dambulla Pradeshiya Sabha","ps_mc_uc":"Dambulla Divisional Secretariat","logitiute":80.761097,"latitude":7.949584,"orig_fid":-1},"geometry":{"x":80.761097000000063,"y":7.9495840000000726}},{"attributes":{"objectid":58,"name":"THE PALMS","address":"N-91, 6TH LANE, MORAGALLA, BERUWALA","rooms":100.0,"grade":"THREE","district":"Kalutara","aga_division":"Beruwala Pradeshiya Sabha","ps_mc_uc":"Beruwala Divisional Secretariat","logitiute":79.981157,"latitude":6.449641,"orig_fid":-1},"geometry":{"x":79.981157000000053,"y":6.4496410000000424}},{"attributes":{"objectid":59,"name":"MERMAID HOTEL & CLUB","address":"MAHAWASKADUWA, KALUTARA","rooms":72.0,"grade":"TWO","district":"Kalutara","aga_division":"Kalutara Pradeshiya Sabha","ps_mc_uc":"Kalutara Divisional Secretariat","logitiute":79.9449,"latitude":6.61728,"orig_fid":-1},"geometry":{"x":79.944900000000075,"y":6.6172800000000507}},{"attributes":{"objectid":60,"name":"HOTEL TOPAZ","address":"ANNIWATTE, KANDY","rooms":75.0,"grade":"TWO","district":"Kandy","aga_division":"Kandy","ps_mc_uc":"Ganga Ihala Korale Divisional Secretariat","logitiute":80.625213,"latitude":7.29056,"orig_fid":-1},"geometry":{"x":80.625213000000031,"y":7.2905600000000277}},{"attributes":{"objectid":61,"name":"CAMELOT BEACH HOTEL","address":"NO.345,LEWIS PLACE,NEGOMBO.","rooms":81.0,"grade":"ONE","district":"Gampaha","aga_division":"Negombo","ps_mc_uc":"Negombo Divisional Secretariat","logitiute":79.841047,"latitude":7.233243,"orig_fid":-1},"geometry":{"x":79.84104700000006,"y":7.2332430000000727}},{"attributes":{"objectid":62,"name":"THE VILLAGE","address":"NATIONAL HOLIDAY RESORT POLONNNARUWA.","rooms":36.0,"grade":"ONE","district":"Polonnaruwa","aga_division":"Polonnaruwa","ps_mc_uc":"Polonnaruwa Divisional Secretariat","logitiute":80.993096,"latitude":7.924764,"orig_fid":-1},"geometry":{"x":80.993096000000037,"y":7.9247640000000388}},{"attributes":{"objectid":63,"name":"CENTAURIA LAKE","address":"NEW TOWN,EMBILIPITIYA.","rooms":52.0,"grade":"ONE","district":"Ratnapura","aga_division":"Embilipitiya","ps_mc_uc":"Embilipitiya Divisional Secretariat","logitiute":80.856132,"latitude":6.320182,"orig_fid":-1},"geometry":{"x":80.856132000000059,"y":6.3201820000000453}},{"attributes":{"objectid":64,"name":"KASSAPA LIONS ROCK","address":"DIGAMPATHAHA,KIMBISSA.","rooms":31.0,"grade":"TWO","district":"Matale","aga_division":"Dambulla Pradeshiya Sabha","ps_mc_uc":"Dambulla Divisional Secretariat","logitiute":80.727282,"latitude":7.979678,"orig_fid":-1},"geometry":{"x":80.727282000000059,"y":7.9796780000000354}},{"attributes":{"objectid":65,"name":"HERITANCE NEGOMBO","address":"NO.175,LEWIS PLACE,NEGOMBO.","rooms":140.0,"grade":"FIVE","district":"Gampaha","aga_division":"Negombo","ps_mc_uc":"Negombo Divisional Secretariat","logitiute":79.838021,"latitude":7.208799,"orig_fid":-1},"geometry":{"x":79.838021000000083,"y":7.2087990000000559}},{"attributes":{"objectid":66,"name":"HIBISCUS BEACH HOTEL","address":"MAHAWASKADUWA,KALUTARA NORTH,KALUTHARA","rooms":51.0,"grade":"ONE","district":"Kalutara","aga_division":"Kalutara Pradeshiya Sabha","ps_mc_uc":"Kalutara Divisional Secretariat","logitiute":79.946725,"latitude":6.615207,"orig_fid":-1},"geometry":{"x":79.946725000000072,"y":6.6152070000000549}},{"attributes":{"objectid":67,"name":"HOTEL BENTOTA VILLAGE","address":"ALWIS ROAD,WARAHENA,BENTOTA","rooms":14.0,"grade":"TWO","district":"Galle","aga_division":"Bentota Pradeshiya Sabha","ps_mc_uc":"Benthota Divisional Secretariat","logitiute":80.004672,"latitude":6.406818,"orig_fid":-1},"geometry":{"x":80.004672000000085,"y":6.4068180000000439}},{"attributes":{"objectid":68,"name":"COLOMBO CITY HOTEL","address":"LEVEL 3,NO.33,CANAL ROW,COLOMBO 01.","rooms":48.0,"grade":"ONE","district":"Colombo","aga_division":"Colombo","ps_mc_uc":"Colombo Divisional Secretariat","logitiute":79.844229,"latitude":6.933327,"orig_fid":-1},"geometry":{"x":79.844229000000041,"y":6.9333270000000766}},{"attributes":{"objectid":69,"name":"HOTEL KABALANA","address":"KATHALUWA,AHANGAMA","rooms":22.0,"grade":"TWO","district":"Galle","aga_division":"Habaraduwa","ps_mc_uc":"Habaraduwa Divisional Secretariat","logitiute":80.347884,"latitude":5.977906,"orig_fid":-1},"geometry":{"x":80.347884000000079,"y":5.9779060000000754}},{"attributes":{"objectid":70,"name":"RAMADIA RANMAL HOLIDAY RESORT","address":"346/5,GALLE ROAD,GORAKANA,MORATUWA","rooms":25.0,"grade":"ONE","district":"Kalutara","aga_division":"Moratuwa","ps_mc_uc":"Moratuwa Divisional Secretariat","logitiute":79.8977545,"latitude":6.7636079,"orig_fid":-1},"geometry":{"x":79.897754500000076,"y":6.7636079000000677}},{"attributes":{"objectid":71,"name":"HOTEL DULYANA","address":"488/18,MAITHREEPALA SENANAYAKE MW,ANURADHAPURA","rooms":30.0,"grade":"TWO","district":"Anuradhapura","aga_division":"Anuradhapura","ps_mc_uc":"N.P.East","logitiute":80.405856,"latitude":8.325802,"orig_fid":-1},"geometry":{"x":80.405856000000085,"y":8.325802000000067}},{"attributes":{"objectid":72,"name":"INDRA REGENT HOTEL","address":"NO.383,R.A.D.MEL MAWATHA,COLOMBO 03","rooms":26.0,"grade":"ONE","district":"Colombo","aga_division":"Colombo","ps_mc_uc":"Thimbirigasyaya Divisional Secretariat","logitiute":79.854138,"latitude":6.90434,"orig_fid":-1},"geometry":{"x":79.854138000000034,"y":6.9043400000000474}},{"attributes":{"objectid":73,"name":"HOTEL CHAMILA","address":"NO.85,TISSA ROAD,DETAGAMWA KATARAGAMA.","rooms":50.0,"grade":"ONE","district":"Moneragala","aga_division":"Thissamaharama","ps_mc_uc":"Katharagama Divisional Secretariat","logitiute":81.33300018,"latitude":6.41699982,"orig_fid":-1},"geometry":{"x":81.333000183000081,"y":6.4169998170000326}},{"attributes":{"objectid":74,"name":"HOTEL SUSANTHAS","address":"NATIONAL HOLIDAY RESORT RD,PITARAMBA,BENTOTA","rooms":18.0,"grade":"ONE","district":"Galle","aga_division":"Bentota Pradeshiya Sabha","ps_mc_uc":"Benthota Divisional Secretariat","logitiute":79.996968,"latitude":6.421783,"orig_fid":-1},"geometry":{"x":79.996968000000038,"y":6.4217830000000617}},{"attributes":{"objectid":75,"name":"BERJAYA MOUNT ROYAL BEACH HOTEL","address":"NO:36,COLLAGE AVENUE,MOUNT LAVINIA","rooms":90.0,"grade":"ONE","district":"Colombo","aga_division":"Moratuwa","ps_mc_uc":"Mount Lavinia","logitiute":79.864017,"latitude":6.838659,"orig_fid":-1},"geometry":{"x":79.864017000000047,"y":6.8386590000000638}},{"attributes":{"objectid":76,"name":"NILWALA HOTEL","address":"NILWALA HOTEL, GALLE ROAD, KALUWAMODARA, ALUTHGAMA.","rooms":10.0,"grade":"ONE","district":"Kalutara","aga_division":"Aluthgama","ps_mc_uc":"Aluthgama","logitiute":79.993697,"latitude":6.439855,"orig_fid":-1},"geometry":{"x":79.993697000000054,"y":6.4398550000000228}},{"attributes":{"objectid":77,"name":"PIGEON ISLAND BEACH HOTEL","address":"11TH MILE POST, NILAVELI, TRINCOMALEE.","rooms":38.0,"grade":"TWO","district":"Trincomalee","aga_division":"Trincomalee","ps_mc_uc":"Trincomalee Divisional Secretariat","logitiute":81.1836029,"latitude":8.712216,"orig_fid":-1},"geometry":{"x":81.183602900000039,"y":8.712216000000069}},{"attributes":{"objectid":78,"name":"GLENDOWER HOTEL","address":"NO:05,GRAND HOTEL ROAD,NUWARA ELIYA","rooms":20.0,"grade":"ONE","district":"Nuwara Eliya","aga_division":"Nuwara Eliya","ps_mc_uc":"Nuwara Eliya Divisional Secretariat","logitiute":80.7663938,"latitude":6.9675209,"orig_fid":-1},"geometry":{"x":80.76639380000006,"y":6.9675209000000677}},{"attributes":{"objectid":79,"name":"RANDIYA HOTEL","address":"389,KORALAWELLA,MORATUWA","rooms":10.0,"grade":"ONE","district":"Colombo","aga_division":"Moratuwa","ps_mc_uc":"Moratuwa Divisional Secretariat","logitiute":79.8934418,"latitude":6.7504834,"orig_fid":-1},"geometry":{"x":79.893441800000062,"y":6.7504834000000642}},{"attributes":{"objectid":80,"name":"TEMPLE TREE RESORT AND SPA","address":"NO:660,GALLE ROAD,INDURUWA","rooms":10.0,"grade":"TWO","district":"Galle","aga_division":"Bentota Pradeshiya Sabha","ps_mc_uc":"Benthota Divisional Secretariat","logitiute":80.0088026,"latitude":6.385751,"orig_fid":-1},"geometry":{"x":80.008802600000081,"y":6.3857510000000275}},{"attributes":{"objectid":81,"name":"FULL MOON GARDEN HOTEL","address":"NO.754, COLOMBO ROAD, KATUNAYAKE.","rooms":30.0,"grade":"ONE","district":"Gampaha","aga_division":"Katana Pradeshiya Sabha","ps_mc_uc":"Katana Divisional Secretariat","logitiute":79.874539,"latitude":7.154204,"orig_fid":-1},"geometry":{"x":79.874539000000084,"y":7.1542040000000497}},{"attributes":{"objectid":82,"name":"BARBERYN REEF AYURVEDA RESORT","address":"MORAGALLA,BERUWALA","rooms":75.0,"grade":"ONE","district":"Kalutara","aga_division":"Bentota Pradeshiya Sabha","ps_mc_uc":"Beruwala Divisional Secretariat","logitiute":79.979952,"latitude":6.4500038,"orig_fid":-1},"geometry":{"x":79.979952000000083,"y":6.4500038000000472}},{"attributes":{"objectid":83,"name":"GIMANHALA HOTEL","address":"754 ANURADHAPURA ROAD DAMBULLA","rooms":17.0,"grade":"TWO","district":"Matale","aga_division":"Matale","ps_mc_uc":"Dambulla Divisional Secretariat","logitiute":80.650599,"latitude":7.879954,"orig_fid":-1},"geometry":{"x":80.650599000000057,"y":7.8799540000000547}},{"attributes":{"objectid":84,"name":"FIELDVIEW HOLYDAY RESORT","address":"ANNASIWATTE ROAD,OFF MDH,JAWARDANA MW,ATHURUGIRIYA.","rooms":10.0,"grade":"ONE","district":"Colombo","aga_division":"Colombo","ps_mc_uc":"Kesbewa Divisional Secretariat","logitiute":79.986678,"latitude":6.894121,"orig_fid":-1},"geometry":{"x":79.98667800000004,"y":6.894121000000041}},{"attributes":{"objectid":85,"name":"LAKE SERENITY","address":"GONAPITIYA, KURUWITA","rooms":14.0,"grade":"TWO","district":"Ratnapura","aga_division":"Ratnapura","ps_mc_uc":"Ratnapura Divisional Secretariat","logitiute":80.352292,"latitude":6.762787,"orig_fid":-1},"geometry":{"x":80.352292000000034,"y":6.7627870000000598}},{"attributes":{"objectid":86,"name":"KOGGALA BEACH HOTEL","address":"KOGGALA,HABARADUWA.","rooms":189.0,"grade":"ONE","district":"Galle","aga_division":"Galle","ps_mc_uc":"Habaraduwa Divisional Secretariat","logitiute":80.3218329,"latitude":5.9892056,"orig_fid":-1},"geometry":{"x":80.321832900000061,"y":5.989205600000048}},{"attributes":{"objectid":87,"name":"HOTEL SUNHILL","address":"NO.18 UNIQUE VIEW ROAD,NUWARAELIYA","rooms":15.0,"grade":"ONE","district":"Nuwara Eliya","aga_division":"Nuwara Eliya","ps_mc_uc":"Nuwara Eliya Divisional Secretariat","logitiute":80.765424,"latitude":6.963358,"orig_fid":-1},"geometry":{"x":80.765424000000053,"y":6.9633580000000279}},{"attributes":{"objectid":88,"name":"HOTEL HILL TOP","address":"200/21,BAHIRAVAKANDA,PERADENIYA ROAD,KANDY","rooms":81.0,"grade":"TWO","district":"Kandy","aga_division":"Kandy","ps_mc_uc":"Kundasale Divisional Secretariat","logitiute":80.628789,"latitude":7.289342,"orig_fid":-1},"geometry":{"x":80.62878900000004,"y":7.2893420000000333}},{"attributes":{"objectid":89,"name":"AVANI BENTOTA RESORT & SPA","address":"NATIONAL HOLIDAY RESORT,BENTOTA","rooms":90.0,"grade":"TWO","district":"Galle","aga_division":"Bentota Pradeshiya Sabha","ps_mc_uc":"Benthota Divisional Secretariat","logitiute":79.996304,"latitude":6.423673,"orig_fid":-1},"geometry":{"x":79.996304000000066,"y":6.4236730000000648}},{"attributes":{"objectid":90,"name":"AUSTRIAN BEACH RESORT","address":"2/A 2, BANDARAWATTA,KEMAGODA,DICKWELLA","rooms":10.0,"grade":"ONE","district":"Matara","aga_division":"Matara","ps_mc_uc":"Dickwella Divisional Secretariat","logitiute":80.722005,"latitude":5.978461,"orig_fid":-1},"geometry":{"x":80.722005000000081,"y":5.9784610000000384}},{"attributes":{"objectid":91,"name":"ROYAL LOTUS HOTEL","address":"GIRITHALE, POLONNARUWA.","rooms":56.0,"grade":"TWO","district":"Polonnaruwa","aga_division":"Polonnaruwa","ps_mc_uc":"Polonnaruwa Divisional Secretariat","logitiute":80.921978,"latitude":7.991502,"orig_fid":-1},"geometry":{"x":80.921978000000081,"y":7.9915020000000254}},{"attributes":{"objectid":92,"name":"RIVERDALE HOTEL","address":"32, ANIWATTA ROAD, KANDY.","rooms":29.0,"grade":"TWO","district":"Kandy","aga_division":"Kandy","ps_mc_uc":"Kandy Divisional Secretariat","logitiute":80.621583,"latitude":7.289724,"orig_fid":-1},"geometry":{"x":80.621583000000044,"y":7.2897240000000352}},{"attributes":{"objectid":93,"name":"PARADISE HOLIDAY VILLAGE","address":"NO. 154/9, PORUTHOTA ROAD, PALANGATHURE, KOCHCHIKADE, NEGOMBO","rooms":33.0,"grade":"ONE","district":"Gampaha","aga_division":"Negombo","ps_mc_uc":"Negombo Divisional Secretariat","logitiute":79.8422101,"latitude":7.2467725,"orig_fid":-1},"geometry":{"x":79.842210100000045,"y":7.2467725000000769}},{"attributes":{"objectid":94,"name":"KITHALA RESORT","address":"KATARAGAMA ROAD, THISSAMAHARAMA.","rooms":40.0,"grade":"TWO","district":"Hambantota","aga_division":"Thissamaharama","ps_mc_uc":"Thissamaharama Divisional Secretariat","logitiute":81.297427,"latitude":6.292455,"orig_fid":-1},"geometry":{"x":81.297427000000084,"y":6.292455000000075}},{"attributes":{"objectid":95,"name":"LALITHA HOTEL","address":"NO.200A,GALLE ROAD, PAMBURANA, MATARA.","rooms":27.0,"grade":"TWO","district":"Matara","aga_division":"Matara","ps_mc_uc":"Matara Divisional Secretariat","logitiute":80.5251754,"latitude":5.9442652,"orig_fid":-1},"geometry":{"x":80.52517540000008,"y":5.9442652000000749}},{"attributes":{"objectid":96,"name":"RATHNALOKA TOUR INN","address":"KOSGALA, KAHAGAMA, RATNAPURA","rooms":53.0,"grade":"ONE","district":"Ratnapura","aga_division":"Ratnapura","ps_mc_uc":"Ratnapura Divisional Secretariat","logitiute":80.356453,"latitude":6.713322,"orig_fid":-1},"geometry":{"x":80.356453000000045,"y":6.713322000000062}},{"attributes":{"objectid":97,"name":"HOTEL CASAMARA","address":"NO.12, KATUGODELLA VIDIYA, KANDY.","rooms":33.0,"grade":"TWO","district":"Kandy","aga_division":"Kandy","ps_mc_uc":"Kandy Divisional Secretariat","logitiute":80.63721,"latitude":7.293367,"orig_fid":-1},"geometry":{"x":80.637210000000039,"y":7.2933670000000461}},{"attributes":{"objectid":98,"name":"HOTEL YAPAHUWA PARADISE","address":"KINGDOM ROAD,YAPAHUWA,MAHO","rooms":20.0,"grade":"TWO","district":"Kurunegala","aga_division":"Mahawa Pradeshiya Sabha","ps_mc_uc":"Mahawa Divisional Secretariat","logitiute":80.305903,"latitude":7.82901,"orig_fid":-1},"geometry":{"x":80.305903000000058,"y":7.8290100000000393}},{"attributes":{"objectid":99,"name":"RANDHOLEE RESORTS","address":"HEERASSAGALA, BOWALAWATTE, KANDY","rooms":25.0,"grade":"ONE","district":"Kandy","aga_division":"Kandy","ps_mc_uc":"Kandy Divisional Secretariat","logitiute":80.616914,"latitude":7.2631411,"orig_fid":-1},"geometry":{"x":80.616914000000065,"y":7.2631411000000412}},{"attributes":{"objectid":100,"name":"SERENE GARDEN HOTEL","address":"NO. 189, RAJAPIHILLA MAWATHA, KANDY","rooms":35.0,"grade":"ONE","district":"Kandy","aga_division":"Kandy","ps_mc_uc":"Kandy Divisional Secretariat","logitiute":80.6441223,"latitude":7.2848598,"orig_fid":-1},"geometry":{"x":80.644122300000049,"y":7.2848598000000493}},{"attributes":{"objectid":101,"name":"WILA SAFARI HOTEL","address":"PANNEGAMUWA,WEERAWILA","rooms":10.0,"grade":"ONE","district":"Hambantota","aga_division":"Thissamaharama","ps_mc_uc":"Thissamaharama Divisional Secretariat","logitiute":81.236615,"latitude":6.293125,"orig_fid":-1},"geometry":{"x":81.236615000000086,"y":6.2931250000000318}},{"attributes":{"objectid":102,"name":"WINDSOR HOTEL","address":"NO.02, KANDY ROAD, NUWARA ELIYA.","rooms":50.0,"grade":"ONE","district":"Nuwara Eliya","aga_division":"Nuwara Eliya","ps_mc_uc":"Nuwara Eliya Divisional Secretariat","logitiute":80.770061,"latitude":6.970741,"orig_fid":-1},"geometry":{"x":80.770061000000055,"y":6.9707410000000323}},{"attributes":{"objectid":103,"name":"HOTEL ATHGIRI","address":"NO. 344-350, KANDY ROAD, KURUNEGALA","rooms":23.0,"grade":"ONE","district":"Kurunegala","aga_division":"Kurunegala","ps_mc_uc":"Kurunegala Divisional Secretariat","logitiute":80.372245,"latitude":7.479005,"orig_fid":-1},"geometry":{"x":80.372245000000078,"y":7.4790050000000292}},{"attributes":{"objectid":104,"name":"MIRIDIYA HOTEL","address":"WASALA DATHTHA MAWATHA, ANURADHAPURA","rooms":40.0,"grade":"ONE","district":"Anuradhapura","aga_division":"Anuradhapura","ps_mc_uc":"Anuradhapura East","logitiute":80.4185724,"latitude":8.3314154,"orig_fid":-1},"geometry":{"x":80.418572400000073,"y":8.3314154000000258}},{"attributes":{"objectid":105,"name":"LADY HILL","address":"NO. 29,UPPER DICKSON ROAD, GALLE","rooms":15.0,"grade":"ONE","district":"Galle","aga_division":"Galle","ps_mc_uc":"Galle Divisional Secretariat","logitiute":80.218668,"latitude":6.038658,"orig_fid":-1},"geometry":{"x":80.218668000000036,"y":6.0386580000000549}},{"attributes":{"objectid":106,"name":"GIRITALE HOTEL","address":"NATIONAL HOLIDAY RESORT, GIRITALE","rooms":40.0,"grade":"ONE","district":"Polonnaruwa","aga_division":"Polonnaruwa","ps_mc_uc":"Polonnaruwa Divisional Secretariat","logitiute":80.927946,"latitude":7.997114,"orig_fid":-1},"geometry":{"x":80.927946000000077,"y":7.9971140000000673}},{"attributes":{"objectid":107,"name":"SANMIRA RENAISSANCE","address":"MATARA ROAD, UNAWATUNA","rooms":20.0,"grade":"THREE","district":"Galle","aga_division":"Habaraduwa","ps_mc_uc":"Galle Divisional Secretariat","logitiute":80.255045,"latitude":6.006051,"orig_fid":-1},"geometry":{"x":80.255045000000052,"y":6.0060510000000704}},{"attributes":{"objectid":108,"name":"OMEGA REGENCY","address":"NO. 324, GALLE ROAD, COLOMBO 06","rooms":15.0,"grade":"ONE","district":"Colombo","aga_division":"Colombo","ps_mc_uc":"Colombo Divisional Secretariat","logitiute":79.862086,"latitude":6.869123,"orig_fid":-1},"geometry":{"x":79.862086000000033,"y":6.8691230000000587}},{"attributes":{"objectid":109,"name":"CHAAYA WILD YALA","address":"P.O. BOX. 01, KIRINDA, TISSAMAHARAMA","rooms":61.0,"grade":"FOUR","district":"Hambantota","aga_division":"Hambantota","ps_mc_uc":"Hambantota Divisional Secretariat","logitiute":81.405281,"latitude":6.259168,"orig_fid":-1},"geometry":{"x":81.405281000000059,"y":6.2591680000000451}},{"attributes":{"objectid":110,"name":"CHAAYA TRANZ HOTEL","address":"P.O. BOX. 01, GALLE ROAD, HIKKADUWA.","rooms":150.0,"grade":"FOUR","district":"Galle","aga_division":"Hikkaduwa","ps_mc_uc":"Hikkaduwa Divisional Secretariat","logitiute":80.100753,"latitude":6.131353,"orig_fid":-1},"geometry":{"x":80.100753000000054,"y":6.1313530000000469}},{"attributes":{"objectid":111,"name":"HOTEL NELLY","address":"NO. 84, 02ND CROSS STREET, VAUNIYA","rooms":20.0,"grade":"ONE","district":"Vavuniya","aga_division":"Vavuniya","ps_mc_uc":"Vavuniya","logitiute":80.499954,"latitude":8.751378,"orig_fid":-1},"geometry":{"x":80.499954000000059,"y":8.7513780000000452}},{"attributes":{"objectid":112,"name":"THE KINGSBURY","address":"NO 48, JANADHIPATHI MAWATHA, COLOMBO 01","rooms":229.0,"grade":"FIVE","district":"Colombo","aga_division":"Colombo","ps_mc_uc":"Colombo Divisional Secretariat","logitiute":79.84247,"latitude":6.933232,"orig_fid":-1},"geometry":{"x":79.842470000000048,"y":6.9332320000000323}},{"attributes":{"objectid":113,"name":"THE GRAND KANDYAN","address":"89/10,LADY GORDONS DRIVE, KANDY","rooms":100.0,"grade":"FIVE","district":"Kandy","aga_division":"Kandy","ps_mc_uc":"Kandy Divisional Secretariat","logitiute":80.634571,"latitude":7.3024019,"orig_fid":-1},"geometry":{"x":80.634571000000051,"y":7.3024019000000635}},{"attributes":{"objectid":114,"name":"CINNAMON RED COLOMBO","address":"NO:59, ANANDA COOMARASWAMY MAWATHA, COLOMBO 03.","rooms":243.0,"grade":"THREE","district":"Colombo","aga_division":"Colombo","ps_mc_uc":"Colombo Divisional Secretariat","logitiute":79.8530983,"latitude":6.912114,"orig_fid":-1},"geometry":{"x":79.853098300000056,"y":6.912114000000031}},{"attributes":{"objectid":115,"name":"SHANGRI-LA S HAMBANTOTA RESORT & SPA","address":"SITTRAKALA WATTA, CHITHRAGALA, AMBALANTOTA","rooms":300.0,"grade":"FIVE","district":"Hambantota","aga_division":"Ambalantota Pradeshiya Sabha","ps_mc_uc":"Ambalantota Divisional Secretariat","logitiute":81.0638697,"latitude":6.1120643,"orig_fid":-1},"geometry":{"x":81.063869700000055,"y":6.1120643000000427}},{"attributes":{"objectid":116,"name":"MIRAGE HOTEL","address":"NO: 61, MOORS ROAD, MARINE DRIVE, WELLAWATTE, COLOMBO 06","rooms":60.0,"grade":"TWO","district":"Colombo","aga_division":"Colombo","ps_mc_uc":"Colombo Divisional Secretariat","logitiute":79.8565303,"latitude":6.8705488,"orig_fid":-1},"geometry":{"x":79.856530300000031,"y":6.8705488000000514}},{"attributes":{"objectid":117,"name":"THE OCEAN COLOMBO","address":"NO-40, MELBOURNE AVENUE, COLOMBO 04.","rooms":49.0,"grade":"ONE","district":"Colombo","aga_division":"Colombo","ps_mc_uc":"Thimbirigasyaya Divisional Secretariat","logitiute":79.8530075,"latitude":6.8853104,"orig_fid":-1},"geometry":{"x":79.853007500000047,"y":6.8853104000000371}},{"attributes":{"objectid":118,"name":"EARLS REGENT HOTEL","address":"NO. 1/40, DEVENIRAJASINGHE ROAD, PERADENIYA,KANDY","rooms":60.0,"grade":"THREE","district":"Kandy","aga_division":"Kandy","ps_mc_uc":"Kandy Divisional Secretariat","logitiute":80.610734,"latitude":7.283476,"orig_fid":-1},"geometry":{"x":80.610734000000036,"y":7.2834760000000642}},{"attributes":{"objectid":119,"name":"FAIRVIEW HOTEL","address":"NO:27, RAMKRISHNA ROAD, WELLAWATTE, COLOMBO 06","rooms":50.0,"grade":"TWO","district":"Colombo","aga_division":"Colombo","ps_mc_uc":"Colombo Divisional Secretariat","logitiute":79.861298,"latitude":6.865486,"orig_fid":-1},"geometry":{"x":79.861298000000033,"y":6.8654860000000326}},{"attributes":{"objectid":120,"name":"RIU HOTEL","address":"GALLE ROAD, AHUNGALLE","rooms":501.0,"grade":"FIVE","district":"Galle","aga_division":"Galle","ps_mc_uc":"Galle Divisional Secretariat","logitiute":80.0310513,"latitude":6.30957,"orig_fid":-1},"geometry":{"x":80.031051300000058,"y":6.3095700000000647}},{"attributes":{"objectid":121,"name":"ANANTAYA RESORT & SPA","address":"COCOUNT BOARD ROAD,PASSEKUDAH,KALKUDAH","rooms":51.0,"grade":"FIVE","district":"Batticaloa","aga_division":"Batticaloa","ps_mc_uc":"Batticaloa Divisional Secretariat","logitiute":81.5499112,"latitude":7.9315158,"orig_fid":-1},"geometry":{"x":81.549911200000054,"y":7.9315158000000565}},{"attributes":{"objectid":122,"name":"ANANTARA PEACE HEAVEN RESORT","address":"GOYAMBOKKA ESTATE,TANGALLE","rooms":152.0,"grade":"FIVE","district":"Hambantota","aga_division":"Hambantota","ps_mc_uc":"Hambantota Divisional Secretariat","logitiute":80.783869,"latitude":6.012477,"orig_fid":-1},"geometry":{"x":80.783869000000038,"y":6.0124770000000467}},{"attributes":{"objectid":123,"name":"TANGERINE BEACH HOTEL","address":"DR ABREW ROAD,WASKADUWA,KALUTHARA","rooms":179.0,"grade":"THREE","district":"Kalutara","aga_division":"Kalutara Pradeshiya Sabha","ps_mc_uc":"Kalutara Divisional Secretariat","logitiute":79.9472113,"latitude":6.608101,"orig_fid":-1},"geometry":{"x":79.947211300000049,"y":6.6081010000000333}},{"attributes":{"objectid":124,"name":"BEST WESTERN ELYON COLOMBO","address":"102A, KIRULAPONE AVENUE, BASELINE ROAD, COLOMBO 05.","rooms":52.0,"grade":"TWO","district":"Colombo","aga_division":"Colombo","ps_mc_uc":"Colombo Divisional Secretariat","logitiute":79.8740663,"latitude":6.883736,"orig_fid":-1},"geometry":{"x":79.874066300000038,"y":6.8837360000000558}},{"attributes":{"objectid":125,"name":"CINNAMON BEY","address":"MORAGOLLA BEACH,BERUWALA","rooms":200.0,"grade":"FOUR","district":"Kalutara","aga_division":"Kalutara Pradeshiya Sabha","ps_mc_uc":"Kalutara Divisional Secretariat","logitiute":79.9768792,"latitude":6.4522247,"orig_fid":-1},"geometry":{"x":79.976879200000042,"y":6.4522247000000448}},{"attributes":{"objectid":126,"name":"PEARL GRAND HOTEL","address":"#09,EDWARD LANE,COLOMBO 03.","rooms":90.0,"grade":"ONE","district":"Colombo","aga_division":"Colombo","ps_mc_uc":"Colombo Divisional Secretariat","logitiute":79.8531936,"latitude":6.8961858,"orig_fid":-1},"geometry":{"x":79.853193600000054,"y":6.8961858000000689}},{"attributes":{"objectid":127,"name":"OCEAN EDGE SUITES","address":"24,10TH LANE,MARINE DRIVE,COLOMBO3","rooms":78.0,"grade":"THREE","district":"Colombo","aga_division":"Colombo","ps_mc_uc":"Colombo Divisional Secretariat","logitiute":79.8499153,"latitude":6.898455,"orig_fid":-1},"geometry":{"x":79.849915300000077,"y":6.8984550000000695}},{"attributes":{"objectid":128,"name":"COCO ROYAL BEACH","address":"WASKADUWA, KALUTHARA NORTH","rooms":70.0,"grade":"TWO","district":"Kalutara","aga_division":"Kalutara Pradeshiya Sabha","ps_mc_uc":"Kalutara Divisional Secretariat","logitiute":79.9449985,"latitude":6.6137006,"orig_fid":-1},"geometry":{"x":79.944998500000054,"y":6.6137006000000724}},{"attributes":{"objectid":129,"name":"PARADISE BEACH HOTEL","address":"NO:289, LEWIS PLACE,NEGOMBO","rooms":61.0,"grade":"ONE","district":"Gampaha","aga_division":"Gampaha","ps_mc_uc":"Gampaha Divisional Secretariat","logitiute":79.8386973,"latitude":7.231262,"orig_fid":-1},"geometry":{"x":79.838697300000035,"y":7.231262000000072}},{"attributes":{"objectid":130,"name":"COLOMBO COURTYARD","address":"435,R.A DE MEL MAWATHA,COLOMBO 03","rooms":32.0,"grade":"THREE","district":"Colombo","aga_division":"Colombo","ps_mc_uc":"Colombo Divisional Secretariat","logitiute":79.8542653,"latitude":6.897765,"orig_fid":-1},"geometry":{"x":79.854265300000066,"y":6.8977650000000494}},{"attributes":{"objectid":131,"name":"HOTEL JANAKI","address":"43, FIFE ROAD, THIMBIRIGASYAYA,COLOMBO 05","rooms":43.0,"grade":"ONE","district":"Colombo","aga_division":"Colombo","ps_mc_uc":"Colombo Divisional Secretariat","logitiute":79.8676014,"latitude":6.8907555,"orig_fid":-1},"geometry":{"x":79.867601400000069,"y":6.8907555000000684}},{"attributes":{"objectid":132,"name":"VILLA OCEAN VIEW","address":"200/1, MOLLIGODAWATTA,WADDUWA","rooms":143.0,"grade":"ONE","district":"Kalutara","aga_division":"Kalutara Pradeshiya Sabha","ps_mc_uc":"Kalutara Divisional Secretariat","logitiute":79.9286243,"latitude":6.6552759,"orig_fid":-1},"geometry":{"x":79.928624300000081,"y":6.6552759000000492}},{"attributes":{"objectid":133,"name":"SHANGRI- LA HOTEL COLOMBO","address":"NO-01, CENTRE ROAD, GALLE FACE, COLOMBO 02","rooms":541.0,"grade":"THREE","district":"Colombo","aga_division":"Colombo","ps_mc_uc":"Colombo Divisional Secretariat","logitiute":79.844619,"latitude":6.928216,"orig_fid":-1},"geometry":{"x":79.84461900000008,"y":6.9282160000000204}},{"attributes":{"objectid":134,"name":"PANDANUS BEACH RESORT & SPA","address":"GALLE ROAD,YALEGAMA,INDURUWA 80510","rooms":76.0,"grade":"THREE","district":"Galle","aga_division":"Galle","ps_mc_uc":"Galle Divisional Secretariat","logitiute":80.0076288,"latitude":6.3797342,"orig_fid":-1},"geometry":{"x":80.007628800000077,"y":6.3797342000000299}},{"attributes":{"objectid":135,"name":"JETWING LAKE","address":"WIJEKUMARATHUNGA MAWATHA,YAPAGAMA,DAMBULLA.","rooms":94.0,"grade":"FOUR","district":"Matale","aga_division":"Matale","ps_mc_uc":"Matale Divisional Secretariat","logitiute":80.6465143,"latitude":7.839867,"orig_fid":-1},"geometry":{"x":80.646514300000035,"y":7.8398670000000266}},{"attributes":{"objectid":136,"name":"THE LAKESIDE AT NUWARAWEWA","address":"NEW TOWN,ANURADHAPURA","rooms":70.0,"grade":"TWO","district":"Anuradhapura","aga_division":"Anuradhapura","ps_mc_uc":"Anuradhapura East","logitiute":80.4129173,"latitude":8.337355,"orig_fid":-1},"geometry":{"x":80.412917300000061,"y":8.3373550000000591}},{"attributes":{"objectid":137,"name":"THE SANCTUARY AT TISSAWEWA","address":"OLD TOWN,ANURADHAPURA","rooms":22.0,"grade":"TWO","district":"Anuradhapura","aga_division":"Anuradhapura","ps_mc_uc":"Anuradhapura East","logitiute":80.3879227,"latitude":8.3423584,"orig_fid":-1},"geometry":{"x":80.387922700000047,"y":8.3423584000000233}},{"attributes":{"objectid":138,"name":"OZO KANDY","address":"NO31,SARANANKARA ROAD,KANDY","rooms":122.0,"grade":"THREE","district":"Kandy","aga_division":"Kandy","ps_mc_uc":"Kandy Divisional Secretariat","logitiute":80.6405117,"latitude":7.2883697,"orig_fid":-1},"geometry":{"x":80.640511700000047,"y":7.2883697000000325}},{"attributes":{"objectid":139,"name":"THE GOLDEN CROWN HOTEL","address":"322,UDAGAMA,AMPITIYA","rooms":63.0,"grade":"THREE","district":"Kandy","aga_division":"Gagawata Koralya","ps_mc_uc":"Gagawata","logitiute":80.655418,"latitude":7.277162,"orig_fid":-1},"geometry":{"x":80.655418000000054,"y":7.2771620000000325}},{"attributes":{"objectid":140,"name":"GRAND UDAWALAWE SAFARI RESORT","address":"NO 912, THANAMALVILA ROAD,UDAWALAWA","rooms":57.0,"grade":"FOUR","district":"Ratnapura","aga_division":"Udawalawa","ps_mc_uc":"Embilipitiya Divisional Secretariat","logitiute":80.8040993,"latitude":6.419811,"orig_fid":-1},"geometry":{"x":80.804099300000075,"y":6.4198110000000383}},{"attributes":{"objectid":141,"name":"LAVANGA RESORT AND SPA","address":"GALLE ROAD,PATHUWATHA,HIKKADUWA","rooms":20.0,"grade":"TWO","district":"Galle","aga_division":"Hikkaduwa","ps_mc_uc":"Hikkaduwa Divisional Secretariat","logitiute":80.1175713,"latitude":6.115437,"orig_fid":-1},"geometry":{"x":80.117571300000066,"y":6.1154370000000426}}]}