{"type":"FeatureCollection","features":[{"type":"Feature","id":1,"geometry":{"type":"Point","coordinates":[79.849235000000078,6.9180340000000342]},"properties":{"objectid":1,"name":"CINNAMON GRAND HOTEL","address":"NO. 77, GALLE ROAD, COLOMBO 03","rooms":501,"grade":"FIVE","district":"Colombo","aga_division":"Colombo","ps_mc_uc":"Colombo Divisional Secretariat","logitiute":79.849234999999993,"latitude":6.9180340000000005,"orig_fid":-1}},{"type":"Feature","id":2,"geometry":{"type":"Point","coordinates":[79.849414000000081,6.9292730000000233]},"properties":{"objectid":2,"name":"CINNAMON LAKESIDE COLOMBO","address":"115, SRI CHITAMPALAM A GARDINER MAWATHA, COLOMBO 02","rooms":352,"grade":"FIVE","district":"Colombo","aga_division":"Colombo","ps_mc_uc":"Colombo Divisional Secretariat","logitiute":79.849413999999996,"latitude":6.9292730000000002,"orig_fid":-1}},{"type":"Feature","id":3,"geometry":{"type":"Point","coordinates":[80.748810000000049,8.0345840000000521]},"properties":{"objectid":3,"name":"CINNAMON LODGE","address":"P.O. BOX 02, HABARANE","rooms":162,"grade":"FIVE","district":"Anuradhapura","aga_division":"Anuradhapura","ps_mc_uc":"Anuradhapura East","logitiute":80.748810000000006,"latitude":8.0345839999999988,"orig_fid":-1}},{"type":"Feature","id":4,"geometry":{"type":"Point","coordinates":[79.843155000000081,6.931679000000031]},"properties":{"objectid":4,"name":"GALADARI HOTEL","address":"NO. 64, LOTUS ROAD, COLOMBO 01","rooms":408,"grade":"THREE","district":"Colombo","aga_division":"Colombo","ps_mc_uc":"Colombo Divisional Secretariat","logitiute":79.84315500000001,"latitude":6.9316790000000008,"orig_fid":-1}},{"type":"Feature","id":5,"geometry":{"type":"Point","coordinates":[79.99021300000004,6.4445850000000746]},"properties":{"objectid":5,"name":"EDEN RESORTS AND SPA","address":"KALUWAMODARA, BERUWALA","rooms":158,"grade":"FIVE","district":"Kalutara","aga_division":"Kalutara Pradeshiya Sabha","ps_mc_uc":"Kalmunai Divisional Secretariat","logitiute":79.990212999999997,"latitude":6.444585,"orig_fid":-1}},{"type":"Feature","id":6,"geometry":{"type":"Point","coordinates":[80.707840000000033,7.8710550000000694]},"properties":{"objectid":6,"name":"HERITANCE KANDALAMA","address":"P.O. BOX 11, DAMBULLA.","rooms":162,"grade":"FIVE","district":"Matale","aga_division":"Matale","ps_mc_uc":"Matale Divisional Secretariat","logitiute":80.707840000000004,"latitude":7.8710550000000001,"orig_fid":-1}},{"type":"Feature","id":7,"geometry":{"type":"Point","coordinates":[79.84684100000004,6.9226540000000227]},"properties":{"objectid":7,"name":"TAJ SAMUDRA HOTEL","address":"NO. 25, GALLE FACE CENTER ROAD, COLOMBO 03","rooms":291,"grade":"FIVE","district":"Colombo","aga_division":"Colombo","ps_mc_uc":"Colombo Divisional Secretariat","logitiute":79.846840999999998,"latitude":6.9226540000000005,"orig_fid":-1}},{"type":"Feature","id":8,"geometry":{"type":"Point","coordinates":[80.66949500000004,7.2817950000000451]},"properties":{"objectid":8,"name":"EARLS REGENCY HOTEL","address":"TENNEKUMURA, KANDY","rooms":96,"grade":"FIVE","district":"Kandy","aga_division":"Kandy","ps_mc_uc":"Kandy Divisional Secretariat","logitiute":80.669494999999998,"latitude":7.2817949999999998,"orig_fid":-1}},{"type":"Feature","id":9,"geometry":{"type":"Point","coordinates":[79.845193000000052,6.9322480000000724]},"properties":{"objectid":9,"name":"HILTON-COLOMBO","address":"LOTUS ROAD,ECHELON SQUARE,COLOMBO 01","rooms":382,"grade":"FIVE","district":"Colombo","aga_division":"Colombo","ps_mc_uc":"Colombo Divisional Secretariat","logitiute":79.845193000000009,"latitude":6.9322479999999995,"orig_fid":-1}},{"type":"Feature","id":10,"geometry":{"type":"Point","coordinates":[80.631227000000081,7.3251480000000697]},"properties":{"objectid":10,"name":"MAHAWELI REACH HOTEL","address":"35,P.B.A. WEERAKOON MAWATHA, KANDY","rooms":116,"grade":"FIVE","district":"Kandy","aga_division":"Kandy","ps_mc_uc":"Kandy Divisional Secretariat","logitiute":80.63122700000001,"latitude":7.3251479999999995,"orig_fid":-1}},{"type":"Feature","id":11,"geometry":{"type":"Point","coordinates":[81.217522000000031,8.6177730000000565]},"properties":{"objectid":11,"name":"CHAAYA BLU","address":"UPPAVELI, TRINCOMALEE","rooms":56,"grade":"FOUR","district":"Trincomalee","aga_division":"Trincomalee","ps_mc_uc":"Trincomalee Divisional Secretariat","logitiute":81.217522000000002,"latitude":8.6177729999999997,"orig_fid":-1}},{"type":"Feature","id":12,"geometry":{"type":"Point","coordinates":[80.749910000000057,8.0365490000000364]},"properties":{"objectid":12,"name":"HABARANA VILLAGE BY CINNAMON","address":"P.O. BOX. 01, HABARANA.","rooms":108,"grade":"FOUR","district":"Anuradhapura","aga_division":"Hingurakgoda Pradeshiya Sabha","ps_mc_uc":"Polonnaruwa Divisional Secretariat","logitiute":80.74991,"latitude":8.0365490000000008,"orig_fid":-1}},{"type":"Feature","id":13,"geometry":{"type":"Point","coordinates":[80.624274000000071,7.3058640000000423]},"properties":{"objectid":13,"name":"CINNAMON CITADEL","address":"NO.124, SRIMATH KUDA RATWATTA MAWATHA, KANDY","rooms":121,"grade":"THREE","district":"Kandy","aga_division":"Kandy","ps_mc_uc":"Kandy Divisional Secretariat","logitiute":80.624274,"latitude":7.3058639999999997,"orig_fid":-1}},{"type":"Feature","id":14,"geometry":{"type":"Point","coordinates":[80.03453600000006,6.312180000000069]},"properties":{"objectid":14,"name":"HERITANCE AHUNGALLE","address":"AHUNGALLE","rooms":154,"grade":"FIVE","district":"Galle","aga_division":"Galle","ps_mc_uc":"Galle Divisional Secretariat","logitiute":80.034535999999989,"latitude":6.3121799999999997,"orig_fid":-1}},{"type":"Feature","id":15,"geometry":{"type":"Point","coordinates":[80.833796000000063,6.9911010000000715]},"properties":{"objectid":15,"name":"HERITANCE TEA FACTORY","address":"KANDAPOLA, NUWARAELIYA","rooms":57,"grade":"FOUR","district":"Nuwara Eliya","aga_division":"Nuwara Eliya","ps_mc_uc":"Nuwara Eliya Divisional Secretariat","logitiute":80.833795999999992,"latitude":6.9911010000000005,"orig_fid":-1}},{"type":"Feature","id":16,"geometry":{"type":"Point","coordinates":[79.996543000000031,6.4249740000000202]},"properties":{"objectid":16,"name":"BENTOTA BEACH HOTEL","address":"NATIONAL HOLIDAY RESORT, BENTOTA","rooms":133,"grade":"FOUR","district":"Galle","aga_division":"Bentota Pradeshiya Sabha","ps_mc_uc":"Benthota Divisional Secretariat","logitiute":79.996543000000003,"latitude":6.4249739999999997,"orig_fid":-1}},{"type":"Feature","id":17,"geometry":{"type":"Point","coordinates":[79.920159000000069,6.6781670000000304]},"properties":{"objectid":17,"name":"THE BLUE WATER","address":"THALPITIYA, WADDUWA","rooms":100,"grade":"FIVE","district":"Kalutara","aga_division":"Kalutara Pradeshiya Sabha","ps_mc_uc":"Kalutara Divisional Secretariat","logitiute":79.920158999999998,"latitude":6.6781669999999993,"orig_fid":-1}},{"type":"Feature","id":18,"geometry":{"type":"Point","coordinates":[80.76473100000004,6.9683350000000246]},"properties":{"objectid":18,"name":"GRAND HOTEL","address":"GRAND HOTEL ROAD, NUWARAELIYA","rooms":155,"grade":"FOUR","district":"Nuwara Eliya","aga_division":"Nuwara Eliya","ps_mc_uc":"Nuwara Eliya Divisional Secretariat","logitiute":80.764731000000012,"latitude":6.9683349999999997,"orig_fid":-1}},{"type":"Feature","id":19,"geometry":{"type":"Point","coordinates":[80.698555000000056,7.8915260000000558]},"properties":{"objectid":19,"name":"AMAYA LAKE","address":"P.O. BOX. 12, KANDALAMA, DAMBULLA","rooms":92,"grade":"FOUR","district":"Matale","aga_division":"Matale","ps_mc_uc":"Matale Divisional Secretariat","logitiute":80.698554999999999,"latitude":7.8915259999999998,"orig_fid":-1}},{"type":"Feature","id":20,"geometry":{"type":"Point","coordinates":[80.619224000000031,7.2590080000000512]},"properties":{"objectid":20,"name":"AMAYA HILLS","address":"P.O. BOX. 16, HEERASSAGALA, KANDY","rooms":100,"grade":"FOUR","district":"Kandy","aga_division":"Kandy","ps_mc_uc":"Kandy Divisional Secretariat","logitiute":80.619224000000003,"latitude":7.2590080000000006,"orig_fid":-1}},{"type":"Feature","id":21,"geometry":{"type":"Point","coordinates":[79.856131000000062,6.9203860000000645]},"properties":{"objectid":21,"name":"HILTON COLOMBO RESIDENCE","address":"NO. 200, UNION PLACE, COLOMBO 02","rooms":176,"grade":"FOUR","district":"Colombo","aga_division":"Colombo","ps_mc_uc":"Colombo Divisional Secretariat","logitiute":79.856131000000005,"latitude":6.9203859999999997,"orig_fid":-1}},{"type":"Feature","id":22,"geometry":{"type":"Point","coordinates":[81.326364000000069,6.4012010000000714]},"properties":{"objectid":22,"name":"MANDARA ROSEN HOTEL","address":"NO.57, DETAGAMUWA, KATARAGAMA","rooms":58,"grade":"FOUR","district":"Moneragala","aga_division":"Galle","ps_mc_uc":"Moneragala Divisional Secretariat","logitiute":81.326363999999998,"latitude":6.4012010000000004,"orig_fid":-1}},{"type":"Feature","id":23,"geometry":{"type":"Point","coordinates":[79.847780000000057,6.9212610000000723]},"properties":{"objectid":23,"name":"RAMADA - COLOMBO","address":"NO.30, SIR MOHAMED MACAN MARKAR MAWATHA, COLOMBO 03","rooms":94,"grade":"THREE","district":"Colombo","aga_division":"Colombo","ps_mc_uc":"Colombo Divisional Secretariat","logitiute":79.84778,"latitude":6.9212609999999994,"orig_fid":-1}},{"type":"Feature","id":24,"geometry":{"type":"Point","coordinates":[79.868917000000067,6.9998920000000453]},"properties":{"objectid":24,"name":"PEGASUS REEF HOTEL","address":"P.O.BOX. 02, HENDALA, WATTALA","rooms":140,"grade":"FOUR","district":"Gampaha","aga_division":"Gampaha","ps_mc_uc":"Gampaha Divisional Secretariat","logitiute":79.868916999999996,"latitude":6.9998920000000009,"orig_fid":-1}},{"type":"Feature","id":25,"geometry":{"type":"Point","coordinates":[79.862043000000085,6.8331510000000435]},"properties":{"objectid":25,"name":"MOUNT LAVINIA HOTEL","address":"NO. 100, HOTEL ROAD, MT. LAVINIA","rooms":204,"grade":"FOUR","district":"Colombo","aga_division":"Colombo","ps_mc_uc":"Colombo Divisional Secretariat","logitiute":79.862043,"latitude":6.833151,"orig_fid":-1}},{"type":"Feature","id":26,"geometry":{"type":"Point","coordinates":[79.81258900000006,7.4341880000000629]},"properties":{"objectid":26,"name":"CLUB PALM BAY","address":"THALWILAWILIA, THUDUWAWA, MARAWILA","rooms":162,"grade":"THREE","district":"Puttalam","aga_division":"Puttalam Pradeshiya Sabha","ps_mc_uc":"Puttalam Divisional Secretariat","logitiute":79.812589000000003,"latitude":7.4341879999999998,"orig_fid":-1}},{"type":"Feature","id":27,"geometry":{"type":"Point","coordinates":[79.839576000000079,7.2937890000000607]},"properties":{"objectid":27,"name":"CLUB HOTEL DOLPHIN","address":"KAMMAL SOUTH, WAIKKAL","rooms":151,"grade":"FOUR","district":"Puttalam","aga_division":"Wennappuwa Pradeshiya Sabha","ps_mc_uc":"Wennappuwa Divisional Secretariat","logitiute":79.839576000000008,"latitude":7.2937890000000003,"orig_fid":-1}},{"type":"Feature","id":28,"geometry":{"type":"Point","coordinates":[79.841797000000042,7.2416160000000218]},"properties":{"objectid":28,"name":"JETWING BLUE","address":"LEWIS PLACE, NEGOMBO","rooms":108,"grade":"FIVE","district":"Gampaha","aga_division":"Negombo","ps_mc_uc":"Negombo Divisional Secretariat","logitiute":79.841797,"latitude":7.2416159999999996,"orig_fid":-1}},{"type":"Feature","id":29,"geometry":{"type":"Point","coordinates":[80.921800000000076,7.9891520000000469]},"properties":{"objectid":29,"name":"THE DEER PARK HOTEL","address":"GIRITALE, POLONNARUWA","rooms":85,"grade":"FOUR","district":"Polonnaruwa","aga_division":"Polonnaruwa","ps_mc_uc":"Polonnaruwa Divisional Secretariat","logitiute":80.921800000000005,"latitude":7.9891520000000007,"orig_fid":-1}},{"type":"Feature","id":30,"geometry":{"type":"Point","coordinates":[81.189426000000083,8.7062690000000771]},"properties":{"objectid":30,"name":"NILAVELI BEACH HOTEL","address":"11TH MILE POST, NILAVELI, TRINCOMALEE","rooms":53,"grade":"TWO","district":"Trincomalee","aga_division":"Trincomalee","ps_mc_uc":"Trincomalee Divisional Secretariat","logitiute":81.189426000000012,"latitude":8.7062690000000007,"orig_fid":-1}},{"type":"Feature","id":31,"geometry":{"type":"Point","coordinates":[80.750877500000058,8.0405578000000446]},"properties":{"objectid":31,"name":"SOROWWA RESORT AND SPA","address":"LAKE ROAD, HABARANE","rooms":23,"grade":"THREE","district":"Anuradhapura","aga_division":"Polonnaruwa","ps_mc_uc":"Polonnaruwa Divisional Secretariat","logitiute":80.750877500000001,"latitude":8.0405578000000002,"orig_fid":-1}},{"type":"Feature","id":32,"geometry":{"type":"Point","coordinates":[79.864858000000083,6.8362410000000295]},"properties":{"objectid":32,"name":"PALM BEACH HOTEL","address":"NO. 52, DE SERAM ROAD, MOUNT LAVINIA","rooms":43,"grade":"ONE","district":"Colombo","aga_division":"Dehiwala-Mount Lavinia","ps_mc_uc":"Colombo Divisional Secretariat","logitiute":79.864857999999998,"latitude":6.8362410000000002,"orig_fid":-1}},{"type":"Feature","id":33,"geometry":{"type":"Point","coordinates":[80.769993000000056,6.9800050000000624]},"properties":{"objectid":33,"name":"GALWAY FOREST LODGE","address":"NO. 89, UPPER LAKE ROAD, HAVELOCK DRIVE, NUWARA ELIYA.","rooms":52,"grade":"THREE","district":"Nuwara Eliya","aga_division":"Nuwara Eliya","ps_mc_uc":"Nuwara Eliya Divisional Secretariat","logitiute":80.769993000000014,"latitude":6.9800050000000002,"orig_fid":-1}},{"type":"Feature","id":34,"geometry":{"type":"Point","coordinates":[80.643433000000073,7.285218000000043]},"properties":{"objectid":34,"name":"SENANI RESTAURANT","address":"NO 167, RAJAPIHILLA MAWATHA, KANDY.","rooms":27,"grade":"ONE","district":"Kandy","aga_division":"Kandy","ps_mc_uc":"Kandy Divisional Secretariat","logitiute":80.643433000000002,"latitude":7.2852179999999995,"orig_fid":-1}},{"type":"Feature","id":35,"geometry":{"type":"Point","coordinates":[79.85718200000008,6.877516000000071]},"properties":{"objectid":35,"name":"GLOBAL TOWERS HOTEL","address":"NO.11, STATION AVENUE, COLOMBO 06.","rooms":54,"grade":"THREE","district":"Colombo","aga_division":"Colombo","ps_mc_uc":"Colombo Divisional Secretariat","logitiute":79.857182000000009,"latitude":6.877516,"orig_fid":-1}},{"type":"Feature","id":36,"geometry":{"type":"Point","coordinates":[80.690599000000077,7.4010230000000661]},"properties":{"objectid":36,"name":"HUNNAS FALLS HOTEL","address":"ELKADUWA, KANDY","rooms":31,"grade":"THREE","district":"Matale","aga_division":"Matale","ps_mc_uc":"Ukuwela Divisional Secretariat","logitiute":80.690599000000006,"latitude":7.4010229999999995,"orig_fid":-1}},{"type":"Feature","id":37,"geometry":{"type":"Point","coordinates":[79.845067000000085,6.9374740000000656]},"properties":{"objectid":37,"name":"GRAND ORIENTAL HOTEL","address":"NO.2, YORK STREET, COLOMBO 01.","rooms":72,"grade":"TWO","district":"Colombo","aga_division":"Colombo","ps_mc_uc":"Colombo Divisional Secretariat","logitiute":79.845067,"latitude":6.9374739999999999,"orig_fid":-1}},{"type":"Feature","id":38,"geometry":{"type":"Point","coordinates":[79.81337700000006,7.4260400000000573]},"properties":{"objectid":38,"name":"OLENKA SUNSIDE BEACH HOTEL","address":"THALWILA, MODERAWELLA, MARAWILA","rooms":40,"grade":"TWO","district":"Puttalam","aga_division":"Gampaha","ps_mc_uc":"Gampaha Divisional Secretariat","logitiute":79.813377000000003,"latitude":7.4260400000000004,"orig_fid":-1}},{"type":"Feature","id":39,"geometry":{"type":"Point","coordinates":[80.763363000000084,7.9498910000000365]},"properties":{"objectid":39,"name":"HOTEL SIGIRIYA","address":"SIGIRIYA","rooms":80,"grade":"ONE","district":"Matale","aga_division":"Matale","ps_mc_uc":"Matale Divisional Secretariat","logitiute":80.763362999999998,"latitude":7.949891,"orig_fid":-1}},{"type":"Feature","id":40,"geometry":{"type":"Point","coordinates":[81.123001000000045,6.1220010000000684]},"properties":{"objectid":40,"name":"THE OASIS HOTEL","address":"SISILASGAMA, HAMBANTOTA.","rooms":50,"grade":"THREE","district":"Hambantota","aga_division":"Hambantota","ps_mc_uc":"Hambantota Divisional Secretariat","logitiute":81.123001000000002,"latitude":6.122001,"orig_fid":-1}},{"type":"Feature","id":41,"geometry":{"type":"Point","coordinates":[80.763855000000035,6.9795890000000327]},"properties":{"objectid":41,"name":"ST.ANDREWS HOTEL","address":"NO.10,ST.ANDREWS DRIVE,NUWARA ELIYA.","rooms":52,"grade":"THREE","district":"Nuwara Eliya","aga_division":"Nuwara Eliya","ps_mc_uc":"Nuwara Eliya Divisional Secretariat","logitiute":80.763855000000007,"latitude":6.9795889999999998,"orig_fid":-1}},{"type":"Feature","id":42,"geometry":{"type":"Point","coordinates":[79.991648000000055,6.4373610000000667]},"properties":{"objectid":42,"name":"CLUB BENTOTA","address":"PARADISE ISLAND,ALUTHGAMA.","rooms":68,"grade":"TWO","district":"Galle","aga_division":"Aluthgama","ps_mc_uc":"Aluthgama","logitiute":79.991648000000012,"latitude":6.4373610000000001,"orig_fid":-1}},{"type":"Feature","id":43,"geometry":{"type":"Point","coordinates":[79.842120000000079,7.2517700000000218]},"properties":{"objectid":43,"name":"JETWING SEA","address":"PALAGITURAI, KOCHCHIKADE, NEGOMBO.","rooms":72,"grade":"FOUR","district":"Gampaha","aga_division":"Gampaha","ps_mc_uc":"Negombo Divisional Secretariat","logitiute":79.842120000000008,"latitude":7.2517699999999996,"orig_fid":-1}},{"type":"Feature","id":44,"geometry":{"type":"Point","coordinates":[79.840701000000081,7.2826940000000491]},"properties":{"objectid":44,"name":"RANWELI HOLIDAY VILLAGE","address":"WAIKKAL.","rooms":84,"grade":"TWO","district":"Puttalam","aga_division":"Negombo","ps_mc_uc":"Negombo Divisional Secretariat","logitiute":79.840700999999996,"latitude":7.2826940000000002,"orig_fid":-1}},{"type":"Feature","id":45,"geometry":{"type":"Point","coordinates":[79.898618000000056,7.0332370000000424]},"properties":{"objectid":45,"name":"MISUKI PLAZA HOTEL","address":"NO.309,COLOMBO ROAD,WELISARA,RAGAMA.","rooms":26,"grade":"ONE","district":"Gampaha","aga_division":"Ja-Ela Pradeshiya Sabha","ps_mc_uc":"Ja-Ela Divisional Secretariat","logitiute":79.898617999999999,"latitude":7.0332369999999997,"orig_fid":-1}},{"type":"Feature","id":46,"geometry":{"type":"Point","coordinates":[80.789152000000058,6.0168900000000463]},"properties":{"objectid":46,"name":"TANGALLE BAY HOTELS","address":"MAHAWELA ROAD,PALLIKKUDUWA,TANGALLE.","rooms":28,"grade":"TWO","district":"Hambantota","aga_division":"Tangalle Pradeshiya Sabha","ps_mc_uc":"Tangalle Divisional Secretariat","logitiute":80.789152000000001,"latitude":6.0168900000000001,"orig_fid":-1}},{"type":"Feature","id":47,"geometry":{"type":"Point","coordinates":[79.996111000000042,6.4202730000000656]},"properties":{"objectid":47,"name":"THE SURF","address":"THE SURF BENTOTA.","rooms":86,"grade":"TWO","district":"Galle","aga_division":"Bentota Pradeshiya Sabha","ps_mc_uc":"Benthota Divisional Secretariat","logitiute":79.996110999999999,"latitude":6.4202730000000008,"orig_fid":-1}},{"type":"Feature","id":48,"geometry":{"type":"Point","coordinates":[79.99642300000005,6.4171620000000757]},"properties":{"objectid":48,"name":"VIVANTA BY TAJ-BENTOTA","address":"NATIONAL HOLIDAY RESORT, BENTOTA","rooms":162,"grade":"FIVE","district":"Galle","aga_division":"Bentota Pradeshiya Sabha","ps_mc_uc":"Benthota Divisional Secretariat","logitiute":79.996422999999993,"latitude":6.4171619999999994,"orig_fid":-1}},{"type":"Feature","id":49,"geometry":{"type":"Point","coordinates":[79.84174500000006,7.2454160000000343]},"properties":{"objectid":49,"name":"GOLDI SANDS HOTEL","address":"GOLDI SANDS HOTELS (PRIVATE) LIMITED, ETHUKALA, NEGOMBO","rooms":70,"grade":"TWO","district":"Gampaha","aga_division":"Negombo","ps_mc_uc":"Negombo Divisional Secretariat","logitiute":79.841745000000003,"latitude":7.2454159999999996,"orig_fid":-1}},{"type":"Feature","id":50,"geometry":{"type":"Point","coordinates":[79.862144000000058,6.8709560000000351]},"properties":{"objectid":50,"name":"HOTEL SAPPHIRE","address":"NO.371,GALLE ROAD,COLOMBO 06.","rooms":40,"grade":"TWO","district":"Colombo","aga_division":"Colombo","ps_mc_uc":"Colombo Divisional Secretariat","logitiute":79.862144000000001,"latitude":6.8709559999999996,"orig_fid":-1}},{"type":"Feature","id":51,"geometry":{"type":"Point","coordinates":[79.994388000000072,6.4309080000000449]},"properties":{"objectid":51,"name":"CENTARA CEYSANDS RESORT & SPA","address":"NATIONAL HOLIDAY RESORT,BENTOTA.","rooms":84,"grade":"TWO","district":"Galle","aga_division":"Bentota Pradeshiya Sabha","ps_mc_uc":"Benthota Divisional Secretariat","logitiute":79.994388000000001,"latitude":6.4309080000000005,"orig_fid":-1}},{"type":"Feature","id":52,"geometry":{"type":"Point","coordinates":[79.787779000000057,7.5626630000000432]},"properties":{"objectid":52,"name":"CAROLINA BEACH HOTEL","address":"AMBANKANDAWILA, CHILAW","rooms":45,"grade":"TWO","district":"Puttalam","aga_division":"Chilaw Pradeshiya Sabha","ps_mc_uc":"Chilaw Divisional Secretariat","logitiute":79.787779,"latitude":7.5626629999999997,"orig_fid":-1}},{"type":"Feature","id":53,"geometry":{"type":"Point","coordinates":[80.649976000000038,7.2845060000000217]},"properties":{"objectid":53,"name":"DEVON HOTEL","address":"NO.51, AMPITIYA ROAD, KANDY.","rooms":25,"grade":"TWO","district":"Kandy","aga_division":"Kandy","ps_mc_uc":"Kandy Divisional Secretariat","logitiute":80.649976000000009,"latitude":7.2845060000000004,"orig_fid":-1}},{"type":"Feature","id":54,"geometry":{"type":"Point","coordinates":[79.846480000000042,6.9201250000000414]},"properties":{"objectid":54,"name":"GALLE FACE HOTEL","address":"NO.02, GALLE ROAD, COLOMBO 03","rooms":145,"grade":"THREE","district":"Colombo","aga_division":"Colombo","ps_mc_uc":"Colombo Divisional Secretariat","logitiute":79.84648,"latitude":6.9201249999999996,"orig_fid":-1}},{"type":"Feature","id":55,"geometry":{"type":"Point","coordinates":[79.850428000000079,6.908535000000029]},"properties":{"objectid":55,"name":"RENUKA HOTEL","address":"NO.328, GALLE ROAD, COLOMBO 03","rooms":81,"grade":"THREE","district":"Colombo","aga_division":"Colombo","ps_mc_uc":"Colombo Divisional Secretariat","logitiute":79.850427999999994,"latitude":6.9085349999999996,"orig_fid":-1}},{"type":"Feature","id":56,"geometry":{"type":"Point","coordinates":[80.345324000000062,8.314734000000044]},"properties":{"objectid":56,"name":"PALM GARDEN VILLAGE HOTEL","address":"POST 42,PUTTALAM ROAD, PANDULAGAMA, ANURADHAPURA.","rooms":50,"grade":"THREE","district":"Anuradhapura","aga_division":"Madyama Nuwaragam Palatha Pradeshiya Sabawa","ps_mc_uc":"Anuradhapura East","logitiute":80.345323999999991,"latitude":8.3147339999999996,"orig_fid":-1}},{"type":"Feature","id":57,"geometry":{"type":"Point","coordinates":[80.761097000000063,7.9495840000000726]},"properties":{"objectid":57,"name":"SIGIRIYA VILLAGE HOTEL","address":"P.O.BOX 01, SIGIRIYA","rooms":120,"grade":"THREE","district":"Matale","aga_division":"Dambulla Pradeshiya Sabha","ps_mc_uc":"Dambulla Divisional Secretariat","logitiute":80.761096999999992,"latitude":7.9495840000000006,"orig_fid":-1}},{"type":"Feature","id":58,"geometry":{"type":"Point","coordinates":[79.981157000000053,6.4496410000000424]},"properties":{"objectid":58,"name":"THE PALMS","address":"N-91, 6TH LANE, MORAGALLA, BERUWALA","rooms":100,"grade":"THREE","district":"Kalutara","aga_division":"Beruwala Pradeshiya Sabha","ps_mc_uc":"Beruwala Divisional Secretariat","logitiute":79.981156999999996,"latitude":6.4496410000000006,"orig_fid":-1}},{"type":"Feature","id":59,"geometry":{"type":"Point","coordinates":[79.944900000000075,6.6172800000000507]},"properties":{"objectid":59,"name":"MERMAID HOTEL & CLUB","address":"MAHAWASKADUWA, KALUTARA","rooms":72,"grade":"TWO","district":"Kalutara","aga_division":"Kalutara Pradeshiya Sabha","ps_mc_uc":"Kalutara Divisional Secretariat","logitiute":79.944900000000004,"latitude":6.6172800000000001,"orig_fid":-1}},{"type":"Feature","id":60,"geometry":{"type":"Point","coordinates":[80.625213000000031,7.2905600000000277]},"properties":{"objectid":60,"name":"HOTEL TOPAZ","address":"ANNIWATTE, KANDY","rooms":75,"grade":"TWO","district":"Kandy","aga_division":"Kandy","ps_mc_uc":"Ganga Ihala Korale Divisional Secretariat","logitiute":80.625213000000002,"latitude":7.2905600000000002,"orig_fid":-1}},{"type":"Feature","id":61,"geometry":{"type":"Point","coordinates":[79.84104700000006,7.2332430000000727]},"properties":{"objectid":61,"name":"CAMELOT BEACH HOTEL","address":"NO.345,LEWIS PLACE,NEGOMBO.","rooms":81,"grade":"ONE","district":"Gampaha","aga_division":"Negombo","ps_mc_uc":"Negombo Divisional Secretariat","logitiute":79.841046999999989,"latitude":7.2332429999999999,"orig_fid":-1}},{"type":"Feature","id":62,"geometry":{"type":"Point","coordinates":[80.993096000000037,7.9247640000000388]},"properties":{"objectid":62,"name":"THE VILLAGE","address":"NATIONAL HOLIDAY RESORT POLONNNARUWA.","rooms":36,"grade":"ONE","district":"Polonnaruwa","aga_division":"Polonnaruwa","ps_mc_uc":"Polonnaruwa Divisional Secretariat","logitiute":80.993095999999994,"latitude":7.9247639999999997,"orig_fid":-1}},{"type":"Feature","id":63,"geometry":{"type":"Point","coordinates":[80.856132000000059,6.3201820000000453]},"properties":{"objectid":63,"name":"CENTAURIA LAKE","address":"NEW TOWN,EMBILIPITIYA.","rooms":52,"grade":"ONE","district":"Ratnapura","aga_division":"Embilipitiya","ps_mc_uc":"Embilipitiya Divisional Secretariat","logitiute":80.856132000000002,"latitude":6.320182,"orig_fid":-1}},{"type":"Feature","id":64,"geometry":{"type":"Point","coordinates":[80.727282000000059,7.9796780000000354]},"properties":{"objectid":64,"name":"KASSAPA LIONS ROCK","address":"DIGAMPATHAHA,KIMBISSA.","rooms":31,"grade":"TWO","district":"Matale","aga_division":"Dambulla Pradeshiya Sabha","ps_mc_uc":"Dambulla Divisional Secretariat","logitiute":80.727282000000002,"latitude":7.9796779999999998,"orig_fid":-1}},{"type":"Feature","id":65,"geometry":{"type":"Point","coordinates":[79.838021000000083,7.2087990000000559]},"properties":{"objectid":65,"name":"HERITANCE NEGOMBO","address":"NO.175,LEWIS PLACE,NEGOMBO.","rooms":140,"grade":"FIVE","district":"Gampaha","aga_division":"Negombo","ps_mc_uc":"Negombo Divisional Secretariat","logitiute":79.838020999999998,"latitude":7.208799,"orig_fid":-1}},{"type":"Feature","id":66,"geometry":{"type":"Point","coordinates":[79.946725000000072,6.6152070000000549]},"properties":{"objectid":66,"name":"HIBISCUS BEACH HOTEL","address":"MAHAWASKADUWA,KALUTARA NORTH,KALUTHARA","rooms":51,"grade":"ONE","district":"Kalutara","aga_division":"Kalutara Pradeshiya Sabha","ps_mc_uc":"Kalutara Divisional Secretariat","logitiute":79.946725000000001,"latitude":6.6152069999999998,"orig_fid":-1}},{"type":"Feature","id":67,"geometry":{"type":"Point","coordinates":[80.004672000000085,6.4068180000000439]},"properties":{"objectid":67,"name":"HOTEL BENTOTA VILLAGE","address":"ALWIS ROAD,WARAHENA,BENTOTA","rooms":14,"grade":"TWO","district":"Galle","aga_division":"Bentota Pradeshiya Sabha","ps_mc_uc":"Benthota Divisional Secretariat","logitiute":80.004671999999999,"latitude":6.4068179999999995,"orig_fid":-1}},{"type":"Feature","id":68,"geometry":{"type":"Point","coordinates":[79.844229000000041,6.9333270000000766]},"properties":{"objectid":68,"name":"COLOMBO CITY HOTEL","address":"LEVEL 3,NO.33,CANAL ROW,COLOMBO 01.","rooms":48,"grade":"ONE","district":"Colombo","aga_division":"Colombo","ps_mc_uc":"Colombo Divisional Secretariat","logitiute":79.844228999999999,"latitude":6.9333270000000002,"orig_fid":-1}},{"type":"Feature","id":69,"geometry":{"type":"Point","coordinates":[80.347884000000079,5.9779060000000754]},"properties":{"objectid":69,"name":"HOTEL KABALANA","address":"KATHALUWA,AHANGAMA","rooms":22,"grade":"TWO","district":"Galle","aga_division":"Habaraduwa","ps_mc_uc":"Habaraduwa Divisional Secretariat","logitiute":80.347884000000008,"latitude":5.9779059999999999,"orig_fid":-1}},{"type":"Feature","id":70,"geometry":{"type":"Point","coordinates":[79.897754500000076,6.7636079000000677]},"properties":{"objectid":70,"name":"RAMADIA RANMAL HOLIDAY RESORT","address":"346/5,GALLE ROAD,GORAKANA,MORATUWA","rooms":25,"grade":"ONE","district":"Kalutara","aga_division":"Moratuwa","ps_mc_uc":"Moratuwa Divisional Secretariat","logitiute":79.897754500000005,"latitude":6.7636079000000002,"orig_fid":-1}},{"type":"Feature","id":71,"geometry":{"type":"Point","coordinates":[80.405856000000085,8.325802000000067]},"properties":{"objectid":71,"name":"HOTEL DULYANA","address":"488/18,MAITHREEPALA SENANAYAKE MW,ANURADHAPURA","rooms":30,"grade":"TWO","district":"Anuradhapura","aga_division":"Anuradhapura","ps_mc_uc":"N.P.East","logitiute":80.405856,"latitude":8.3258019999999995,"orig_fid":-1}},{"type":"Feature","id":72,"geometry":{"type":"Point","coordinates":[79.854138000000034,6.9043400000000474]},"properties":{"objectid":72,"name":"INDRA REGENT HOTEL","address":"NO.383,R.A.D.MEL MAWATHA,COLOMBO 03","rooms":26,"grade":"ONE","district":"Colombo","aga_division":"Colombo","ps_mc_uc":"Thimbirigasyaya Divisional Secretariat","logitiute":79.854138000000006,"latitude":6.9043400000000004,"orig_fid":-1}},{"type":"Feature","id":73,"geometry":{"type":"Point","coordinates":[81.333000183000081,6.4169998170000326]},"properties":{"objectid":73,"name":"HOTEL CHAMILA","address":"NO.85,TISSA ROAD,DETAGAMWA KATARAGAMA.","rooms":50,"grade":"ONE","district":"Moneragala","aga_division":"Thissamaharama","ps_mc_uc":"Katharagama Divisional Secretariat","logitiute":81.333000179999999,"latitude":6.41699982,"orig_fid":-1}},{"type":"Feature","id":74,"geometry":{"type":"Point","coordinates":[79.996968000000038,6.4217830000000617]},"properties":{"objectid":74,"name":"HOTEL SUSANTHAS","address":"NATIONAL HOLIDAY RESORT RD,PITARAMBA,BENTOTA","rooms":18,"grade":"ONE","district":"Galle","aga_division":"Bentota Pradeshiya Sabha","ps_mc_uc":"Benthota Divisional Secretariat","logitiute":79.996967999999995,"latitude":6.4217830000000005,"orig_fid":-1}},{"type":"Feature","id":75,"geometry":{"type":"Point","coordinates":[79.864017000000047,6.8386590000000638]},"properties":{"objectid":75,"name":"BERJAYA MOUNT ROYAL BEACH HOTEL","address":"NO:36,COLLAGE AVENUE,MOUNT LAVINIA","rooms":90,"grade":"ONE","district":"Colombo","aga_division":"Moratuwa","ps_mc_uc":"Mount Lavinia","logitiute":79.864017000000004,"latitude":6.8386589999999998,"orig_fid":-1}},{"type":"Feature","id":76,"geometry":{"type":"Point","coordinates":[79.993697000000054,6.4398550000000228]},"properties":{"objectid":76,"name":"NILWALA HOTEL","address":"NILWALA HOTEL, GALLE ROAD, KALUWAMODARA, ALUTHGAMA.","rooms":10,"grade":"ONE","district":"Kalutara","aga_division":"Aluthgama","ps_mc_uc":"Aluthgama","logitiute":79.993696999999997,"latitude":6.4398549999999997,"orig_fid":-1}},{"type":"Feature","id":77,"geometry":{"type":"Point","coordinates":[81.183602900000039,8.712216000000069]},"properties":{"objectid":77,"name":"PIGEON ISLAND BEACH HOTEL","address":"11TH MILE POST, NILAVELI, TRINCOMALEE.","rooms":38,"grade":"TWO","district":"Trincomalee","aga_division":"Trincomalee","ps_mc_uc":"Trincomalee Divisional Secretariat","logitiute":81.183602899999997,"latitude":8.7122159999999997,"orig_fid":-1}},{"type":"Feature","id":78,"geometry":{"type":"Point","coordinates":[80.76639380000006,6.9675209000000677]},"properties":{"objectid":78,"name":"GLENDOWER HOTEL","address":"NO:05,GRAND HOTEL ROAD,NUWARA ELIYA","rooms":20,"grade":"ONE","district":"Nuwara Eliya","aga_division":"Nuwara Eliya","ps_mc_uc":"Nuwara Eliya Divisional Secretariat","logitiute":80.766393800000003,"latitude":6.9675209000000002,"orig_fid":-1}},{"type":"Feature","id":79,"geometry":{"type":"Point","coordinates":[79.893441800000062,6.7504834000000642]},"properties":{"objectid":79,"name":"RANDIYA HOTEL","address":"389,KORALAWELLA,MORATUWA","rooms":10,"grade":"ONE","district":"Colombo","aga_division":"Moratuwa","ps_mc_uc":"Moratuwa Divisional Secretariat","logitiute":79.893441800000005,"latitude":6.7504834000000002,"orig_fid":-1}},{"type":"Feature","id":80,"geometry":{"type":"Point","coordinates":[80.008802600000081,6.3857510000000275]},"properties":{"objectid":80,"name":"TEMPLE TREE RESORT AND SPA","address":"NO:660,GALLE ROAD,INDURUWA","rooms":10,"grade":"TWO","district":"Galle","aga_division":"Bentota Pradeshiya Sabha","ps_mc_uc":"Benthota Divisional Secretariat","logitiute":80.008802599999996,"latitude":6.385751,"orig_fid":-1}},{"type":"Feature","id":81,"geometry":{"type":"Point","coordinates":[79.874539000000084,7.1542040000000497]},"properties":{"objectid":81,"name":"FULL MOON GARDEN HOTEL","address":"NO.754, COLOMBO ROAD, KATUNAYAKE.","rooms":30,"grade":"ONE","district":"Gampaha","aga_division":"Katana Pradeshiya Sabha","ps_mc_uc":"Katana Divisional Secretariat","logitiute":79.874538999999999,"latitude":7.154204,"orig_fid":-1}},{"type":"Feature","id":82,"geometry":{"type":"Point","coordinates":[79.979952000000083,6.4500038000000472]},"properties":{"objectid":82,"name":"BARBERYN REEF AYURVEDA RESORT","address":"MORAGALLA,BERUWALA","rooms":75,"grade":"ONE","district":"Kalutara","aga_division":"Bentota Pradeshiya Sabha","ps_mc_uc":"Beruwala Divisional Secretariat","logitiute":79.979951999999997,"latitude":6.4500038000000002,"orig_fid":-1}},{"type":"Feature","id":83,"geometry":{"type":"Point","coordinates":[80.650599000000057,7.8799540000000547]},"properties":{"objectid":83,"name":"GIMANHALA HOTEL","address":"754 ANURADHAPURA ROAD DAMBULLA","rooms":17,"grade":"TWO","district":"Matale","aga_division":"Matale","ps_mc_uc":"Dambulla Divisional Secretariat","logitiute":80.650599,"latitude":7.8799540000000006,"orig_fid":-1}},{"type":"Feature","id":84,"geometry":{"type":"Point","coordinates":[79.98667800000004,6.894121000000041]},"properties":{"objectid":84,"name":"FIELDVIEW HOLYDAY RESORT","address":"ANNASIWATTE ROAD,OFF MDH,JAWARDANA MW,ATHURUGIRIYA.","rooms":10,"grade":"ONE","district":"Colombo","aga_division":"Colombo","ps_mc_uc":"Kesbewa Divisional Secretariat","logitiute":79.986677999999998,"latitude":6.8941210000000002,"orig_fid":-1}},{"type":"Feature","id":85,"geometry":{"type":"Point","coordinates":[80.352292000000034,6.7627870000000598]},"properties":{"objectid":85,"name":"LAKE SERENITY","address":"GONAPITIYA, KURUWITA","rooms":14,"grade":"TWO","district":"Ratnapura","aga_division":"Ratnapura","ps_mc_uc":"Ratnapura Divisional Secretariat","logitiute":80.352291999999991,"latitude":6.7627869999999994,"orig_fid":-1}},{"type":"Feature","id":86,"geometry":{"type":"Point","coordinates":[80.321832900000061,5.989205600000048]},"properties":{"objectid":86,"name":"KOGGALA BEACH HOTEL","address":"KOGGALA,HABARADUWA.","rooms":189,"grade":"ONE","district":"Galle","aga_division":"Galle","ps_mc_uc":"Habaraduwa Divisional Secretariat","logitiute":80.32183289999999,"latitude":5.9892056,"orig_fid":-1}},{"type":"Feature","id":87,"geometry":{"type":"Point","coordinates":[80.765424000000053,6.9633580000000279]},"properties":{"objectid":87,"name":"HOTEL SUNHILL","address":"NO.18 UNIQUE VIEW ROAD,NUWARAELIYA","rooms":15,"grade":"ONE","district":"Nuwara Eliya","aga_division":"Nuwara Eliya","ps_mc_uc":"Nuwara Eliya Divisional Secretariat","logitiute":80.765423999999996,"latitude":6.9633580000000004,"orig_fid":-1}},{"type":"Feature","id":88,"geometry":{"type":"Point","coordinates":[80.62878900000004,7.2893420000000333]},"properties":{"objectid":88,"name":"HOTEL HILL TOP","address":"200/21,BAHIRAVAKANDA,PERADENIYA ROAD,KANDY","rooms":81,"grade":"TWO","district":"Kandy","aga_division":"Kandy","ps_mc_uc":"Kundasale Divisional Secretariat","logitiute":80.628788999999998,"latitude":7.2893419999999995,"orig_fid":-1}},{"type":"Feature","id":89,"geometry":{"type":"Point","coordinates":[79.996304000000066,6.4236730000000648]},"properties":{"objectid":89,"name":"AVANI BENTOTA RESORT & SPA","address":"NATIONAL HOLIDAY RESORT,BENTOTA","rooms":90,"grade":"TWO","district":"Galle","aga_division":"Bentota Pradeshiya Sabha","ps_mc_uc":"Benthota Divisional Secretariat","logitiute":79.996304000000009,"latitude":6.4236730000000009,"orig_fid":-1}},{"type":"Feature","id":90,"geometry":{"type":"Point","coordinates":[80.722005000000081,5.9784610000000384]},"properties":{"objectid":90,"name":"AUSTRIAN BEACH RESORT","address":"2/A 2, BANDARAWATTA,KEMAGODA,DICKWELLA","rooms":10,"grade":"ONE","district":"Matara","aga_division":"Matara","ps_mc_uc":"Dickwella Divisional Secretariat","logitiute":80.722004999999996,"latitude":5.9784609999999994,"orig_fid":-1}},{"type":"Feature","id":91,"geometry":{"type":"Point","coordinates":[80.921978000000081,7.9915020000000254]},"properties":{"objectid":91,"name":"ROYAL LOTUS HOTEL","address":"GIRITHALE, POLONNARUWA.","rooms":56,"grade":"TWO","district":"Polonnaruwa","aga_division":"Polonnaruwa","ps_mc_uc":"Polonnaruwa Divisional Secretariat","logitiute":80.921977999999996,"latitude":7.9915020000000005,"orig_fid":-1}},{"type":"Feature","id":92,"geometry":{"type":"Point","coordinates":[80.621583000000044,7.2897240000000352]},"properties":{"objectid":92,"name":"RIVERDALE HOTEL","address":"32, ANIWATTA ROAD, KANDY.","rooms":29,"grade":"TWO","district":"Kandy","aga_division":"Kandy","ps_mc_uc":"Kandy Divisional Secretariat","logitiute":80.621583000000001,"latitude":7.2897239999999996,"orig_fid":-1}},{"type":"Feature","id":93,"geometry":{"type":"Point","coordinates":[79.842210100000045,7.2467725000000769]},"properties":{"objectid":93,"name":"PARADISE HOLIDAY VILLAGE","address":"NO. 154/9, PORUTHOTA ROAD, PALANGATHURE, KOCHCHIKADE, NEGOMBO","rooms":33,"grade":"ONE","district":"Gampaha","aga_division":"Negombo","ps_mc_uc":"Negombo Divisional Secretariat","logitiute":79.842210100000003,"latitude":7.2467724999999996,"orig_fid":-1}},{"type":"Feature","id":94,"geometry":{"type":"Point","coordinates":[81.297427000000084,6.292455000000075]},"properties":{"objectid":94,"name":"KITHALA RESORT","address":"KATARAGAMA ROAD, THISSAMAHARAMA.","rooms":40,"grade":"TWO","district":"Hambantota","aga_division":"Thissamaharama","ps_mc_uc":"Thissamaharama Divisional Secretariat","logitiute":81.297426999999999,"latitude":6.2924549999999995,"orig_fid":-1}},{"type":"Feature","id":95,"geometry":{"type":"Point","coordinates":[80.52517540000008,5.9442652000000749]},"properties":{"objectid":95,"name":"LALITHA HOTEL","address":"NO.200A,GALLE ROAD, PAMBURANA, MATARA.","rooms":27,"grade":"TWO","district":"Matara","aga_division":"Matara","ps_mc_uc":"Matara Divisional Secretariat","logitiute":80.525175399999995,"latitude":5.9442652000000002,"orig_fid":-1}},{"type":"Feature","id":96,"geometry":{"type":"Point","coordinates":[80.356453000000045,6.713322000000062]},"properties":{"objectid":96,"name":"RATHNALOKA TOUR INN","address":"KOSGALA, KAHAGAMA, RATNAPURA","rooms":53,"grade":"ONE","district":"Ratnapura","aga_division":"Ratnapura","ps_mc_uc":"Ratnapura Divisional Secretariat","logitiute":80.356452999999988,"latitude":6.7133220000000007,"orig_fid":-1}},{"type":"Feature","id":97,"geometry":{"type":"Point","coordinates":[80.637210000000039,7.2933670000000461]},"properties":{"objectid":97,"name":"HOTEL CASAMARA","address":"NO.12, KATUGODELLA VIDIYA, KANDY.","rooms":33,"grade":"TWO","district":"Kandy","aga_division":"Kandy","ps_mc_uc":"Kandy Divisional Secretariat","logitiute":80.63721000000001,"latitude":7.2933669999999999,"orig_fid":-1}},{"type":"Feature","id":98,"geometry":{"type":"Point","coordinates":[80.305903000000058,7.8290100000000393]},"properties":{"objectid":98,"name":"HOTEL YAPAHUWA PARADISE","address":"KINGDOM ROAD,YAPAHUWA,MAHO","rooms":20,"grade":"TWO","district":"Kurunegala","aga_division":"Mahawa Pradeshiya Sabha","ps_mc_uc":"Mahawa Divisional Secretariat","logitiute":80.305903000000001,"latitude":7.8290099999999994,"orig_fid":-1}},{"type":"Feature","id":99,"geometry":{"type":"Point","coordinates":[80.616914000000065,7.2631411000000412]},"properties":{"objectid":99,"name":"RANDHOLEE RESORTS","address":"HEERASSAGALA, BOWALAWATTE, KANDY","rooms":25,"grade":"ONE","district":"Kandy","aga_division":"Kandy","ps_mc_uc":"Kandy Divisional Secretariat","logitiute":80.616913999999994,"latitude":7.2631410999999995,"orig_fid":-1}},{"type":"Feature","id":100,"geometry":{"type":"Point","coordinates":[80.644122300000049,7.2848598000000493]},"properties":{"objectid":100,"name":"SERENE GARDEN HOTEL","address":"NO. 189, RAJAPIHILLA MAWATHA, KANDY","rooms":35,"grade":"ONE","district":"Kandy","aga_division":"Kandy","ps_mc_uc":"Kandy Divisional Secretariat","logitiute":80.644122299999992,"latitude":7.2848597999999996,"orig_fid":-1}},{"type":"Feature","id":101,"geometry":{"type":"Point","coordinates":[81.236615000000086,6.2931250000000318]},"properties":{"objectid":101,"name":"WILA SAFARI HOTEL","address":"PANNEGAMUWA,WEERAWILA","rooms":10,"grade":"ONE","district":"Hambantota","aga_division":"Thissamaharama","ps_mc_uc":"Thissamaharama Divisional Secretariat","logitiute":81.236615,"latitude":6.2931249999999999,"orig_fid":-1}},{"type":"Feature","id":102,"geometry":{"type":"Point","coordinates":[80.770061000000055,6.9707410000000323]},"properties":{"objectid":102,"name":"WINDSOR HOTEL","address":"NO.02, KANDY ROAD, NUWARA ELIYA.","rooms":50,"grade":"ONE","district":"Nuwara Eliya","aga_division":"Nuwara Eliya","ps_mc_uc":"Nuwara Eliya Divisional Secretariat","logitiute":80.770060999999998,"latitude":6.9707410000000003,"orig_fid":-1}},{"type":"Feature","id":103,"geometry":{"type":"Point","coordinates":[80.372245000000078,7.4790050000000292]},"properties":{"objectid":103,"name":"HOTEL ATHGIRI","address":"NO. 344-350, KANDY ROAD, KURUNEGALA","rooms":23,"grade":"ONE","district":"Kurunegala","aga_division":"Kurunegala","ps_mc_uc":"Kurunegala Divisional Secretariat","logitiute":80.372245000000007,"latitude":7.4790049999999999,"orig_fid":-1}},{"type":"Feature","id":104,"geometry":{"type":"Point","coordinates":[80.418572400000073,8.3314154000000258]},"properties":{"objectid":104,"name":"MIRIDIYA HOTEL","address":"WASALA DATHTHA MAWATHA, ANURADHAPURA","rooms":40,"grade":"ONE","district":"Anuradhapura","aga_division":"Anuradhapura","ps_mc_uc":"Anuradhapura East","logitiute":80.418572399999988,"latitude":8.3314154000000009,"orig_fid":-1}},{"type":"Feature","id":105,"geometry":{"type":"Point","coordinates":[80.218668000000036,6.0386580000000549]},"properties":{"objectid":105,"name":"LADY HILL","address":"NO. 29,UPPER DICKSON ROAD, GALLE","rooms":15,"grade":"ONE","district":"Galle","aga_division":"Galle","ps_mc_uc":"Galle Divisional Secretariat","logitiute":80.218667999999994,"latitude":6.0386579999999999,"orig_fid":-1}},{"type":"Feature","id":106,"geometry":{"type":"Point","coordinates":[80.927946000000077,7.9971140000000673]},"properties":{"objectid":106,"name":"GIRITALE HOTEL","address":"NATIONAL HOLIDAY RESORT, GIRITALE","rooms":40,"grade":"ONE","district":"Polonnaruwa","aga_division":"Polonnaruwa","ps_mc_uc":"Polonnaruwa Divisional Secretariat","logitiute":80.927945999999991,"latitude":7.9971139999999998,"orig_fid":-1}},{"type":"Feature","id":107,"geometry":{"type":"Point","coordinates":[80.255045000000052,6.0060510000000704]},"properties":{"objectid":107,"name":"SANMIRA RENAISSANCE","address":"MATARA ROAD, UNAWATUNA","rooms":20,"grade":"THREE","district":"Galle","aga_division":"Habaraduwa","ps_mc_uc":"Galle Divisional Secretariat","logitiute":80.255044999999996,"latitude":6.0060510000000003,"orig_fid":-1}},{"type":"Feature","id":108,"geometry":{"type":"Point","coordinates":[79.862086000000033,6.8691230000000587]},"properties":{"objectid":108,"name":"OMEGA REGENCY","address":"NO. 324, GALLE ROAD, COLOMBO 06","rooms":15,"grade":"ONE","district":"Colombo","aga_division":"Colombo","ps_mc_uc":"Colombo Divisional Secretariat","logitiute":79.862085999999991,"latitude":6.8691230000000001,"orig_fid":-1}},{"type":"Feature","id":109,"geometry":{"type":"Point","coordinates":[81.405281000000059,6.2591680000000451]},"properties":{"objectid":109,"name":"CHAAYA WILD YALA","address":"P.O. BOX. 01, KIRINDA, TISSAMAHARAMA","rooms":61,"grade":"FOUR","district":"Hambantota","aga_division":"Hambantota","ps_mc_uc":"Hambantota Divisional Secretariat","logitiute":81.405280999999988,"latitude":6.2591679999999998,"orig_fid":-1}},{"type":"Feature","id":110,"geometry":{"type":"Point","coordinates":[80.100753000000054,6.1313530000000469]},"properties":{"objectid":110,"name":"CHAAYA TRANZ HOTEL","address":"P.O. BOX. 01, GALLE ROAD, HIKKADUWA.","rooms":150,"grade":"FOUR","district":"Galle","aga_division":"Hikkaduwa","ps_mc_uc":"Hikkaduwa Divisional Secretariat","logitiute":80.100752999999997,"latitude":6.1313530000000007,"orig_fid":-1}},{"type":"Feature","id":111,"geometry":{"type":"Point","coordinates":[80.499954000000059,8.7513780000000452]},"properties":{"objectid":111,"name":"HOTEL NELLY","address":"NO. 84, 02ND CROSS STREET, VAUNIYA","rooms":20,"grade":"ONE","district":"Vavuniya","aga_division":"Vavuniya","ps_mc_uc":"Vavuniya","logitiute":80.499954000000002,"latitude":8.7513780000000008,"orig_fid":-1}},{"type":"Feature","id":112,"geometry":{"type":"Point","coordinates":[79.842470000000048,6.9332320000000323]},"properties":{"objectid":112,"name":"THE KINGSBURY","address":"NO 48, JANADHIPATHI MAWATHA, COLOMBO 01","rooms":229,"grade":"FIVE","district":"Colombo","aga_division":"Colombo","ps_mc_uc":"Colombo Divisional Secretariat","logitiute":79.842469999999992,"latitude":6.9332320000000003,"orig_fid":-1}},{"type":"Feature","id":113,"geometry":{"type":"Point","coordinates":[80.634571000000051,7.3024019000000635]},"properties":{"objectid":113,"name":"THE GRAND KANDYAN","address":"89/10,LADY GORDONS DRIVE, KANDY","rooms":100,"grade":"FIVE","district":"Kandy","aga_division":"Kandy","ps_mc_uc":"Kandy Divisional Secretariat","logitiute":80.634571000000008,"latitude":7.3024019000000004,"orig_fid":-1}},{"type":"Feature","id":114,"geometry":{"type":"Point","coordinates":[79.853098300000056,6.912114000000031]},"properties":{"objectid":114,"name":"CINNAMON RED COLOMBO","address":"NO:59, ANANDA COOMARASWAMY MAWATHA, COLOMBO 03.","rooms":243,"grade":"THREE","district":"Colombo","aga_division":"Colombo","ps_mc_uc":"Colombo Divisional Secretariat","logitiute":79.853098299999999,"latitude":6.9121139999999999,"orig_fid":-1}},{"type":"Feature","id":115,"geometry":{"type":"Point","coordinates":[81.063869700000055,6.1120643000000427]},"properties":{"objectid":115,"name":"SHANGRI-LA S HAMBANTOTA RESORT & SPA","address":"SITTRAKALA WATTA, CHITHRAGALA, AMBALANTOTA","rooms":300,"grade":"FIVE","district":"Hambantota","aga_division":"Ambalantota Pradeshiya Sabha","ps_mc_uc":"Ambalantota Divisional Secretariat","logitiute":81.063869699999998,"latitude":6.1120643000000001,"orig_fid":-1}},{"type":"Feature","id":116,"geometry":{"type":"Point","coordinates":[79.856530300000031,6.8705488000000514]},"properties":{"objectid":116,"name":"MIRAGE HOTEL","address":"NO: 61, MOORS ROAD, MARINE DRIVE, WELLAWATTE, COLOMBO 06","rooms":60,"grade":"TWO","district":"Colombo","aga_division":"Colombo","ps_mc_uc":"Colombo Divisional Secretariat","logitiute":79.856530300000003,"latitude":6.8705487999999999,"orig_fid":-1}},{"type":"Feature","id":117,"geometry":{"type":"Point","coordinates":[79.853007500000047,6.8853104000000371]},"properties":{"objectid":117,"name":"THE OCEAN COLOMBO","address":"NO-40, MELBOURNE AVENUE, COLOMBO 04.","rooms":49,"grade":"ONE","district":"Colombo","aga_division":"Colombo","ps_mc_uc":"Thimbirigasyaya Divisional Secretariat","logitiute":79.85300749999999,"latitude":6.8853103999999998,"orig_fid":-1}},{"type":"Feature","id":118,"geometry":{"type":"Point","coordinates":[80.610734000000036,7.2834760000000642]},"properties":{"objectid":118,"name":"EARLS REGENT HOTEL","address":"NO. 1/40, DEVENIRAJASINGHE ROAD, PERADENIYA,KANDY","rooms":60,"grade":"THREE","district":"Kandy","aga_division":"Kandy","ps_mc_uc":"Kandy Divisional Secretariat","logitiute":80.610733999999994,"latitude":7.2834760000000003,"orig_fid":-1}},{"type":"Feature","id":119,"geometry":{"type":"Point","coordinates":[79.861298000000033,6.8654860000000326]},"properties":{"objectid":119,"name":"FAIRVIEW HOTEL","address":"NO:27, RAMKRISHNA ROAD, WELLAWATTE, COLOMBO 06","rooms":50,"grade":"TWO","district":"Colombo","aga_division":"Colombo","ps_mc_uc":"Colombo Divisional Secretariat","logitiute":79.861297999999991,"latitude":6.8654859999999998,"orig_fid":-1}},{"type":"Feature","id":120,"geometry":{"type":"Point","coordinates":[80.031051300000058,6.3095700000000647]},"properties":{"objectid":120,"name":"RIU HOTEL","address":"GALLE ROAD, AHUNGALLE","rooms":501,"grade":"FIVE","district":"Galle","aga_division":"Galle","ps_mc_uc":"Galle Divisional Secretariat","logitiute":80.031051300000001,"latitude":6.3095699999999999,"orig_fid":-1}},{"type":"Feature","id":121,"geometry":{"type":"Point","coordinates":[81.549911200000054,7.9315158000000565]},"properties":{"objectid":121,"name":"ANANTAYA RESORT & SPA","address":"COCOUNT BOARD ROAD,PASSEKUDAH,KALKUDAH","rooms":51,"grade":"FIVE","district":"Batticaloa","aga_division":"Batticaloa","ps_mc_uc":"Batticaloa Divisional Secretariat","logitiute":81.549911199999997,"latitude":7.9315157999999997,"orig_fid":-1}},{"type":"Feature","id":122,"geometry":{"type":"Point","coordinates":[80.783869000000038,6.0124770000000467]},"properties":{"objectid":122,"name":"ANANTARA PEACE HEAVEN RESORT","address":"GOYAMBOKKA ESTATE,TANGALLE","rooms":152,"grade":"FIVE","district":"Hambantota","aga_division":"Hambantota","ps_mc_uc":"Hambantota Divisional Secretariat","logitiute":80.783868999999996,"latitude":6.0124770000000005,"orig_fid":-1}},{"type":"Feature","id":123,"geometry":{"type":"Point","coordinates":[79.947211300000049,6.6081010000000333]},"properties":{"objectid":123,"name":"TANGERINE BEACH HOTEL","address":"DR ABREW ROAD,WASKADUWA,KALUTHARA","rooms":179,"grade":"THREE","district":"Kalutara","aga_division":"Kalutara Pradeshiya Sabha","ps_mc_uc":"Kalutara Divisional Secretariat","logitiute":79.947211299999992,"latitude":6.6081010000000004,"orig_fid":-1}},{"type":"Feature","id":124,"geometry":{"type":"Point","coordinates":[79.874066300000038,6.8837360000000558]},"properties":{"objectid":124,"name":"BEST WESTERN ELYON COLOMBO","address":"102A, KIRULAPONE AVENUE, BASELINE ROAD, COLOMBO 05.","rooms":52,"grade":"TWO","district":"Colombo","aga_division":"Colombo","ps_mc_uc":"Colombo Divisional Secretariat","logitiute":79.874066299999996,"latitude":6.8837359999999999,"orig_fid":-1}},{"type":"Feature","id":125,"geometry":{"type":"Point","coordinates":[79.976879200000042,6.4522247000000448]},"properties":{"objectid":125,"name":"CINNAMON BEY","address":"MORAGOLLA BEACH,BERUWALA","rooms":200,"grade":"FOUR","district":"Kalutara","aga_division":"Kalutara Pradeshiya Sabha","ps_mc_uc":"Kalutara Divisional Secretariat","logitiute":79.976879199999999,"latitude":6.4522247000000004,"orig_fid":-1}},{"type":"Feature","id":126,"geometry":{"type":"Point","coordinates":[79.853193600000054,6.8961858000000689]},"properties":{"objectid":126,"name":"PEARL GRAND HOTEL","address":"#09,EDWARD LANE,COLOMBO 03.","rooms":90,"grade":"ONE","district":"Colombo","aga_division":"Colombo","ps_mc_uc":"Colombo Divisional Secretariat","logitiute":79.853193599999997,"latitude":6.8961857999999996,"orig_fid":-1}},{"type":"Feature","id":127,"geometry":{"type":"Point","coordinates":[79.849915300000077,6.8984550000000695]},"properties":{"objectid":127,"name":"OCEAN EDGE SUITES","address":"24,10TH LANE,MARINE DRIVE,COLOMBO3","rooms":78,"grade":"THREE","district":"Colombo","aga_division":"Colombo","ps_mc_uc":"Colombo Divisional Secretariat","logitiute":79.849915300000006,"latitude":6.8984550000000002,"orig_fid":-1}},{"type":"Feature","id":128,"geometry":{"type":"Point","coordinates":[79.944998500000054,6.6137006000000724]},"properties":{"objectid":128,"name":"COCO ROYAL BEACH","address":"WASKADUWA, KALUTHARA NORTH","rooms":70,"grade":"TWO","district":"Kalutara","aga_division":"Kalutara Pradeshiya Sabha","ps_mc_uc":"Kalutara Divisional Secretariat","logitiute":79.944998499999997,"latitude":6.6137005999999996,"orig_fid":-1}},{"type":"Feature","id":129,"geometry":{"type":"Point","coordinates":[79.838697300000035,7.231262000000072]},"properties":{"objectid":129,"name":"PARADISE BEACH HOTEL","address":"NO:289, LEWIS PLACE,NEGOMBO","rooms":61,"grade":"ONE","district":"Gampaha","aga_division":"Gampaha","ps_mc_uc":"Gampaha Divisional Secretariat","logitiute":79.838697299999993,"latitude":7.2312620000000001,"orig_fid":-1}},{"type":"Feature","id":130,"geometry":{"type":"Point","coordinates":[79.854265300000066,6.8977650000000494]},"properties":{"objectid":130,"name":"COLOMBO COURTYARD","address":"435,R.A DE MEL MAWATHA,COLOMBO 03","rooms":32,"grade":"THREE","district":"Colombo","aga_division":"Colombo","ps_mc_uc":"Colombo Divisional Secretariat","logitiute":79.854265300000009,"latitude":6.8977650000000006,"orig_fid":-1}},{"type":"Feature","id":131,"geometry":{"type":"Point","coordinates":[79.867601400000069,6.8907555000000684]},"properties":{"objectid":131,"name":"HOTEL JANAKI","address":"43, FIFE ROAD, THIMBIRIGASYAYA,COLOMBO 05","rooms":43,"grade":"ONE","district":"Colombo","aga_division":"Colombo","ps_mc_uc":"Colombo Divisional Secretariat","logitiute":79.867601399999998,"latitude":6.8907555,"orig_fid":-1}},{"type":"Feature","id":132,"geometry":{"type":"Point","coordinates":[79.928624300000081,6.6552759000000492]},"properties":{"objectid":132,"name":"VILLA OCEAN VIEW","address":"200/1, MOLLIGODAWATTA,WADDUWA","rooms":143,"grade":"ONE","district":"Kalutara","aga_division":"Kalutara Pradeshiya Sabha","ps_mc_uc":"Kalutara Divisional Secretariat","logitiute":79.92862430000001,"latitude":6.6552758999999995,"orig_fid":-1}},{"type":"Feature","id":133,"geometry":{"type":"Point","coordinates":[79.84461900000008,6.9282160000000204]},"properties":{"objectid":133,"name":"SHANGRI- LA HOTEL COLOMBO","address":"NO-01, CENTRE ROAD, GALLE FACE, COLOMBO 02","rooms":541,"grade":"THREE","district":"Colombo","aga_division":"Colombo","ps_mc_uc":"Colombo Divisional Secretariat","logitiute":79.844618999999994,"latitude":6.9282159999999999,"orig_fid":-1}},{"type":"Feature","id":134,"geometry":{"type":"Point","coordinates":[80.007628800000077,6.3797342000000299]},"properties":{"objectid":134,"name":"PANDANUS BEACH RESORT & SPA","address":"GALLE ROAD,YALEGAMA,INDURUWA 80510","rooms":76,"grade":"THREE","district":"Galle","aga_division":"Galle","ps_mc_uc":"Galle Divisional Secretariat","logitiute":80.007628799999992,"latitude":6.3797341999999997,"orig_fid":-1}},{"type":"Feature","id":135,"geometry":{"type":"Point","coordinates":[80.646514300000035,7.8398670000000266]},"properties":{"objectid":135,"name":"JETWING LAKE","address":"WIJEKUMARATHUNGA MAWATHA,YAPAGAMA,DAMBULLA.","rooms":94,"grade":"FOUR","district":"Matale","aga_division":"Matale","ps_mc_uc":"Matale Divisional Secretariat","logitiute":80.646514300000007,"latitude":7.8398669999999999,"orig_fid":-1}},{"type":"Feature","id":136,"geometry":{"type":"Point","coordinates":[80.412917300000061,8.3373550000000591]},"properties":{"objectid":136,"name":"THE LAKESIDE AT NUWARAWEWA","address":"NEW TOWN,ANURADHAPURA","rooms":70,"grade":"TWO","district":"Anuradhapura","aga_division":"Anuradhapura","ps_mc_uc":"Anuradhapura East","logitiute":80.412917299999989,"latitude":8.3373550000000005,"orig_fid":-1}},{"type":"Feature","id":137,"geometry":{"type":"Point","coordinates":[80.387922700000047,8.3423584000000233]},"properties":{"objectid":137,"name":"THE SANCTUARY AT TISSAWEWA","address":"OLD TOWN,ANURADHAPURA","rooms":22,"grade":"TWO","district":"Anuradhapura","aga_division":"Anuradhapura","ps_mc_uc":"Anuradhapura East","logitiute":80.387922700000004,"latitude":8.3423584000000002,"orig_fid":-1}},{"type":"Feature","id":138,"geometry":{"type":"Point","coordinates":[80.640511700000047,7.2883697000000325]},"properties":{"objectid":138,"name":"OZO KANDY","address":"NO31,SARANANKARA ROAD,KANDY","rooms":122,"grade":"THREE","district":"Kandy","aga_division":"Kandy","ps_mc_uc":"Kandy Divisional Secretariat","logitiute":80.640511700000005,"latitude":7.2883696999999996,"orig_fid":-1}},{"type":"Feature","id":139,"geometry":{"type":"Point","coordinates":[80.655418000000054,7.2771620000000325]},"properties":{"objectid":139,"name":"THE GOLDEN CROWN HOTEL","address":"322,UDAGAMA,AMPITIYA","rooms":63,"grade":"THREE","district":"Kandy","aga_division":"Gagawata Koralya","ps_mc_uc":"Gagawata","logitiute":80.655417999999997,"latitude":7.2771619999999997,"orig_fid":-1}},{"type":"Feature","id":140,"geometry":{"type":"Point","coordinates":[80.804099300000075,6.4198110000000383]},"properties":{"objectid":140,"name":"GRAND UDAWALAWE SAFARI RESORT","address":"NO 912, THANAMALVILA ROAD,UDAWALAWA","rooms":57,"grade":"FOUR","district":"Ratnapura","aga_division":"Udawalawa","ps_mc_uc":"Embilipitiya Divisional Secretariat","logitiute":80.804099300000004,"latitude":6.4198110000000002,"orig_fid":-1}},{"type":"Feature","id":141,"geometry":{"type":"Point","coordinates":[80.117571300000066,6.1154370000000426]},"properties":{"objectid":141,"name":"LAVANGA RESORT AND SPA","address":"GALLE ROAD,PATHUWATHA,HIKKADUWA","rooms":20,"grade":"TWO","district":"Galle","aga_division":"Hikkaduwa","ps_mc_uc":"Hikkaduwa Divisional Secretariat","logitiute":80.117571300000009,"latitude":6.115437,"orig_fid":-1}}]}