{"type":"FeatureCollection","features":[{"type":"Feature","id":1,"geometry":{"type":"Point","coordinates":[79.877509500000031,6.8460112000000208]},"properties":{"objectid":1,"substation_name":"Dehiwala Grid Substation (CEB)","operating_voltage":null,"address":"Dehiwala-Mount Lavinia, Sri Lanka","description":null}},{"type":"Feature","id":2,"geometry":{"type":"Point","coordinates":[79.875271100000077,7.0096106000000304]},"properties":{"objectid":2,"substation_name":"Kerawalapitiya Grid Substation","operating_voltage":null,"address":"Sri Lanka","description":null}},{"type":"Feature","id":3,"geometry":{"type":"Point","coordinates":[79.952753500000085,6.9569237000000612]},"properties":{"objectid":3,"substation_name":"Sapugaskanda Grid Substation","operating_voltage":null,"address":"Peliyagoda, Sri Lanka","description":null}},{"type":"Feature","id":4,"geometry":{"type":"Point","coordinates":[79.887307200000066,6.8919901000000436]},"properties":{"objectid":4,"substation_name":"Ceylon Electricity Board (CEB) - Primary Substation Nawala","operating_voltage":null,"address":"11222, Sri Lanka","description":null}},{"type":"Feature","id":5,"geometry":{"type":"Point","coordinates":[79.854537100000073,6.9358842000000323]},"properties":{"objectid":5,"substation_name":"Colombo B Grid Substation","operating_voltage":null,"address":"Colombo, Sri Lanka","description":null}},{"type":"Feature","id":6,"geometry":{"type":"Point","coordinates":[79.856467500000065,6.9359324000000697]},"properties":{"objectid":6,"substation_name":"Electrical Substation","operating_voltage":null,"address":"Colombo, Sri Lanka","description":null}},{"type":"Feature","id":7,"geometry":{"type":"Point","coordinates":[79.924442100000078,6.8912133000000608]},"properties":{"objectid":7,"substation_name":"Sri Jayewardenepura Grid Substation","operating_voltage":null,"address":"Battaramulla, Sri Lanka","description":null}},{"type":"Feature","id":8,"geometry":{"type":"Point","coordinates":[79.891085553000039,6.8140674850000664]},"properties":{"objectid":8,"substation_name":"CEB - Rathmalana GSS\r\nCEB - Rathmalana GSS\r\n","operating_voltage":null,"address":null,"description":null}}]}