{"type":"FeatureCollection","features":[{"type":"Feature","id":1,"geometry":{"type":"Point","coordinates":[80.898371300000065,6.1641420000000267]},"properties":{"objectid":1,"name":"ALMAMALI HOTEL","address":"HEDAKETIYA,ANGUNUKOLAPELESSA","rooms":12,"grade":"B","district":"Hambantota","aga_division":"Batticaloa","ps_mc_uc":"Angunakolapelessa Divisional Secretariat","logitiute":80.898371300000008,"latitude":6.164142,"orig_fid":-1}},{"type":"Feature","id":2,"geometry":{"type":"Point","coordinates":[80.362637900000038,7.4893989000000261]},"properties":{"objectid":2,"name":"BUWANEKA HOTEL AND RESTAURANT","address":"NO 01,DAMBULLA ROAD,KURUNEGALA","rooms":7,"grade":"B","district":"Kurunegala","aga_division":"Kurunegala","ps_mc_uc":"Kurunegala Divisional Secretariat","logitiute":80.362637899999996,"latitude":7.4893989000000003,"orig_fid":-1}},{"type":"Feature","id":3,"geometry":{"type":"Point","coordinates":[79.838623000000041,7.1354940000000511]},"properties":{"objectid":3,"name":"HOTEL LAGOON PARADISE","address":"NO. 12/7,RAJAWATTE,PAMUNUGAMA","rooms":8,"grade":"A","district":"Gampaha","aga_division":"Negombo","ps_mc_uc":"Negombo Divisional Secretariat","logitiute":79.838622999999998,"latitude":7.1354939999999996,"orig_fid":-1}},{"type":"Feature","id":4,"geometry":{"type":"Point","coordinates":[80.442372000000034,7.2481930000000716]},"properties":{"objectid":4,"name":"AMBASEVANA WALAUWA","address":"ARANAYAKE ROAD,USSAPITIYA,KEGALLE.","rooms":7,"grade":"A","district":"Kegalle","aga_division":"Kegalle","ps_mc_uc":"Aranayaka Divisional Secretariat","logitiute":80.442372000000006,"latitude":7.2481929999999997,"orig_fid":-1}},{"type":"Feature","id":5,"geometry":{"type":"Point","coordinates":[80.051208000000031,6.2372650000000363]},"properties":{"objectid":5,"name":"SHANGRELA BEACH RESORT","address":"38, SEA BEACH ROAD, AMBALANGODA","rooms":19,"grade":"B","district":"Galle","aga_division":"Ambalangoda","ps_mc_uc":"Galle Divisional Secretariat","logitiute":80.051207999999988,"latitude":6.2372649999999998,"orig_fid":-1}},{"type":"Feature","id":6,"geometry":{"type":"Point","coordinates":[80.406388400000083,8.3208563000000595]},"properties":{"objectid":6,"name":"GRAND CROWN HOTEL","address":"891,MILAGAS JUNCTION,ANURADHAPURA","rooms":10,"grade":"A","district":"Anuradhapura","aga_division":"Anuradhapura","ps_mc_uc":"Anuradhapura East","logitiute":80.406388399999997,"latitude":8.3208563000000009,"orig_fid":-1}},{"type":"Feature","id":7,"geometry":{"type":"Point","coordinates":[79.894116000000054,7.0683650000000284]},"properties":{"objectid":7,"name":"JAYALATH INN","address":"NO.269,WELIGAMPITIYA, JAELA","rooms":6,"grade":"C","district":"Gampaha","aga_division":"Gampaha","ps_mc_uc":"Ja-Ela Divisional Secretariat","logitiute":79.894115999999997,"latitude":7.068365,"orig_fid":-1}},{"type":"Feature","id":8,"geometry":{"type":"Point","coordinates":[80.78843100000006,6.0179250000000479]},"properties":{"objectid":8,"name":"NUGASEWANA EDEN GUEST HOUSE AND RESTAURANT","address":"\"NUGASEWANA\",PALLIKKUDAWA,TANGALLE.","rooms":6,"grade":"B","district":"Hambantota","aga_division":"Tangalle Pradeshiya Sabha","ps_mc_uc":"Tangalle Divisional Secretariat","logitiute":80.788431000000003,"latitude":6.017925,"orig_fid":-1}},{"type":"Feature","id":9,"geometry":{"type":"Point","coordinates":[80.364746000000082,7.4963780000000497]},"properties":{"objectid":9,"name":"VIVEKA GUEST HOUSE","address":"64,NORTH LAKE ROAD,KURUNAGALA.","rooms":5,"grade":"A","district":"Kurunegala","aga_division":"Kurunegala","ps_mc_uc":"Kurunegala Divisional Secretariat","logitiute":80.364745999999997,"latitude":7.496378,"orig_fid":-1}},{"type":"Feature","id":10,"geometry":{"type":"Point","coordinates":[79.850259000000051,6.9092900000000554]},"properties":{"objectid":10,"name":"JULIANA HOTEL","address":"NO.316,GALLE ROAD,COLOMBO 3","rooms":51,"grade":"A","district":"Colombo","aga_division":"Colombo","ps_mc_uc":"Colombo Divisional Secretariat","logitiute":79.850258999999994,"latitude":6.9092900000000004,"orig_fid":-1}},{"type":"Feature","id":11,"geometry":{"type":"Point","coordinates":[80.417373000000055,6.4434680000000526]},"properties":{"objectid":11,"name":"THE BLUE MAGPIE","address":"KUDAWA WEDDAGALA, KALAWANA","rooms":12,"grade":"A","district":"Ratnapura","aga_division":"Ratnapura","ps_mc_uc":"Kalawana Divisional Secretariat","logitiute":80.417372999999998,"latitude":6.4434680000000002,"orig_fid":-1}},{"type":"Feature","id":12,"geometry":{"type":"Point","coordinates":[80.698155000000042,7.0558110000000624]},"properties":{"objectid":12,"name":"RAMBODA FALLS HOTEL","address":"76, ROCK FALL ESTATE, NUWARA ELIYA ROAD, RAMBODA","rooms":24,"grade":"A","district":"Nuwara Eliya","aga_division":"Nuwara Eliya","ps_mc_uc":"Nuwara Eliya Divisional Secretariat","logitiute":80.698155,"latitude":7.0558109999999994,"orig_fid":-1}},{"type":"Feature","id":13,"geometry":{"type":"Point","coordinates":[79.854373000000066,6.9149760000000242]},"properties":{"objectid":13,"name":"LAKE LODGE GUEST HOUSE","address":"NO.20, ALWIS TERRACE, COLOMBO 03.","rooms":13,"grade":"A","district":"Colombo","aga_division":"Colombo","ps_mc_uc":"Thimbirigasyaya Divisional Secretariat","logitiute":79.854372999999995,"latitude":6.9149760000000002,"orig_fid":-1}},{"type":"Feature","id":14,"geometry":{"type":"Point","coordinates":[80.779024000000049,8.0312690000000657]},"properties":{"objectid":14,"name":"ASNARA VILLAGE","address":"MORAGASWEWA,HABARANA.","rooms":12,"grade":"A","district":"Polonnaruwa","aga_division":"Hingurakgoda Pradeshiya Sabha","ps_mc_uc":"Hingurakgoda Divisional Secretariat","logitiute":80.779023999999993,"latitude":8.031269,"orig_fid":-1}},{"type":"Feature","id":15,"geometry":{"type":"Point","coordinates":[80.737040000000036,7.3268920000000435]},"properties":{"objectid":15,"name":"POLWATHTHA ECO-LODGES","address":"69/1, WEPATHANA, GOMAGODA.","rooms":5,"grade":"B","district":"Kandy","aga_division":"Kandy","ps_mc_uc":"Kundasale Divisional Secretariat","logitiute":80.737039999999993,"latitude":7.3268920000000008,"orig_fid":-1}},{"type":"Feature","id":16,"geometry":{"type":"Point","coordinates":[80.677257000000054,7.9102210000000355]},"properties":{"objectid":16,"name":"HOTEL SANDA DIYA","address":"POLONNARUWA ROAD,PELWEHERA,DAMBULLA.","rooms":6,"grade":"A","district":"Matale","aga_division":"Dambulla Pradeshiya Sabha","ps_mc_uc":"Dambulla Divisional Secretariat","logitiute":80.677256999999997,"latitude":7.9102209999999999,"orig_fid":-1}},{"type":"Feature","id":17,"geometry":{"type":"Point","coordinates":[79.97774000000004,6.457364000000041]},"properties":{"objectid":17,"name":"NEW PANORAMA","address":"NO 302/1, MARADANA ROAD, MORAGALLA, BERUWALA","rooms":9,"grade":"B","district":"Kalutara","aga_division":"Beruwala Pradeshiya Sabha","ps_mc_uc":"Beruwala Divisional Secretariat","logitiute":79.977739999999997,"latitude":6.4573640000000001,"orig_fid":-1}},{"type":"Feature","id":18,"geometry":{"type":"Point","coordinates":[79.994808000000035,6.4288090000000579]},"properties":{"objectid":18,"name":"MARINA BENTOTA","address":"PARADISE ISLAND, NATIONAL HOLIDAY RESORT, BENTOTA.","rooms":13,"grade":"A","district":"Galle","aga_division":"Bentota Pradeshiya Sabha","ps_mc_uc":"Benthota Divisional Secretariat","logitiute":79.994807999999992,"latitude":6.4288090000000002,"orig_fid":-1}},{"type":"Feature","id":19,"geometry":{"type":"Point","coordinates":[80.565161000000046,5.9421970000000215]},"properties":{"objectid":19,"name":"PEARL CLIFF HOTEL","address":"NO.25C, BROWNS HILL, MATARA","rooms":10,"grade":"A","district":"Matara","aga_division":"Matara","ps_mc_uc":"Matara Divisional Secretariat","logitiute":80.565161000000003,"latitude":5.9421970000000002,"orig_fid":-1}},{"type":"Feature","id":20,"geometry":{"type":"Point","coordinates":[80.294133000000045,5.9941960000000449]},"properties":{"objectid":20,"name":"CANTALOUPE VILLAS","address":"MATARA ROAD, PALATUGAHA JUNCTION, HABARADUWA","rooms":16,"grade":"A","district":"Galle","aga_division":"Habaraduwa","ps_mc_uc":"Habaraduwa Divisional Secretariat","logitiute":80.294133000000002,"latitude":5.9941960000000005,"orig_fid":-1}},{"type":"Feature","id":21,"geometry":{"type":"Point","coordinates":[80.501698000000033,8.7540490000000659]},"properties":{"objectid":21,"name":"ROYAL GARDEN GUEST HOUSE","address":"200,HOROWAPOTHANA ROAD,VAVUNIYA","rooms":5,"grade":"B","district":"Vavuniya","aga_division":"Vavuniya","ps_mc_uc":"Vavuniya","logitiute":80.50169799999999,"latitude":8.7540490000000002,"orig_fid":-1}},{"type":"Feature","id":22,"geometry":{"type":"Point","coordinates":[79.915921000000083,6.7718750000000227]},"properties":{"objectid":22,"name":"DAMPE VILLAGE","address":"222,DAMPE,MADAPATHA.","rooms":11,"grade":"A","district":"Colombo","aga_division":"Kesbewa","ps_mc_uc":"Kesbewa Divisional Secretariat","logitiute":79.915920999999997,"latitude":6.7718749999999996,"orig_fid":-1}},{"type":"Feature","id":23,"geometry":{"type":"Point","coordinates":[80.266027000000065,5.999494000000027]},"properties":{"objectid":23,"name":"JASMINE INN","address":"MATARA ROAD, TALPE","rooms":12,"grade":"B","district":"Galle","aga_division":"Habaraduwa","ps_mc_uc":"Habaraduwa Divisional Secretariat","logitiute":80.266027000000008,"latitude":5.9994939999999994,"orig_fid":-1}},{"type":"Feature","id":24,"geometry":{"type":"Point","coordinates":[79.90962200000007,6.7636870000000613]},"properties":{"objectid":24,"name":"AQUA PEARL LAKE RESORT","address":"201, GALKANUWA ROAD, GORAKANA MORATUWA","rooms":20,"grade":"A","district":"Colombo","aga_division":"Moratuwa","ps_mc_uc":"Moratuwa Divisional Secretariat","logitiute":79.909621999999999,"latitude":6.763687,"orig_fid":-1}},{"type":"Feature","id":25,"geometry":{"type":"Point","coordinates":[79.841867000000036,7.2403340000000753]},"properties":{"objectid":25,"name":"SEA PORT GUEST HOUSE","address":"NO.70, ETHUKALA, NEGOMBO","rooms":10,"grade":"A","district":"Gampaha","aga_division":"Negombo","ps_mc_uc":"Negombo Divisional Secretariat","logitiute":79.841867000000008,"latitude":7.2403340000000007,"orig_fid":-1}},{"type":"Feature","id":26,"geometry":{"type":"Point","coordinates":[79.863959000000079,6.9415400000000318]},"properties":{"objectid":26,"name":"BRIGHTEN REST","address":"214/2, MESSENGER STREET , COLOMBO 12","rooms":24,"grade":"A","district":"Colombo","aga_division":"Colombo","ps_mc_uc":"Colombo Divisional Secretariat","logitiute":79.863958999999994,"latitude":6.9415399999999998,"orig_fid":-1}},{"type":"Feature","id":27,"geometry":{"type":"Point","coordinates":[80.416088000000059,8.3320070000000328]},"properties":{"objectid":27,"name":"COTTAGE TOURIST REST","address":"388/38, HARISCHANDRA MAWATHA, ANURADHAPURA","rooms":6,"grade":"B","district":"Anuradhapura","aga_division":"Anuradhapura","ps_mc_uc":"Anuradhapura East","logitiute":80.416088000000002,"latitude":8.3320070000000008,"orig_fid":-1}},{"type":"Feature","id":28,"geometry":{"type":"Point","coordinates":[79.908237000000042,6.8579030000000216]},"properties":{"objectid":28,"name":"GIHANS FAMILY RESTAURANT AND GUEST","address":"NO 90, S. D. S JAYASINGHE MAWATHA, KOHUWALA","rooms":5,"grade":"B","district":"Colombo","aga_division":"Dehiwala-Mount Lavinia","ps_mc_uc":"Colombo Divisional Secretariat","logitiute":79.908237,"latitude":6.8579030000000003,"orig_fid":-1}},{"type":"Feature","id":29,"geometry":{"type":"Point","coordinates":[80.048479000000043,7.1091190000000211]},"properties":{"objectid":29,"name":"LINROSE HOTEL","address":"175/1, KANDY ROAD, ALUTHGAMA, BOGAMUWA, YAKKALA","rooms":9,"grade":"A","district":"Gampaha","aga_division":"Gampaha","ps_mc_uc":"Gampaha Divisional Secretariat","logitiute":80.048479,"latitude":7.1091189999999997,"orig_fid":-1}},{"type":"Feature","id":30,"geometry":{"type":"Point","coordinates":[80.556558000000052,6.1386210000000574]},"properties":{"objectid":30,"name":"DHARSHANA RESTAURANT","address":"MATARA ROAD, MAKANDURA","rooms":5,"grade":"B","district":"Matara","aga_division":"Mulatiyana Pradeshiya Sabha","ps_mc_uc":"Mulatiyana Divisional Secretariat","logitiute":80.556557999999995,"latitude":6.1386210000000005,"orig_fid":-1}},{"type":"Feature","id":31,"geometry":{"type":"Point","coordinates":[79.93294700000007,6.984369000000072]},"properties":{"objectid":31,"name":"MONREPO GUEST HOUSE AND RESTAURANT","address":"NO 107, GALA JUNCTION KANDY ROAD KIRIBATHGODA","rooms":17,"grade":"B","district":"Gampaha","aga_division":"Mahara Pradeshiya Sabha","ps_mc_uc":"Gampaha Divisional Secretariat","logitiute":79.932946999999999,"latitude":6.984369,"orig_fid":-1}},{"type":"Feature","id":32,"geometry":{"type":"Point","coordinates":[80.742822000000047,8.038626000000022]},"properties":{"objectid":32,"name":"THE OTHER CORNER","address":"LAKSIRIGAMA, PALIGASWEWA, HABARANA","rooms":9,"grade":"A","district":"Anuradhapura","aga_division":"Anuradhapura","ps_mc_uc":"Anuradhapura East","logitiute":80.742822000000004,"latitude":8.0386260000000007,"orig_fid":-1}},{"type":"Feature","id":33,"geometry":{"type":"Point","coordinates":[80.594895000000065,7.0639060000000313]},"properties":{"objectid":33,"name":"NEW KOTHMALE HOLIDAY RESORT","address":"RIVER SIDE,MAWATURA,GAMPOLA.","rooms":5,"grade":"A","district":"Kandy","aga_division":"Gampola","ps_mc_uc":"Kandy Divisional Secretariat","logitiute":80.594895000000008,"latitude":7.0639060000000002,"orig_fid":-1}},{"type":"Feature","id":34,"geometry":{"type":"Point","coordinates":[79.866431000000034,6.8517570000000205]},"properties":{"objectid":34,"name":"WAGON WHEEL","address":"245/1, HILL HOUSE GARDENS,DEHIWALA.","rooms":5,"grade":"A","district":"Colombo","aga_division":"Dehiwala-Mount Lavinia","ps_mc_uc":"Dehiwala Divisional Secretariat","logitiute":79.866431000000006,"latitude":6.8517570000000001,"orig_fid":-1}},{"type":"Feature","id":35,"geometry":{"type":"Point","coordinates":[80.505763000000059,7.6263490000000616]},"properties":{"objectid":35,"name":"SOBA LANKA HOLIDAY RESORT","address":"BALAWATTALA ROAD, MELSIRIPURA.","rooms":9,"grade":"B","district":"Kurunegala","aga_division":"Ibbagamuwa Pradeshiya Sabha","ps_mc_uc":"Ibbagamuwa Divisional Secretariat","logitiute":80.505763000000002,"latitude":7.6263490000000003,"orig_fid":-1}},{"type":"Feature","id":36,"geometry":{"type":"Point","coordinates":[79.922276000000068,6.6739970000000426]},"properties":{"objectid":36,"name":"NEW WADDUWA BEACH RESORT","address":"NO 14, RATHNAYAKA PLACE, THALPITIYA SOUTH, WADDUWA","rooms":11,"grade":"A","district":"Kalutara","aga_division":"Panadura Pradeshiya Sabha","ps_mc_uc":"Panadura Divisional Secretariat","logitiute":79.922276000000011,"latitude":6.673997,"orig_fid":-1}},{"type":"Feature","id":37,"geometry":{"type":"Point","coordinates":[79.847602000000052,6.9147660000000428]},"properties":{"objectid":37,"name":"COLOMBO SWIMMING CLUB","address":"STORM LODGE, NO 148, GALLE ROAD, COLOMBO 03","rooms":17,"grade":"A","district":"Colombo","aga_division":"Colombo","ps_mc_uc":"Thimbirigasyaya Divisional Secretariat","logitiute":79.847601999999995,"latitude":6.9147660000000002,"orig_fid":-1}},{"type":"Feature","id":38,"geometry":{"type":"Point","coordinates":[79.990433000000053,6.4455420000000458]},"properties":{"objectid":38,"name":"RIVERDALE VILLAS","address":"NO 46, GALLE ROAD, MORAGALLA, ALUTHGAMA","rooms":8,"grade":"A","district":"Kalutara","aga_division":"Beruwala Pradeshiya Sabha","ps_mc_uc":"Beruwala Divisional Secretariat","logitiute":79.990432999999996,"latitude":6.4455419999999997,"orig_fid":-1}},{"type":"Feature","id":39,"geometry":{"type":"Point","coordinates":[79.940755000000081,6.7942580000000703]},"properties":{"objectid":39,"name":"NITHILA INN","address":"228/J, BANDARAGAMA ROAD, KESBEWA","rooms":6,"grade":"B","district":"Colombo","aga_division":"Kesbewa","ps_mc_uc":"Kesbewa Divisional Secretariat","logitiute":79.94075500000001,"latitude":6.7942580000000001,"orig_fid":-1}},{"type":"Feature","id":40,"geometry":{"type":"Point","coordinates":[80.099906000000033,6.730412000000058]},"properties":{"objectid":40,"name":"DIL REST","address":"RATNAPURA ROAD, GURUGODA, HORANA","rooms":6,"grade":"A","district":"Kalutara","aga_division":"Horana Pradeshiya Sabha","ps_mc_uc":"Horana Divisional Secretariat","logitiute":80.099906000000004,"latitude":6.7304120000000003,"orig_fid":-1}},{"type":"Feature","id":41,"geometry":{"type":"Point","coordinates":[79.930813000000057,6.6553530000000478]},"properties":{"objectid":41,"name":"OCEAN VILLA","address":"NO. 14, JOHN KEELS HOUSING COMPLEX, PINWATTA, PANADURA","rooms":4,"grade":"A","district":"Kalutara","aga_division":"Panadura Pradeshiya Sabha","ps_mc_uc":"Panadura Divisional Secretariat","logitiute":79.930813000000001,"latitude":6.6553530000000007,"orig_fid":-1}},{"type":"Feature","id":42,"geometry":{"type":"Point","coordinates":[80.44621200000006,8.3463190000000509]},"properties":{"objectid":42,"name":"SYZYGY GARDEN","address":"NO. 475, KURUNDANKULAMA ANURADHAPURA","rooms":7,"grade":"B","district":"Anuradhapura","aga_division":"Anuradhapura","ps_mc_uc":"Anuradhapura East","logitiute":80.446212000000003,"latitude":8.3463189999999994,"orig_fid":-1}},{"type":"Feature","id":43,"geometry":{"type":"Point","coordinates":[80.084443000000078,6.9305420000000595]},"properties":{"objectid":43,"name":"KANRO HOLIDAY RESORT","address":"NO. 117, HANWELLA ROAD, TITTAPATHTHARA","rooms":7,"grade":"B","district":"Gampaha","aga_division":"Gampaha","ps_mc_uc":"Gampaha Divisional Secretariat","logitiute":80.084443000000007,"latitude":6.930542,"orig_fid":-1}},{"type":"Feature","id":44,"geometry":{"type":"Point","coordinates":[81.046036000000072,6.8711620000000266]},"properties":{"objectid":44,"name":"THE MOUNTAIN HEAVENS","address":"KITHAL ELLA, ELLA","rooms":9,"grade":"A","district":"Badulla","aga_division":"Ella Pradeshiya Sabha","ps_mc_uc":"Ella Divisional Secretariat","logitiute":81.046036000000001,"latitude":6.871162,"orig_fid":-1}},{"type":"Feature","id":45,"geometry":{"type":"Point","coordinates":[80.536898000000065,5.9483470000000693]},"properties":{"objectid":45,"name":"SOLIS TOURIST REST","address":"NO. 217, NUPE, MATARA","rooms":10,"grade":"A","district":"Matara","aga_division":"Matara","ps_mc_uc":"Matara Divisional Secretariat","logitiute":80.536897999999994,"latitude":5.9483470000000001,"orig_fid":-1}},{"type":"Feature","id":46,"geometry":{"type":"Point","coordinates":[80.653899000000081,7.846443000000022]},"properties":{"objectid":46,"name":"ANON REST","address":"YAPAGAMA, MATALE ROAD, DAMBULLA","rooms":18,"grade":"A","district":"Matale","aga_division":"Dambulla Pradeshiya Sabha","ps_mc_uc":"Dambulla Divisional Secretariat","logitiute":80.65389900000001,"latitude":7.8464429999999998,"orig_fid":-1}},{"type":"Feature","id":47,"geometry":{"type":"Point","coordinates":[79.855433000000062,6.8839140000000612]},"properties":{"objectid":47,"name":"HOTEL WESTEERN","address":"NO. 35, FRANKFURT PLACE, COLOMBO 04","rooms":44,"grade":"A","district":"Colombo","aga_division":"Colombo","ps_mc_uc":"Colombo Divisional Secretariat","logitiute":79.855433000000005,"latitude":6.8839139999999999,"orig_fid":-1}},{"type":"Feature","id":48,"geometry":{"type":"Point","coordinates":[80.077071000000046,6.9091870000000313]},"properties":{"objectid":48,"name":"HOTEL GREEN VALLEY","address":"OLD COLOMBO ROAD, HANWELLA","rooms":18,"grade":"A","district":"Colombo","aga_division":"Colombo","ps_mc_uc":"Colombo Divisional Secretariat","logitiute":80.077071000000004,"latitude":6.9091870000000002,"orig_fid":-1}},{"type":"Feature","id":49,"geometry":{"type":"Point","coordinates":[79.991388000000029,6.4452240000000529]},"properties":{"objectid":49,"name":"LAGOON GARDEN","address":"KALAWILAWATTA, MORAGALLA, ALUTHGAMA","rooms":5,"grade":"B","district":"Kalutara","aga_division":"Beruwala Pradeshiya Sabha","ps_mc_uc":"Beruwala Divisional Secretariat","logitiute":79.991388000000001,"latitude":6.4452239999999996,"orig_fid":-1}},{"type":"Feature","id":50,"geometry":{"type":"Point","coordinates":[80.385921000000053,7.2988370000000486]},"properties":{"objectid":50,"name":"HOTEL ELEPHANT VIEW","address":"PINNAWALA, RAMBUKKANA","rooms":4,"grade":"A","district":"Kegalle","aga_division":"Rambukkana Pradeshiya Sabha","ps_mc_uc":"Rambukkana Divisional Secretariat","logitiute":80.38592100000001,"latitude":7.2988369999999998,"orig_fid":-1}},{"type":"Feature","id":51,"geometry":{"type":"Point","coordinates":[80.068738000000053,7.124225000000024]},"properties":{"objectid":51,"name":"HOTEL ROSILU","address":"NO. 60/5/A, KANDY ROAD, THIHARIYA, KALAGEDIHENA","rooms":6,"grade":"B","district":"Gampaha","aga_division":"Attanagalla Pradeshiya Sabha","ps_mc_uc":"Attanagalla Divisional Secretariat","logitiute":80.06873800000001,"latitude":7.124225,"orig_fid":-1}},{"type":"Feature","id":52,"geometry":{"type":"Point","coordinates":[80.428744000000052,7.2519000000000347]},"properties":{"objectid":52,"name":"ISHAN HOTEL","address":"NO. 583, COLOMBO ROAD, UTUWANKANDA, MAWANELLA","rooms":10,"grade":"A","district":"Kegalle","aga_division":"Kegalle","ps_mc_uc":"Mawanella Divisional Secretariat","logitiute":80.428744000000009,"latitude":7.2519,"orig_fid":-1}},{"type":"Feature","id":53,"geometry":{"type":"Point","coordinates":[80.348913000000039,5.9782030000000645]},"properties":{"objectid":53,"name":"SURFING VILLA","address":"WELHANGODA, AHANGAMA,","rooms":6,"grade":"B","district":"Galle","aga_division":"Habaraduwa","ps_mc_uc":"Habaraduwa Divisional Secretariat","logitiute":80.348912999999996,"latitude":5.9782030000000006,"orig_fid":-1}},{"type":"Feature","id":54,"geometry":{"type":"Point","coordinates":[80.104097000000081,6.1280100000000743]},"properties":{"objectid":54,"name":"HOTEL BLUE NOTE","address":"NO. 424, GALLE ROAD, HIKKADUWA","rooms":9,"grade":"B","district":"Galle","aga_division":"Hikkaduwa","ps_mc_uc":"Hikkaduwa Divisional Secretariat","logitiute":80.104096999999996,"latitude":6.1280099999999997,"orig_fid":-1}},{"type":"Feature","id":55,"geometry":{"type":"Point","coordinates":[79.95991900000007,8.0575580000000286]},"properties":{"objectid":55,"name":"OLANKA HOTEL AND RESTAURANT","address":"NO. 9TH LANE, MILE POST, KARUWALAGASWEWA, PUTTLAM","rooms":8,"grade":"B","district":"Puttalam","aga_division":"Karuwalagaswewa Pradeshiya","ps_mc_uc":"Karuwalagaswewa Divisional Secretariat","logitiute":79.959918999999999,"latitude":8.0575579999999984,"orig_fid":-1}},{"type":"Feature","id":56,"geometry":{"type":"Point","coordinates":[79.975532000000044,6.4675350000000549]},"properties":{"objectid":56,"name":"HOTEL SUMADAI","address":"NO. 61, BANDARAWATHTHA, BERUWALA","rooms":21,"grade":"A","district":"Kalutara","aga_division":"Beruwala Pradeshiya Sabha","ps_mc_uc":"Beruwala Divisional Secretariat","logitiute":79.975532000000001,"latitude":6.4675349999999998,"orig_fid":-1}},{"type":"Feature","id":57,"geometry":{"type":"Point","coordinates":[79.848440000000039,7.0851790000000392]},"properties":{"objectid":57,"name":"VILLA PALMA BEACH RESORT","address":"BEACH ROAD, PAMUNUGAMA, JA-ELA","rooms":19,"grade":"A","district":"Gampaha","aga_division":"Gampaha","ps_mc_uc":"Ja-Ela Divisional Secretariat","logitiute":79.848439999999997,"latitude":7.0851790000000001,"orig_fid":-1}},{"type":"Feature","id":58,"geometry":{"type":"Point","coordinates":[79.877075000000048,7.1263300000000527]},"properties":{"objectid":58,"name":"AIR LINK REST INN","address":"NO. 580, NEGOMBO ROAD, SEEDUWA","rooms":15,"grade":"A","district":"Gampaha","aga_division":"Katunayake-Seeduwa","ps_mc_uc":"Katana Divisional Secretariat","logitiute":79.877074999999991,"latitude":7.1263299999999994,"orig_fid":-1}},{"type":"Feature","id":59,"geometry":{"type":"Point","coordinates":[79.907996000000082,6.982729000000063]},"properties":{"objectid":59,"name":"AUBRONA HOTEL","address":"NO. 81, NEW ROAD, HUNUPITIYA WATTALA","rooms":50,"grade":"A","district":"Gampaha","aga_division":"Kelaniya Pradeshiya Sabha","ps_mc_uc":"Kelaniya Divisional Secretariat","logitiute":79.907995999999997,"latitude":6.982729,"orig_fid":-1}},{"type":"Feature","id":60,"geometry":{"type":"Point","coordinates":[80.246331000000055,6.0097790000000373]},"properties":{"objectid":60,"name":"HOTEL DHAMMIKA","address":"YADDEHIMULLA ROAD, UNAWATUNA, GALLE","rooms":6,"grade":"B","district":"Galle","aga_division":"Habaraduwa","ps_mc_uc":"Habaraduwa Divisional Secretariat","logitiute":80.246331000000012,"latitude":6.009779,"orig_fid":-1}},{"type":"Feature","id":61,"geometry":{"type":"Point","coordinates":[80.021092000000067,6.8402810000000613]},"properties":{"objectid":61,"name":"AMALYA REACH RESORT","address":"NO. 556, MORAGAHAHENA ROAD, PITIPANA NORTH, HOMAGAMA","rooms":16,"grade":"A","district":"Colombo","aga_division":"Homagama Pradeshiya Sabha","ps_mc_uc":"Homagama Divisional Secretariat","logitiute":80.021091999999996,"latitude":6.8402810000000001,"orig_fid":-1}},{"type":"Feature","id":62,"geometry":{"type":"Point","coordinates":[80.118417000000079,6.1416800000000649]},"properties":{"objectid":62,"name":"ASIAN JEWEL HOTEL","address":"\"FIELD VIEW\", BADDEGAMA ROAD, NALAGASDENIYA, HIKKADUWA","rooms":7,"grade":"B","district":"Galle","aga_division":"Hikkaduwa","ps_mc_uc":"Hikkaduwa Divisional Secretariat","logitiute":80.118416999999994,"latitude":6.14168,"orig_fid":-1}},{"type":"Feature","id":63,"geometry":{"type":"Point","coordinates":[80.202998000000036,8.2606780000000413]},"properties":{"objectid":63,"name":"LEOPARD DEN","address":"WILPATTU JUNCTION, PAHALAMARAGAHAWEWA","rooms":12,"grade":"A","district":"Anuradhapura","aga_division":"Anuradhapura","ps_mc_uc":"Anuradhapura East","logitiute":80.202997999999994,"latitude":8.2606780000000004,"orig_fid":-1}},{"type":"Feature","id":64,"geometry":{"type":"Point","coordinates":[80.105590000000063,6.1271810000000642]},"properties":{"objectid":64,"name":"NEW IMPERIAL GUEST HOUSE","address":"NO. 500, GALLE ROAD, WEWALA, HIKKADUWA","rooms":5,"grade":"B","district":"Galle","aga_division":"Hikkaduwa","ps_mc_uc":"Hikkaduwa Divisional Secretariat","logitiute":80.105590000000007,"latitude":6.1271810000000002,"orig_fid":-1}},{"type":"Feature","id":65,"geometry":{"type":"Point","coordinates":[79.94518000000005,7.1228430000000458]},"properties":{"objectid":65,"name":"NEDAGAMUWA VILLAGE INN","address":"NO. 76, UDUGAMPOLA ROAD, NEDUGAMUWA, KOTUGODA","rooms":7,"grade":"A","district":"Gampaha","aga_division":"Minuwangoda Pradeshiya Sabha","ps_mc_uc":"Minuwangoda Divisional Secretariat","logitiute":79.945179999999993,"latitude":7.1228429999999996,"orig_fid":-1}},{"type":"Feature","id":66,"geometry":{"type":"Point","coordinates":[81.030733000000055,6.7282800000000407]},"properties":{"objectid":66,"name":"DIYALUMA FALLS INN","address":"NO. 14, DIYALUMA, KOSLANDA","rooms":9,"grade":"A","district":"Badulla","aga_division":"Haldummulla Pradeshiya Sabha","ps_mc_uc":"Haldummulla Divisional Secretariat","logitiute":81.030732999999998,"latitude":6.7282799999999998,"orig_fid":-1}},{"type":"Feature","id":67,"geometry":{"type":"Point","coordinates":[79.87409800000006,7.1460480000000643]},"properties":{"objectid":67,"name":"NATHALIA TOURIST HOTEL","address":"NO. 636/1, LIYANAGEMULLA, SEEDUWA","rooms":12,"grade":"B","district":"Gampaha","aga_division":"Katana Pradeshiya Sabha","ps_mc_uc":"Katana Divisional Secretariat","logitiute":79.874097999999989,"latitude":7.1460479999999995,"orig_fid":-1}},{"type":"Feature","id":68,"geometry":{"type":"Point","coordinates":[79.896623000000034,6.7642550000000483]},"properties":{"objectid":68,"name":"RAASHI LAKE RESORT","address":"374/4, GALLE ROAD, GORAKANA, KESELWATTE","rooms":16,"grade":"B","district":"Kalutara","aga_division":"Panadura Pradeshiya Sabha","ps_mc_uc":"Panadura Divisional Secretariat","logitiute":79.896623000000005,"latitude":6.7642549999999995,"orig_fid":-1}},{"type":"Feature","id":69,"geometry":{"type":"Point","coordinates":[80.262016000000074,6.0005090000000223]},"properties":{"objectid":69,"name":"SRI GEMUNU GUEST HOUSE","address":"DALAWELLA, UNAWATUNA, GALLE","rooms":20,"grade":"A","district":"Galle","aga_division":"Habaraduwa","ps_mc_uc":"Habaraduwa Divisional Secretariat","logitiute":80.262016000000003,"latitude":6.0005090000000001,"orig_fid":-1}},{"type":"Feature","id":70,"geometry":{"type":"Point","coordinates":[80.673613000000046,7.2750990000000684]},"properties":{"objectid":70,"name":"VICTORIYA REACH TOURIST GUEST HOUSE","address":"133/2, HANGURANKETHA ROAD, GURUDENIYA.","rooms":6,"grade":"B","district":"Kandy","aga_division":"Kandy","ps_mc_uc":"Kandy Divisional Secretariat","logitiute":80.673612999999989,"latitude":7.275099,"orig_fid":-1}},{"type":"Feature","id":71,"geometry":{"type":"Point","coordinates":[81.347934000000066,6.8687470000000417]},"properties":{"objectid":71,"name":"VICTORY INN","address":"NO. 65, WELLAWAYA ROAD, MONARAGALA","rooms":12,"grade":"A","district":"Moneragala","aga_division":"Thissamaharama","ps_mc_uc":"Moneragala Divisional Secretariat","logitiute":81.347933999999995,"latitude":6.8687470000000008,"orig_fid":-1}},{"type":"Feature","id":72,"geometry":{"type":"Point","coordinates":[79.945353000000068,6.7431630000000382]},"properties":{"objectid":72,"name":"SUMMER CLUB","address":"RIVER VIEW ROAD, HIRANA, PANADURA","rooms":5,"grade":"B","district":"Kalutara","aga_division":"Panadura Pradeshiya Sabha","ps_mc_uc":"Panadura Divisional Secretariat","logitiute":79.945352999999997,"latitude":6.743163,"orig_fid":-1}},{"type":"Feature","id":73,"geometry":{"type":"Point","coordinates":[80.336367000000052,5.9826290000000313]},"properties":{"objectid":73,"name":"SOUTH BEACH RESORT","address":"POLOYAMODARA WATTHA, KATHALUWA, AHANGAMA","rooms":22,"grade":"A","district":"Galle","aga_division":"Habaraduwa","ps_mc_uc":"Habaraduwa Divisional Secretariat","logitiute":80.336366999999996,"latitude":5.9826289999999993,"orig_fid":-1}},{"type":"Feature","id":74,"geometry":{"type":"Point","coordinates":[79.84263100000004,7.2401800000000662]},"properties":{"objectid":74,"name":"ST. LACHLAN HOTEL AND SUITES","address":"NO. 25, ST ANTHONYS LANE, ETHUKALA, NEGOMBO","rooms":16,"grade":"A","district":"Gampaha","aga_division":"Negombo","ps_mc_uc":"Negombo Divisional Secretariat","logitiute":79.842631000000011,"latitude":7.2401799999999996,"orig_fid":-1}},{"type":"Feature","id":75,"geometry":{"type":"Point","coordinates":[80.243747000000042,6.0103990000000636]},"properties":{"objectid":75,"name":"SEA VIEW GUEST HOUSE","address":"DEVALA ROAD, UNAWATUNA, GALLE","rooms":12,"grade":"B","district":"Galle","aga_division":"Habaraduwa","ps_mc_uc":"Habaraduwa Divisional Secretariat","logitiute":80.243746999999999,"latitude":6.0103989999999996,"orig_fid":-1}},{"type":"Feature","id":76,"geometry":{"type":"Point","coordinates":[80.078141000000073,6.8540480000000343]},"properties":{"objectid":76,"name":"SERENE BRIDGE RESORT","address":"NO. 182/2, HIGH LEVEL ROAD, WATARAKA, PADUKKA","rooms":10,"grade":"A","district":"Colombo","aga_division":"Homagama Pradeshiya Sabha","ps_mc_uc":"Homagama Divisional Secretariat","logitiute":80.078141000000002,"latitude":6.8540479999999997,"orig_fid":-1}},{"type":"Feature","id":77,"geometry":{"type":"Point","coordinates":[80.435170000000085,6.9901790000000688]},"properties":{"objectid":77,"name":"HOTEL MIYORA","address":"YATIBERIYA, PITAWALA, NAWALAPITIYA","rooms":22,"grade":"A","district":"Nuwara Eliya","aga_division":"Nawalapitiya","ps_mc_uc":"Nuwara Eliya Divisional Secretariat","logitiute":80.435169999999999,"latitude":6.9901790000000004,"orig_fid":-1}},{"type":"Feature","id":78,"geometry":{"type":"Point","coordinates":[79.947030000000041,7.1637020000000575]},"properties":{"objectid":78,"name":"OLD FASHION GUEST HOUSE","address":"NO. 18, GAMPAHA ROAD, AMBAGAHAWATTA, MINUWANGODA","rooms":5,"grade":"B","district":"Gampaha","aga_division":"Minuwangoda Pradeshiya Sabha","ps_mc_uc":"Minuwangoda Divisional Secretariat","logitiute":79.947029999999998,"latitude":7.1637020000000007,"orig_fid":-1}},{"type":"Feature","id":79,"geometry":{"type":"Point","coordinates":[81.831908000000055,6.8416150000000471]},"properties":{"objectid":79,"name":"HIDEAWAY RESORT","address":"ULLE, POTTUVIL","rooms":13,"grade":"B","district":"Ampara","aga_division":"Ampara","ps_mc_uc":"Pottuvil Divisional Secretariat","logitiute":81.831907999999999,"latitude":6.841615,"orig_fid":-1}},{"type":"Feature","id":80,"geometry":{"type":"Point","coordinates":[80.652218000000062,7.8612870000000612]},"properties":{"objectid":80,"name":"SUNRAY INN","address":"NO. 156, KANDY ROAD, DAMBULLA","rooms":8,"grade":"A","district":"Matale","aga_division":"Dambulla Pradeshiya Sabha","ps_mc_uc":"Dambulla Divisional Secretariat","logitiute":80.652217999999991,"latitude":7.8612869999999999,"orig_fid":-1}},{"type":"Feature","id":81,"geometry":{"type":"Point","coordinates":[79.863653000000056,6.839774000000034]},"properties":{"objectid":81,"name":"OCEAN VIEW TOUR INN","address":"NO. 34/4, DE SERAM ROAD, MOUNT LAVINIYA","rooms":23,"grade":"A","district":"Colombo","aga_division":"Colombo","ps_mc_uc":"Mount Lavinia","logitiute":79.863652999999999,"latitude":6.8397739999999994,"orig_fid":-1}},{"type":"Feature","id":82,"geometry":{"type":"Point","coordinates":[80.027023000000042,9.6602140000000531]},"properties":{"objectid":82,"name":"GREEN INN RESTAURANT","address":"NO.60, KANDY ROAD, CHUNDIKULI, JAFFNA","rooms":7,"grade":"B","district":"Jaffna","aga_division":"Jaffna","ps_mc_uc":"Aluthgama","logitiute":80.027023,"latitude":9.6602139999999999,"orig_fid":-1}},{"type":"Feature","id":83,"geometry":{"type":"Point","coordinates":[80.027023000000042,9.6602090000000658]},"properties":{"objectid":83,"name":"NEW GREEN INN RESTAURANT","address":"NO.258/3, KANDY ROAD, JAFFNA","rooms":7,"grade":"B","district":"Jaffna","aga_division":"Jaffna","ps_mc_uc":"Jaffna Divisional Secretariat","logitiute":80.027023,"latitude":9.660209,"orig_fid":-1}},{"type":"Feature","id":84,"geometry":{"type":"Point","coordinates":[80.009551000000044,9.6700690000000691]},"properties":{"objectid":84,"name":"PILLAIAR INN AND PILLAIAR STORES","address":"NO. 31, MANIPAY ROAD, JAFFNA","rooms":22,"grade":"A","district":"Jaffna","aga_division":"Jaffna","ps_mc_uc":"Jaffna Divisional Secretariat","logitiute":80.009551000000002,"latitude":9.6700689999999998,"orig_fid":-1}},{"type":"Feature","id":85,"geometry":{"type":"Point","coordinates":[80.765640000000076,8.0296940000000632]},"properties":{"objectid":85,"name":"JAYS HOLIDAY RESORT","address":"THREESINGHAGAMA, MORAGASWAWE, HABARANA","rooms":8,"grade":"A","district":"Polonnaruwa","aga_division":"Hingurakgoda Pradeshiya Sabha","ps_mc_uc":"Hingurakgoda Divisional Secretariat","logitiute":80.765640000000005,"latitude":8.029694000000001,"orig_fid":-1}},{"type":"Feature","id":86,"geometry":{"type":"Point","coordinates":[80.655484000000058,7.8389360000000465]},"properties":{"objectid":86,"name":"J.CS VILLAGE","address":"NO. 175, KANDY ROAD, KAPUWATTA, DAMBULLA","rooms":12,"grade":"A","district":"Matale","aga_division":"Dambulla Pradeshiya Sabha","ps_mc_uc":"Dambulla Divisional Secretariat","logitiute":80.655484000000001,"latitude":7.8389359999999995,"orig_fid":-1}},{"type":"Feature","id":87,"geometry":{"type":"Point","coordinates":[80.00963500000006,9.6657920000000672]},"properties":{"objectid":87,"name":"JAFFNA CITY HOTEL","address":"NO. 70/06, K. K. S ROAD, JAFFNA","rooms":8,"grade":"A","district":"Jaffna","aga_division":"Jaffna","ps_mc_uc":"Jaffna Divisional Secretariat","logitiute":80.009635000000003,"latitude":9.6657919999999997,"orig_fid":-1}},{"type":"Feature","id":88,"geometry":{"type":"Point","coordinates":[80.729630000000043,7.9976610000000505]},"properties":{"objectid":88,"name":"JOES HABARANA VILLAGE","address":"NO. 107, MILE POST, KIMBISSA.","rooms":12,"grade":"A","district":"Matale","aga_division":"Dambulla Pradeshiya Sabha","ps_mc_uc":"Dambulla Divisional Secretariat","logitiute":80.72963,"latitude":7.9976609999999999,"orig_fid":-1}},{"type":"Feature","id":89,"geometry":{"type":"Point","coordinates":[80.959299000000044,8.0292670000000612]},"properties":{"objectid":89,"name":"NATURE TRAILS HOTEL","address":"NO. 234, POLONNARUWA ROAD, GIRITHALE","rooms":6,"grade":"B","district":"Polonnaruwa","aga_division":"Hingurakgoda Pradeshiya Sabha","ps_mc_uc":"Hingurakgoda Divisional Secretariat","logitiute":80.959299000000001,"latitude":8.029266999999999,"orig_fid":-1}},{"type":"Feature","id":90,"geometry":{"type":"Point","coordinates":[81.824219000000085,7.4206690000000322]},"properties":{"objectid":90,"name":"SUPERSTAR TOURIST INN","address":"NO. 23/1, YARD ROAD, KALMUNAI 01","rooms":15,"grade":"B","district":"Ampara","aga_division":"Kalmunai","ps_mc_uc":"Kalmunai Divisional Secretariat","logitiute":81.824218999999999,"latitude":7.4206690000000002,"orig_fid":-1}},{"type":"Feature","id":91,"geometry":{"type":"Point","coordinates":[79.877542000000062,6.8888320000000363]},"properties":{"objectid":91,"name":"HOTEL SANSU","address":"NO.651/31- B, ELVITIGALA MAWATHA, COLOMBO 05","rooms":18,"grade":"A","district":"Colombo","aga_division":"Colombo","ps_mc_uc":"Thimbirigasyaya Divisional Secretariat","logitiute":79.877541999999991,"latitude":6.8888319999999998,"orig_fid":-1}},{"type":"Feature","id":92,"geometry":{"type":"Point","coordinates":[80.021882000000062,9.6642930000000433]},"properties":{"objectid":92,"name":"GREEN GRASS HOTEL & RESTAURANT","address":"NO. 33, ASEERVATHAM LANE, HOSPITAL ROAD, JAFFNA","rooms":25,"grade":"A","district":"Jaffna","aga_division":"Jaffna","ps_mc_uc":"Jaffna Divisional Secretariat","logitiute":80.021882000000005,"latitude":9.6642929999999989,"orig_fid":-1}},{"type":"Feature","id":93,"geometry":{"type":"Point","coordinates":[80.376404000000036,5.9665790000000243]},"properties":{"objectid":93,"name":"OCEAN DREAMS HOTEL","address":"JANISGEWATTA,\"ARANWALA\",MATARA RD,AHANGAMA","rooms":13,"grade":"A","district":"Galle","aga_division":"Habaraduwa","ps_mc_uc":"Habaraduwa Divisional Secretariat","logitiute":80.376404000000008,"latitude":5.9665790000000003,"orig_fid":-1}},{"type":"Feature","id":94,"geometry":{"type":"Point","coordinates":[81.856883000000039,7.2062470000000758]},"properties":{"objectid":94,"name":"S.T .RAAJ RESTAURANT AND GUEST HOUSE","address":"OLD HOSPITAL ROAD,AKKARAIPATTU-09","rooms":6,"grade":"C","district":"Ampara","aga_division":"Ampara","ps_mc_uc":"Alayadiwembu Divisional Secretariat","logitiute":81.85688300000001,"latitude":7.2062470000000003,"orig_fid":-1}},{"type":"Feature","id":95,"geometry":{"type":"Point","coordinates":[80.054295000000081,6.232812000000024]},"properties":{"objectid":95,"name":"WASANTHA GUEST HOUSE & RESTAURANT","address":"AMBALANGODA ROAD,ELPITIYTA.","rooms":18,"grade":"B","district":"Galle","aga_division":"Ambalangoda","ps_mc_uc":"Elpitiya Divisional Secretariat","logitiute":80.054294999999996,"latitude":6.232812,"orig_fid":-1}},{"type":"Feature","id":96,"geometry":{"type":"Point","coordinates":[79.994732000000056,6.435952000000043]},"properties":{"objectid":96,"name":"LALUNA HOTEL","address":"NO.6,KALUWAMODARA,ALUTHGAMA.","rooms":14,"grade":"B","district":"Kalutara","aga_division":"Aluthgama","ps_mc_uc":"Aluthgama","logitiute":79.994731999999999,"latitude":6.4359520000000003,"orig_fid":-1}},{"type":"Feature","id":97,"geometry":{"type":"Point","coordinates":[80.396111000000076,9.3833970000000591]},"properties":{"objectid":97,"name":"HOTEL SELLA REST","address":"NO.46, KANAKAPURAM ROAD, UTHAYANGAR WEST, KILINOCHCHI.","rooms":10,"grade":"B","district":"Kilinochchi","aga_division":"Karachchi","ps_mc_uc":"Karachchi","logitiute":80.396111000000005,"latitude":9.3833970000000004,"orig_fid":-1}},{"type":"Feature","id":98,"geometry":{"type":"Point","coordinates":[81.29069700000008,6.2912960000000453]},"properties":{"objectid":98,"name":"TAPROSPA \"TISSA\"","address":"NO.15,TISSAWEWA ROAD,TISSAMAHARAMA.","rooms":15,"grade":"A","district":"Hambantota","aga_division":"Thissamaharama","ps_mc_uc":"Thissamaharama Divisional Secretariat","logitiute":81.290696999999994,"latitude":6.291296,"orig_fid":-1}},{"type":"Feature","id":99,"geometry":{"type":"Point","coordinates":[80.454304000000036,5.9429300000000467]},"properties":{"objectid":99,"name":"PALACE MIRISSA","address":"KOPPARAMULLA,MIRISSA.","rooms":13,"grade":"A","district":"Matara","aga_division":"Weligama Pradeshiya Sabha","ps_mc_uc":"Weligama Divisional Secretariat","logitiute":80.454304000000008,"latitude":5.9429299999999996,"orig_fid":-1}},{"type":"Feature","id":100,"geometry":{"type":"Point","coordinates":[79.863186000000042,6.8390390000000707]},"properties":{"objectid":100,"name":"LOON TAO","address":"43\\12 BEACH ROAD,MOUNT LAVINIA.","rooms":5,"grade":"B","district":"Colombo","aga_division":"Dehiwala-Mount Lavinia","ps_mc_uc":"Colombo Divisional Secretariat","logitiute":79.863185999999999,"latitude":6.8390390000000005,"orig_fid":-1}},{"type":"Feature","id":101,"geometry":{"type":"Point","coordinates":[80.009809000000075,6.3816040000000385]},"properties":{"objectid":101,"name":"BEACH HOTEL BLACK ORCHID","address":"GALLE ROAD, KIKAWALA, INDURUWA","rooms":10,"grade":"A","district":"Galle","aga_division":"Bentota Pradeshiya Sabha","ps_mc_uc":"Benthota Divisional Secretariat","logitiute":80.009809000000004,"latitude":6.3816039999999994,"orig_fid":-1}},{"type":"Feature","id":102,"geometry":{"type":"Point","coordinates":[79.954171000000031,6.5955330000000458]},"properties":{"objectid":102,"name":"CHAYANIKA BEACH HOTEL","address":"NO. 21, FONSEKA LANE, KALUTARA NORTH","rooms":22,"grade":"A","district":"Kalutara","aga_division":"Kalutara Pradeshiya Sabha","ps_mc_uc":"Kalutara Divisional Secretariat","logitiute":79.954171000000002,"latitude":6.5955330000000005,"orig_fid":-1}},{"type":"Feature","id":103,"geometry":{"type":"Point","coordinates":[79.989221000000043,6.4477030000000468]},"properties":{"objectid":103,"name":"SERENDIPITY HOLIDAY RESORT","address":"NO. 73/1 A, KALAVILAWATTA, KALUWAMODARA, ALUTHGAMA","rooms":9,"grade":"B","district":"Kalutara","aga_division":"Beruwala Pradeshiya Sabha","ps_mc_uc":"Beruwala Divisional Secretariat","logitiute":79.989221000000001,"latitude":6.4477030000000006,"orig_fid":-1}},{"type":"Feature","id":104,"geometry":{"type":"Point","coordinates":[80.610170000000039,7.267498000000046]},"properties":{"objectid":104,"name":"SANDAKELUM TOURIST GUEST HOUSE","address":"NO. 29, PARK AVANUE, DANGOLLA, KANDY","rooms":13,"grade":"A","district":"Kandy","aga_division":"Kandy","ps_mc_uc":"Kandy Divisional Secretariat","logitiute":80.610169999999997,"latitude":7.2674980000000007,"orig_fid":-1}},{"type":"Feature","id":105,"geometry":{"type":"Point","coordinates":[80.082467000000065,6.9103210000000672]},"properties":{"objectid":105,"name":"HANWELLA REST HOUSE","address":"HANWELLA","rooms":8,"grade":"B","district":"Colombo","aga_division":"Seethawaka Pradeshiya Sabha","ps_mc_uc":"Seethawaka Divisional Secretariat","logitiute":80.082467000000008,"latitude":6.9103210000000006,"orig_fid":-1}},{"type":"Feature","id":106,"geometry":{"type":"Point","coordinates":[79.84188800000004,7.2498630000000617]},"properties":{"objectid":106,"name":"REGGIES GUEST HOUSE AND RESTAURANT","address":"NO.177,PORUTHOTA ROAD,PALAGATHURAI,KOCHCHIKADE,NEGOMBO.","rooms":10,"grade":"B","district":"Gampaha","aga_division":"Negombo","ps_mc_uc":"Negombo Divisional Secretariat","logitiute":79.841888000000012,"latitude":7.2498630000000004,"orig_fid":-1}},{"type":"Feature","id":107,"geometry":{"type":"Point","coordinates":[80.008527000000072,6.3848610000000576]},"properties":{"objectid":107,"name":"AYURVEDA SHUNYATA VILLA","address":"NO:660/A,GALLE ROAD,GALABODA,INDURUWA","rooms":5,"grade":"A","district":"Galle","aga_division":"Bentota Pradeshiya Sabha","ps_mc_uc":"Benthota Divisional Secretariat","logitiute":80.008527000000001,"latitude":6.3848609999999999,"orig_fid":-1}},{"type":"Feature","id":108,"geometry":{"type":"Point","coordinates":[80.415532000000042,8.3236780000000294]},"properties":{"objectid":108,"name":"MEDAWACHCHIYA REST HOUSE","address":"MEDAWACHCHIYA","rooms":4,"grade":"B","district":"Anuradhapura","aga_division":"Anuradhapura","ps_mc_uc":"Anuradhapura East","logitiute":80.415531999999999,"latitude":8.323678000000001,"orig_fid":-1}},{"type":"Feature","id":109,"geometry":{"type":"Point","coordinates":[80.405998000000068,6.9955490000000395]},"properties":{"objectid":109,"name":"KITHULGALA REST HOUSE","address":"KITHULGALA","rooms":19,"grade":"A","district":"Kegalle","aga_division":"Yatiyantota Pradeshiya Sabha","ps_mc_uc":"Yatiyanthota Divisional Secretariat","logitiute":80.405997999999997,"latitude":6.9955489999999996,"orig_fid":-1}},{"type":"Feature","id":110,"geometry":{"type":"Point","coordinates":[80.769503000000043,6.7172530000000279]},"properties":{"objectid":110,"name":"BELIHULOYA REST HOUSE","address":"BELIHULOYA","rooms":15,"grade":"A","district":"Ratnapura","aga_division":"Ratnapura","ps_mc_uc":"Ratnapura Divisional Secretariat","logitiute":80.769503,"latitude":6.7172530000000004,"orig_fid":-1}},{"type":"Feature","id":111,"geometry":{"type":"Point","coordinates":[79.858306000000084,6.8758130000000506]},"properties":{"objectid":111,"name":"CHANUKA TOURIST GUEST HOUSE","address":"NO:29,FRANCES ROAD,WELLAWATTA,COLOMBO 06","rooms":10,"grade":"B","district":"Colombo","aga_division":"Colombo","ps_mc_uc":"Colombo Divisional Secretariat","logitiute":79.858305999999999,"latitude":6.875813,"orig_fid":-1}},{"type":"Feature","id":112,"geometry":{"type":"Point","coordinates":[79.957457000000034,6.7515990000000556]},"properties":{"objectid":112,"name":"KAMVELTA HOLIDAY RESORT","address":"KINDELPITIYA JUNCTION,WELMILLA,BANDARAGAMA","rooms":6,"grade":"A","district":"Kalutara","aga_division":"Bandaragama Pradeshiya Sabha","ps_mc_uc":"Bandaragama Divisional Secretariat","logitiute":79.957457000000005,"latitude":6.7515989999999997,"orig_fid":-1}},{"type":"Feature","id":113,"geometry":{"type":"Point","coordinates":[79.705919000000051,8.1342970000000605]},"properties":{"objectid":113,"name":"ELEMENTS WATER SPORTS & NATURE RESORT","address":"KAPPALADY,KALPITIYA.","rooms":5,"grade":"B","district":"Puttalam","aga_division":"Kalpitiya Pradeshiya Sabha","ps_mc_uc":"Kalpitiya Divisional Secretariat","logitiute":79.705918999999994,"latitude":8.1342970000000001,"orig_fid":-1}},{"type":"Feature","id":114,"geometry":{"type":"Point","coordinates":[80.902910000000077,8.061251000000027]},"properties":{"objectid":114,"name":"GUNNERS' CLUB","address":"ARTILLERY COMPLEX ,MINNERIYA","rooms":16,"grade":"A","district":"Polonnaruwa","aga_division":"Hingurakgoda Pradeshiya Sabha","ps_mc_uc":"Hingurakgoda Divisional Secretariat","logitiute":80.902910000000006,"latitude":8.0612509999999986,"orig_fid":-1}},{"type":"Feature","id":115,"geometry":{"type":"Point","coordinates":[79.842497000000037,7.2540930000000685]},"properties":{"objectid":115,"name":"THE OCEAN PEARL HOTEL NEGOMBO.","address":"NO:262,PORUTHOTA ROAD,PALAGETHURE,KOCHCHIKADE.","rooms":12,"grade":"C","district":"Gampaha","aga_division":"Negombo","ps_mc_uc":"Negombo Divisional Secretariat","logitiute":79.842496999999995,"latitude":7.2540929999999992,"orig_fid":-1}},{"type":"Feature","id":116,"geometry":{"type":"Point","coordinates":[79.841650000000072,7.2383950000000254]},"properties":{"objectid":116,"name":"NEW YORK BEACH CLUB","address":"PORUTHOTA ROAD,NEGAMBO","rooms":5,"grade":"C","district":"Gampaha","aga_division":"Negombo","ps_mc_uc":"Negombo Divisional Secretariat","logitiute":79.841650000000001,"latitude":7.2383949999999997,"orig_fid":-1}},{"type":"Feature","id":117,"geometry":{"type":"Point","coordinates":[79.983553000000029,6.48241500000006]},"properties":{"objectid":117,"name":"B.N.C GUEST HOUSE","address":"POLKOTUWA,GALLE ROAD,BERUWALA","rooms":13,"grade":"A","district":"Kalutara","aga_division":"Beruwala Pradeshiya Sabha","ps_mc_uc":"Beruwala Divisional Secretariat","logitiute":79.983553000000001,"latitude":6.4824150000000005,"orig_fid":-1}},{"type":"Feature","id":118,"geometry":{"type":"Point","coordinates":[80.408421000000033,9.360176000000024]},"properties":{"objectid":118,"name":"A9 SPOT","address":"158,A9 ROAD,THONDAMAN NAGAR, KILINOCHCHI.","rooms":8,"grade":"A","district":"Kilinochchi","aga_division":"Karachchi","ps_mc_uc":"Karachchi","logitiute":80.408421000000004,"latitude":9.3601759999999992,"orig_fid":-1}},{"type":"Feature","id":119,"geometry":{"type":"Point","coordinates":[79.994143000000065,6.4388510000000565]},"properties":{"objectid":119,"name":"SUN AND MOON RESORT","address":"104/8, GALLE ROAD, KALUWAMODARA, ALUTHGAMA.","rooms":8,"grade":"A","district":"Kalutara","aga_division":"Beruwala Pradeshiya Sabha","ps_mc_uc":"Beruwala Divisional Secretariat","logitiute":79.994143000000008,"latitude":6.4388509999999997,"orig_fid":-1}},{"type":"Feature","id":120,"geometry":{"type":"Point","coordinates":[79.924172000000056,6.7562060000000201]},"properties":{"objectid":120,"name":"CLUB PENTHOUSE ISLAND RESORT","address":"NO:22/1,TUDUWA JUNCTION,DAMPE ,PILIYANDALA","rooms":8,"grade":"A","district":"Colombo","aga_division":"Kesbewa","ps_mc_uc":"Kesbewa Divisional Secretariat","logitiute":79.924171999999999,"latitude":6.7562059999999997,"orig_fid":-1}},{"type":"Feature","id":121,"geometry":{"type":"Point","coordinates":[80.079150000000084,7.1334940000000415]},"properties":{"objectid":121,"name":"APSARA RESORT","address":"539,KANDY ROAD,MALWATTA, NITTAMBUWA.","rooms":10,"grade":"A","district":"Gampaha","aga_division":"Attanagalla Pradeshiya Sabha","ps_mc_uc":"Attanagalla Divisional Secretariat","logitiute":80.079149999999998,"latitude":7.1334939999999998,"orig_fid":-1}},{"type":"Feature","id":122,"geometry":{"type":"Point","coordinates":[80.261613000000068,6.0007960000000367]},"properties":{"objectid":122,"name":"SHANTHI GUEST HOUSE","address":"DALAWELLA,UNAWATUNA,GALLE.","rooms":13,"grade":"B","district":"Galle","aga_division":"Habaraduwa","ps_mc_uc":"Habaraduwa Divisional Secretariat","logitiute":80.261612999999997,"latitude":6.0007960000000002,"orig_fid":-1}},{"type":"Feature","id":123,"geometry":{"type":"Point","coordinates":[80.747598000000039,5.9990270000000692]},"properties":{"objectid":123,"name":"MAWELLA BEACH RESORT","address":"MAHAWELA ROAD,MORAKETIYA,NAKULUGAMA,TANGALLE","rooms":10,"grade":"B","district":"Hambantota","aga_division":"Tangalle Pradeshiya Sabha","ps_mc_uc":"Tangalle Divisional Secretariat","logitiute":80.747597999999996,"latitude":5.9990269999999999,"orig_fid":-1}},{"type":"Feature","id":124,"geometry":{"type":"Point","coordinates":[81.049067000000036,6.8713210000000231]},"properties":{"objectid":124,"name":"GRAND ELLA MOTEL","address":"ELLA","rooms":14,"grade":"A","district":"Badulla","aga_division":"Ella Pradeshiya Sabha","ps_mc_uc":"Ella Divisional Secretariat","logitiute":81.049067000000008,"latitude":6.871321,"orig_fid":-1}},{"type":"Feature","id":125,"geometry":{"type":"Point","coordinates":[80.411506000000031,8.3541550000000484]},"properties":{"objectid":125,"name":"HOTEL NILKETHA VILLA","address":"NO:139,OLD MIHINTALE ROAD,ANURADHAPURA","rooms":15,"grade":"A","district":"Anuradhapura","aga_division":"Anuradhapura","ps_mc_uc":"Anuradhapura East","logitiute":80.411506000000003,"latitude":8.3541550000000004,"orig_fid":-1}},{"type":"Feature","id":126,"geometry":{"type":"Point","coordinates":[79.860757000000035,6.8582680000000664]},"properties":{"objectid":126,"name":"BIG JOHN GUEST HOUSE","address":"NO. 47, ALBERT PLACE, DEHIWALA,","rooms":17,"grade":"A","district":"Colombo","aga_division":"Dehiwala-Mount Lavinia","ps_mc_uc":"Dehiwala Divisional Secretariat","logitiute":79.860756999999992,"latitude":6.8582679999999998,"orig_fid":-1}},{"type":"Feature","id":127,"geometry":{"type":"Point","coordinates":[79.865687000000037,6.855363000000068]},"properties":{"objectid":127,"name":"CONCORD GUEST HOUSE","address":"NO. 141, GALLE ROAD, DEHIWALA","rooms":30,"grade":"A","district":"Colombo","aga_division":"Dehiwala-Mount Lavinia","ps_mc_uc":"Dehiwala Divisional Secretariat","logitiute":79.865686999999994,"latitude":6.8553629999999997,"orig_fid":-1}},{"type":"Feature","id":128,"geometry":{"type":"Point","coordinates":[79.915124000000048,6.6881230000000755]},"properties":{"objectid":128,"name":"SEA VIEW HOTEL & GUEST HOUSE","address":"10TH MILE POST, GOPALAPURAM, NILAVALI, TRINKOMALEE","rooms":11,"grade":"A","district":"Trincomalee","aga_division":"Trincomalee","ps_mc_uc":"Kuchchaveli Divisional Secretariat","logitiute":79.915123999999992,"latitude":6.688123,"orig_fid":-1}},{"type":"Feature","id":129,"geometry":{"type":"Point","coordinates":[80.526538000000073,6.8271080000000666]},"properties":{"objectid":129,"name":"RIVER VIEW WATSALA INN","address":"ADAMSPEAK, DELHOUSE, MASKELIYA","rooms":31,"grade":"B","district":"Nuwara Eliya","aga_division":"Ambagamuwa Pradeshiya Sabha","ps_mc_uc":"Nuwara Eliya Divisional Secretariat","logitiute":80.526538000000002,"latitude":6.827108,"orig_fid":-1}},{"type":"Feature","id":130,"geometry":{"type":"Point","coordinates":[80.00908400000003,6.3772660000000201]},"properties":{"objectid":130,"name":"SIGN OF LIFE RESORT","address":"ATURUWELLA, INDURUWA","rooms":9,"grade":"B","district":"Galle","aga_division":"Bentota Pradeshiya Sabha","ps_mc_uc":"Benthota Divisional Secretariat","logitiute":80.009084000000001,"latitude":6.3772660000000005,"orig_fid":-1}},{"type":"Feature","id":131,"geometry":{"type":"Point","coordinates":[80.615529000000038,7.2769960000000538]},"properties":{"objectid":131,"name":"KANDYAN ARTS RESIDENCY","address":"NO: 839, PERADENIYA ROAD, KANDY","rooms":13,"grade":"A","district":"Kandy","aga_division":"Kandy","ps_mc_uc":"Gagawata","logitiute":80.615528999999995,"latitude":7.2769960000000005,"orig_fid":-1}},{"type":"Feature","id":132,"geometry":{"type":"Point","coordinates":[81.692950000000053,7.2948880000000713]},"properties":{"objectid":132,"name":"K.G.A.ARIYAWAN REST","address":"K.P.66, 1ST AVANUE, NAWAGAMPURA,AMPARA.","rooms":31,"grade":"A","district":"Ampara","aga_division":"Ampara","ps_mc_uc":"Ampara Divisional Secretariat","logitiute":81.692949999999996,"latitude":7.2948880000000003,"orig_fid":-1}},{"type":"Feature","id":133,"geometry":{"type":"Point","coordinates":[79.91833900000006,6.8039280000000417]},"properties":{"objectid":133,"name":"LIYANKA GUEST HOUSE","address":"NO:110/1,SRI DEVANANDA ROAD,PILIYANDALA.","rooms":6,"grade":"B","district":"Colombo","aga_division":"Kesbewa","ps_mc_uc":"Kesbewa Divisional Secretariat","logitiute":79.918339000000003,"latitude":6.8039280000000009,"orig_fid":-1}},{"type":"Feature","id":134,"geometry":{"type":"Point","coordinates":[79.953630000000032,6.596046000000058]},"properties":{"objectid":134,"name":"ASIRI REST HOUSE","address":"242,WIJENAYAKE MAWATHA,EHELIYAGODA.","rooms":5,"grade":"A","district":"Ratnapura","aga_division":"Eheliyagoda Pradeshiya Sabha","ps_mc_uc":"Eheliyagoda Divisional Secretariat","logitiute":79.95362999999999,"latitude":6.5960460000000003,"orig_fid":-1}},{"type":"Feature","id":135,"geometry":{"type":"Point","coordinates":[80.025745000000029,9.6592920000000504]},"properties":{"objectid":135,"name":"BASTIAN HOTEL","address":"37/11,KANDY ROAD,JAFFNA","rooms":13,"grade":"A","district":"Jaffna","aga_division":"Jaffna","ps_mc_uc":"Jaffna Divisional Secretariat","logitiute":80.025745000000001,"latitude":9.6592920000000007,"orig_fid":-1}},{"type":"Feature","id":136,"geometry":{"type":"Point","coordinates":[80.252783000000079,6.0071630000000482]},"properties":{"objectid":136,"name":"LAVENDISH BEACH RESORT","address":"GANAHENA,UNAWATUNA,GALLE","rooms":15,"grade":"A","district":"Galle","aga_division":"Habaraduwa","ps_mc_uc":"Habaraduwa Divisional Secretariat","logitiute":80.252783000000008,"latitude":6.0071630000000003,"orig_fid":-1}},{"type":"Feature","id":137,"geometry":{"type":"Point","coordinates":[80.364720000000034,7.4872920000000249]},"properties":{"objectid":137,"name":"BRIGHT BRAVO HOTEL","address":"3RD FLOOR,MUNICIPAL SHOPPING COMPLEX,KURUNEGALA","rooms":12,"grade":"A","district":"Kurunegala","aga_division":"Kurunegala","ps_mc_uc":"Kurunegala Divisional Secretariat","logitiute":80.364720000000005,"latitude":7.4872920000000001,"orig_fid":-1}},{"type":"Feature","id":138,"geometry":{"type":"Point","coordinates":[79.840878000000032,7.2274490000000355]},"properties":{"objectid":138,"name":"BEACH VIEW TOURIST GUEST HOUSE","address":"57,PORUTHOTA RD,ETHUKALA,NEGOMBO","rooms":15,"grade":"B","district":"Gampaha","aga_division":"Negombo","ps_mc_uc":"Negombo Divisional Secretariat","logitiute":79.840878000000004,"latitude":7.227449,"orig_fid":-1}},{"type":"Feature","id":139,"geometry":{"type":"Point","coordinates":[80.390439000000072,6.6970890000000622]},"properties":{"objectid":139,"name":"CENTAURIA HILL RESORT","address":"305/2, COLOMBO ROAD, WERALUPA, RATHNAPURA.","rooms":14,"grade":"A","district":"Ratnapura","aga_division":"Ratnapura","ps_mc_uc":"Ratnapura Divisional Secretariat","logitiute":80.390439000000001,"latitude":6.6970890000000001,"orig_fid":-1}},{"type":"Feature","id":140,"geometry":{"type":"Point","coordinates":[80.42965600000008,5.9757370000000378]},"properties":{"objectid":140,"name":"CRYSTAL VILLAS","address":"GALLE - MATARA ROAD, PELENA, WELIGAMA.","rooms":6,"grade":"A","district":"Matara","aga_division":"Weligama Pradeshiya Sabha","ps_mc_uc":"Weligama Divisional Secretariat","logitiute":80.429655999999994,"latitude":5.9757369999999996,"orig_fid":-1}},{"type":"Feature","id":141,"geometry":{"type":"Point","coordinates":[80.699252000000058,6.6467620000000238]},"properties":{"objectid":141,"name":"NEW CHAMARA REST","address":"7/5,KARAUKETIYA ROAD,BALANGODA.","rooms":11,"grade":"B","district":"Ratnapura","aga_division":"Balangoda","ps_mc_uc":"Balangoda Divisional Secretariat","logitiute":80.699252000000001,"latitude":6.6467619999999998,"orig_fid":-1}},{"type":"Feature","id":142,"geometry":{"type":"Point","coordinates":[80.407700000000034,8.3406850000000645]},"properties":{"objectid":142,"name":"CEYBANK REST - ANURADHAPURA","address":"JAYANTHI MAWATHA, ANURADHAPURA.","rooms":20,"grade":"A","district":"Anuradhapura","aga_division":"Anuradhapura","ps_mc_uc":"Anuradhapura East","logitiute":80.407700000000006,"latitude":8.3406850000000006,"orig_fid":-1}},{"type":"Feature","id":143,"geometry":{"type":"Point","coordinates":[81.216748000000052,8.5939130000000432]},"properties":{"objectid":143,"name":"JKAB PARK HOTEL","address":"NO.93, LOVE LANE, NILAVELI ROAD, TRINCOMALEE.","rooms":13,"grade":"A","district":"Trincomalee","aga_division":"Trincomalee","ps_mc_uc":"Trincomalee Divisional Secretariat","logitiute":81.21674800000001,"latitude":8.5939129999999988,"orig_fid":-1}},{"type":"Feature","id":144,"geometry":{"type":"Point","coordinates":[79.839924000000053,7.2277700000000209]},"properties":{"objectid":144,"name":"DEPHANI BEACH GUEST HOUSE & RESTAURANT","address":"189/15,LEWIS PLACE,NEGOMBO","rooms":12,"grade":"B","district":"Gampaha","aga_division":"Negombo","ps_mc_uc":"Negombo Divisional Secretariat","logitiute":79.839923999999996,"latitude":7.2277700000000005,"orig_fid":-1}},{"type":"Feature","id":145,"geometry":{"type":"Point","coordinates":[80.02202200000005,6.4347960000000626]},"properties":{"objectid":145,"name":"DALMANUTA","address":"21, MEEGAMA, ROAD, WARAPITIYA, DHARGATOWN.","rooms":9,"grade":"A","district":"Kalutara","aga_division":"Beruwala Pradeshiya Sabha","ps_mc_uc":"Beruwala Divisional Secretariat","logitiute":80.022022000000007,"latitude":6.4347960000000004,"orig_fid":-1}},{"type":"Feature","id":146,"geometry":{"type":"Point","coordinates":[80.341247000000067,7.4437560000000644]},"properties":{"objectid":146,"name":"DHANAWWA TOURIST RESORT","address":"NO:46,COLOMBO ROAD,MALPITIYA,BOYAGANE","rooms":5,"grade":"A","district":"Kurunegala","aga_division":"Kurunegala","ps_mc_uc":"Kurunegala Divisional Secretariat","logitiute":80.341246999999996,"latitude":7.4437559999999996,"orig_fid":-1}},{"type":"Feature","id":147,"geometry":{"type":"Point","coordinates":[79.994120000000066,6.437746000000061]},"properties":{"objectid":147,"name":"GANGA GARDEN","address":"126/27, GALLE ROAD, KALUWAMODARA, ALUTHGAMA.","rooms":5,"grade":"B","district":"Kalutara","aga_division":"Aluthgama","ps_mc_uc":"Beruwala Divisional Secretariat","logitiute":79.994120000000009,"latitude":6.4377460000000006,"orig_fid":-1}},{"type":"Feature","id":148,"geometry":{"type":"Point","coordinates":[80.79894100000007,6.0318980000000693]},"properties":{"objectid":148,"name":"GAYAN GUEST HOUSE","address":"ELAKAKA ROAD, KANAHENTOTA, HABURUGALA.","rooms":5,"grade":"B","district":"Galle","aga_division":"Bentota Pradeshiya Sabha","ps_mc_uc":"Benthota Divisional Secretariat","logitiute":80.798940999999999,"latitude":6.031898,"orig_fid":-1}},{"type":"Feature","id":149,"geometry":{"type":"Point","coordinates":[81.055286000000081,6.9905820000000745]},"properties":{"objectid":149,"name":"GREEN WOODS HOLIDAY INN","address":"NO.301, BANDARAWELA ROAD, BADULLA.","rooms":14,"grade":"B","district":"Badulla","aga_division":"Badulla","ps_mc_uc":"Badulla Divisional Secretariat","logitiute":81.055285999999995,"latitude":6.9905819999999999,"orig_fid":-1}},{"type":"Feature","id":150,"geometry":{"type":"Point","coordinates":[80.302670000000035,7.3409990000000676]},"properties":{"objectid":150,"name":"GAJAMADARA WALAUWA","address":"75, KURUNEGALA ROAD, POLGAHAWELA.","rooms":8,"grade":"A","district":"Kurunegala","aga_division":"Polgahawela Pradeshiya Sabha","ps_mc_uc":"Polgahawela Divisional Secretariat","logitiute":80.302669999999992,"latitude":7.3409990000000001,"orig_fid":-1}},{"type":"Feature","id":151,"geometry":{"type":"Point","coordinates":[80.777807000000053,6.9565780000000359]},"properties":{"objectid":151,"name":"GOVERNORS CHALETS","address":"BADULLA, ROAD, NUWARAELIYA.","rooms":6,"grade":"A","district":"Nuwara Eliya","aga_division":"Nuwara Eliya","ps_mc_uc":"Nuwara Eliya Divisional Secretariat","logitiute":80.777806999999996,"latitude":6.9565780000000004,"orig_fid":-1}},{"type":"Feature","id":152,"geometry":{"type":"Point","coordinates":[80.461384000000066,5.9440650000000232]},"properties":{"objectid":152,"name":"HOTEL SILANMO","address":"BANDARAMULLA,MIRISSA","rooms":15,"grade":"A","district":"Matara","aga_division":"Weligama","ps_mc_uc":"Weligama Divisional Secretariat","logitiute":80.461383999999995,"latitude":5.9440650000000002,"orig_fid":-1}},{"type":"Feature","id":153,"geometry":{"type":"Point","coordinates":[81.296230000000037,6.2923010000000659]},"properties":{"objectid":153,"name":"HAPPY KENT HOTEL","address":"MAHASENPURA,KATARAGAMA RD,TISSAMAHARAMA","rooms":19,"grade":"B","district":"Hambantota","aga_division":"Hambantota","ps_mc_uc":"Hambantota Divisional Secretariat","logitiute":81.296229999999994,"latitude":6.2923010000000001,"orig_fid":-1}},{"type":"Feature","id":154,"geometry":{"type":"Point","coordinates":[79.863930000000039,6.8651130000000649]},"properties":{"objectid":154,"name":"HOTEL ORCHID INN","address":"NO.571/6, GALLE ROAD, COLOMBO 06.","rooms":20,"grade":"B","district":"Colombo","aga_division":"Colombo","ps_mc_uc":"Colombo Divisional Secretariat","logitiute":79.863929999999996,"latitude":6.865113,"orig_fid":-1}},{"type":"Feature","id":155,"geometry":{"type":"Point","coordinates":[81.194631000000072,8.5888390000000641]},"properties":{"objectid":155,"name":"HOTEL OSHIN","address":"NO.621, KANDY ROAD,ANDANKULAMA, TRINCOMALEE.","rooms":8,"grade":"A","district":"Trincomalee","aga_division":"Trincomalee","ps_mc_uc":"Trincomalee Divisional Secretariat","logitiute":81.194631000000001,"latitude":8.5888389999999983,"orig_fid":-1}},{"type":"Feature","id":156,"geometry":{"type":"Point","coordinates":[80.206286000000034,6.0495900000000233]},"properties":{"objectid":156,"name":"HASARA GUEST HOUSE","address":"NO.01, WEKUNUGODA ROAD, GALLE.","rooms":20,"grade":"A","district":"Galle","aga_division":"Galle","ps_mc_uc":"Galle Divisional Secretariat","logitiute":80.206285999999992,"latitude":6.0495900000000002,"orig_fid":-1}},{"type":"Feature","id":157,"geometry":{"type":"Point","coordinates":[80.574673000000075,7.2672320000000354]},"properties":{"objectid":157,"name":"HOTEL MAPURA","address":"61,COLOMBO ROAD,KIRIBATHKUMBURA","rooms":6,"grade":"A","district":"Kandy","aga_division":"Kandy","ps_mc_uc":"Kandy Divisional Secretariat","logitiute":80.574673000000004,"latitude":7.2672319999999999,"orig_fid":-1}},{"type":"Feature","id":158,"geometry":{"type":"Point","coordinates":[80.005938000000071,6.4005490000000691]},"properties":{"objectid":158,"name":"HOTEL PANCHI VILLA","address":"KURUWATTA, WARAHENA, BENTOTA.","rooms":8,"grade":"A","district":"Galle","aga_division":"Bentota Pradeshiya Sabha","ps_mc_uc":"Benthota Divisional Secretariat","logitiute":80.005938,"latitude":6.4005489999999998,"orig_fid":-1}},{"type":"Feature","id":159,"geometry":{"type":"Point","coordinates":[79.840374000000054,7.2287710000000516]},"properties":{"objectid":159,"name":"HOTEL SILVER SANDS","address":"229,LEWIS PLACE,NEGOMBO","rooms":15,"grade":"B","district":"Gampaha","aga_division":"Negombo","ps_mc_uc":"Negombo Divisional Secretariat","logitiute":79.840373999999997,"latitude":7.2287710000000001,"orig_fid":-1}},{"type":"Feature","id":160,"geometry":{"type":"Point","coordinates":[80.65387400000003,7.2978280000000382]},"properties":{"objectid":160,"name":"KANDY HOLIDAY HOME","address":"51/30, BANGALAWATTA, LEWELLA, KANDY.","rooms":10,"grade":"A","district":"Kandy","aga_division":"Kandy","ps_mc_uc":"Kandy Divisional Secretariat","logitiute":80.653874000000002,"latitude":7.297828,"orig_fid":-1}},{"type":"Feature","id":161,"geometry":{"type":"Point","coordinates":[80.693661000000077,7.9274650000000406]},"properties":{"objectid":161,"name":"INNAMALUWA INN","address":"SIGIRIYA RD,INNAMALUWA","rooms":10,"grade":"B","district":"Matale","aga_division":"Dambulla Pradeshiya Sabha","ps_mc_uc":"Dambulla Divisional Secretariat","logitiute":80.693661000000006,"latitude":7.9274650000000007,"orig_fid":-1}},{"type":"Feature","id":162,"geometry":{"type":"Point","coordinates":[80.801060000000064,6.4063410000000545]},"properties":{"objectid":162,"name":"KOTTAWATTA VILLAGE INN","address":"THIMBOLKETIYA, KOLAMBAGEARA.","rooms":6,"grade":"B","district":"Ratnapura","aga_division":"Embilipitiya","ps_mc_uc":"Embilipitiya Divisional Secretariat","logitiute":80.801060000000007,"latitude":6.4063410000000003,"orig_fid":-1}},{"type":"Feature","id":163,"geometry":{"type":"Point","coordinates":[80.33561700000007,7.4769410000000676]},"properties":{"objectid":163,"name":"KUSUM NADIYA","address":"NEGOMBO ROAD, KURUNEGALA.","rooms":10,"grade":"B","district":"Kurunegala","aga_division":"Kurunegala","ps_mc_uc":"Kurunegala Divisional Secretariat","logitiute":80.335616999999999,"latitude":7.4769410000000001,"orig_fid":-1}},{"type":"Feature","id":164,"geometry":{"type":"Point","coordinates":[80.44411800000006,8.3475790000000529]},"properties":{"objectid":164,"name":"LAKE VIEW GARDEN HOTEL","address":"KANDY ROAD,MATALE JUNCTION, KURUNDANKULAMA, ANURADHAPURA.","rooms":6,"grade":"B","district":"Anuradhapura","aga_division":"Anuradhapura","ps_mc_uc":"Anuradhapura East","logitiute":80.444118000000003,"latitude":8.3475789999999996,"orig_fid":-1}},{"type":"Feature","id":165,"geometry":{"type":"Point","coordinates":[81.003221000000053,6.8371850000000336]},"properties":{"objectid":165,"name":"HOTEL LION INN","address":"BINDUNUWEWA, BANDARAWELA.","rooms":19,"grade":"A","district":"Badulla","aga_division":"Bandarawela Pradeshiya Sabha","ps_mc_uc":"Bandarawela Divisional Secretariat","logitiute":81.003221000000011,"latitude":6.8371850000000007,"orig_fid":-1}},{"type":"Feature","id":166,"geometry":{"type":"Point","coordinates":[81.697994000000051,7.715671000000043]},"properties":{"objectid":166,"name":"LAKE VIEW INN","address":"06, LIOYDS AVENUE, BATTICALOA.","rooms":9,"grade":"B","district":"Batticaloa","aga_division":"Batticaloa","ps_mc_uc":"Manmunai North Divisional Secretariat","logitiute":81.697994000000008,"latitude":7.7156710000000004,"orig_fid":-1}},{"type":"Feature","id":167,"geometry":{"type":"Point","coordinates":[81.20106700000008,7.0385510000000409]},"properties":{"objectid":167,"name":"LUNUGALA REST HOUSE","address":"REST HOUSE, LUNUGALA.","rooms":3,"grade":"B","district":"Badulla","aga_division":"Badulla","ps_mc_uc":"Lunugala Divisional Secretariat","logitiute":81.201066999999995,"latitude":7.038551,"orig_fid":-1}},{"type":"Feature","id":168,"geometry":{"type":"Point","coordinates":[80.55386100000004,5.9429090000000429]},"properties":{"objectid":168,"name":"MAYURA BEACH RESORT","address":"NO.33A, BEACH ROAD, MATARA.","rooms":16,"grade":"B","district":"Matara","aga_division":"Matara","ps_mc_uc":"Matara Divisional Secretariat","logitiute":80.553860999999998,"latitude":5.9429090000000002,"orig_fid":-1}},{"type":"Feature","id":169,"geometry":{"type":"Point","coordinates":[80.417125000000055,8.3250370000000657]},"properties":{"objectid":169,"name":"MILANO TOURIST REST","address":"596/40, STAGE 01, ANURADHAPURA.","rooms":8,"grade":"A","district":"Anuradhapura","aga_division":"Anuradhapura","ps_mc_uc":"Anuradhapura East","logitiute":80.417124999999999,"latitude":8.325037,"orig_fid":-1}},{"type":"Feature","id":170,"geometry":{"type":"Point","coordinates":[80.723812000000066,7.3641770000000406]},"properties":{"objectid":170,"name":"PANWILA REST HOUSE","address":"PANWILA REST HOUSE,PANWILA","rooms":5,"grade":"B","district":"Kandy","aga_division":"Kandy","ps_mc_uc":"Panvila Divisional Secretariat","logitiute":80.723811999999995,"latitude":7.3641769999999998,"orig_fid":-1}},{"type":"Feature","id":171,"geometry":{"type":"Point","coordinates":[80.092341000000033,6.8412940000000617]},"properties":{"objectid":171,"name":"REST HOUSE-PADUKKA","address":"REST HOUSE,HORANA ROAD,PADUKKA","rooms":3,"grade":"B","district":"Colombo","aga_division":"Colombo","ps_mc_uc":"Padukka Divisional Secretariat","logitiute":80.09234099999999,"latitude":6.8412939999999995,"orig_fid":-1}},{"type":"Feature","id":172,"geometry":{"type":"Point","coordinates":[80.003701000000035,6.9612950000000637]},"properties":{"objectid":172,"name":"PARADIES HOLIDAY INN","address":"539/4,SAMUDRI MAWATHA,MALAWANA,BIYAGAMA","rooms":8,"grade":"C","district":"Gampaha","aga_division":"Gampaha","ps_mc_uc":"Gampaha Divisional Secretariat","logitiute":80.003700999999992,"latitude":6.9612949999999998,"orig_fid":-1}},{"type":"Feature","id":173,"geometry":{"type":"Point","coordinates":[80.593785000000082,8.0414180000000215]},"properties":{"objectid":173,"name":"REST HOUSE -KAKIRAWA","address":"THLAWA ROAD,KAKIRAWA","rooms":3,"grade":"B","district":"Anuradhapura","aga_division":"Anuradhapura","ps_mc_uc":"Anuradhapura East","logitiute":80.593784999999997,"latitude":8.0414180000000002,"orig_fid":-1}},{"type":"Feature","id":174,"geometry":{"type":"Point","coordinates":[80.457395000000076,5.9453350000000569]},"properties":{"objectid":174,"name":"PARADISE BEACH CLUB","address":"140, GUNASIRI NAHIMI MAWATHA, MIRISSA.","rooms":40,"grade":"A","district":"Matara","aga_division":"Weligama Pradeshiya Sabha","ps_mc_uc":"Weligama Divisional Secretariat","logitiute":80.457395000000005,"latitude":5.9453349999999991,"orig_fid":-1}},{"type":"Feature","id":175,"geometry":{"type":"Point","coordinates":[80.549579000000051,6.3438990000000217]},"properties":{"objectid":175,"name":"RAIN FOREST LODGE","address":"RAIN FOREST LODGE, GALKUBURA HENYAYA, TEMPLE ROAD, DENIYAYA","rooms":9,"grade":"B","district":"Matara","aga_division":"Matara","ps_mc_uc":"Kotapola Divisional Secretariat","logitiute":80.549578999999994,"latitude":6.3438989999999995,"orig_fid":-1}},{"type":"Feature","id":176,"geometry":{"type":"Point","coordinates":[80.213027000000068,7.2441460000000575]},"properties":{"objectid":176,"name":"SISILA TOURIST INN","address":"KURUNAGALA RD,AMBEPUSSA,WARAKAPOLA","rooms":15,"grade":"A","district":"Kegalle","aga_division":"Kegalle","ps_mc_uc":"Warakapola Divisional Secretariat","logitiute":80.213026999999997,"latitude":7.2441460000000006,"orig_fid":-1}},{"type":"Feature","id":177,"geometry":{"type":"Point","coordinates":[79.973852000000079,6.535184000000072]},"properties":{"objectid":177,"name":"ROY VILLA BEACH HOTEL","address":"NAINNAWATTA,1ST CROSS STREET,PAYAGALA.","rooms":12,"grade":"A","district":"Kalutara","aga_division":"Beruwala Pradeshiya Sabha","ps_mc_uc":"Beruwala Divisional Secretariat","logitiute":79.973851999999994,"latitude":6.5351840000000001,"orig_fid":-1}},{"type":"Feature","id":178,"geometry":{"type":"Point","coordinates":[80.054098000000067,6.2372360000000526]},"properties":{"objectid":178,"name":"SAMAN REST","address":"235,NEW ROAD,AMBALANGODA","rooms":5,"grade":"B","district":"Galle","aga_division":"Ambalangoda","ps_mc_uc":"Ambalangoda Divisional Secretariat","logitiute":80.054097999999996,"latitude":6.2372359999999993,"orig_fid":-1}},{"type":"Feature","id":179,"geometry":{"type":"Point","coordinates":[79.932747000000063,6.8357330000000616]},"properties":{"objectid":179,"name":"SAN VILLA","address":"NO:405/2,PILIYANDALA ROAD,MAHARAGAMA","rooms":15,"grade":"B","district":"Colombo","aga_division":"Maharagama","ps_mc_uc":"Maharagama Divisional Secretariat","logitiute":79.932746999999992,"latitude":6.8357330000000003,"orig_fid":-1}},{"type":"Feature","id":180,"geometry":{"type":"Point","coordinates":[80.115549000000044,6.1199850000000424]},"properties":{"objectid":180,"name":"SUITE LANKA HOTEL","address":"THIRANAGAMA,HIKKADAWA","rooms":7,"grade":"A","district":"Galle","aga_division":"Hikkaduwa","ps_mc_uc":"Hikkaduwa Divisional Secretariat","logitiute":80.115549000000001,"latitude":6.1199850000000007,"orig_fid":-1}},{"type":"Feature","id":181,"geometry":{"type":"Point","coordinates":[80.606801000000075,7.2773120000000517]},"properties":{"objectid":181,"name":"SANDY RIVER INN","address":"NO 16/1,DEVANI RAJASINGHE MW,GATAMBE,KANDY","rooms":9,"grade":"B","district":"Kandy","aga_division":"Kandy","ps_mc_uc":"Kandy Divisional Secretariat","logitiute":80.606801000000004,"latitude":7.2773120000000002,"orig_fid":-1}},{"type":"Feature","id":182,"geometry":{"type":"Point","coordinates":[80.223402000000078,6.0369010000000571]},"properties":{"objectid":182,"name":"SEA LINE","address":"NO.1/108,PETTIGALAWATTA,GALLE","rooms":12,"grade":"B","district":"Galle","aga_division":"Galle","ps_mc_uc":"Galle Divisional Secretariat","logitiute":80.223401999999993,"latitude":6.0369010000000003,"orig_fid":-1}},{"type":"Feature","id":183,"geometry":{"type":"Point","coordinates":[80.510586000000046,8.7459160000000224]},"properties":{"objectid":183,"name":"THAMPA TOURIST HOTEL & INN","address":"10,1ST LANE,SINNAPUTHUKULAM,VAUNIYA","rooms":19,"grade":"A","district":"Vavuniya","aga_division":"Vavuniya","ps_mc_uc":"Vavuniya","logitiute":80.510585999999989,"latitude":8.7459160000000011,"orig_fid":-1}},{"type":"Feature","id":184,"geometry":{"type":"Point","coordinates":[80.44013700000005,5.9728130000000306]},"properties":{"objectid":184,"name":"WELIGAMA BAY RESORT","address":"MATARA ROAD,PELENA,WELIGAMA","rooms":24,"grade":"A","district":"Matara","aga_division":"Weligama","ps_mc_uc":"Weligama Divisional Secretariat","logitiute":80.440137000000007,"latitude":5.9728130000000004,"orig_fid":-1}},{"type":"Feature","id":185,"geometry":{"type":"Point","coordinates":[80.71858700000007,7.0247540000000299]},"properties":{"objectid":185,"name":"TAPROSPA LABOOKELLIE VILLA","address":"LABOOKELLIE ESTATE,LABOOKELLIE,NUWARAELIYA","rooms":5,"grade":"A","district":"Nuwara Eliya","aga_division":"Nuwara Eliya","ps_mc_uc":"Kothmale Divisional Secretariat","logitiute":80.718586999999999,"latitude":7.0247540000000006,"orig_fid":-1}},{"type":"Feature","id":186,"geometry":{"type":"Point","coordinates":[80.24339400000008,6.011141000000066]},"properties":{"objectid":186,"name":"THAMBAPANNI RETREAT","address":"YADDEHIMULLA,UNAWATUNA,GALLE","rooms":18,"grade":"A","district":"Galle","aga_division":"Habaraduwa","ps_mc_uc":"Habaraduwa Divisional Secretariat","logitiute":80.243394000000009,"latitude":6.0111410000000003,"orig_fid":-1}},{"type":"Feature","id":187,"geometry":{"type":"Point","coordinates":[80.240417000000036,6.0095450000000596]},"properties":{"objectid":187,"name":"THAPROBAN ROOMS AND RESTAURANT","address":"72,YADDEHIMULLA,UNAWATUNA","rooms":14,"grade":"A","district":"Galle","aga_division":"Galle","ps_mc_uc":"Galle Divisional Secretariat","logitiute":80.240416999999994,"latitude":6.0095450000000001,"orig_fid":-1}},{"type":"Feature","id":188,"geometry":{"type":"Point","coordinates":[81.101003000000048,6.732291000000032]},"properties":{"objectid":188,"name":"REST HOUSE - WELLAWAYA","address":"ELLA ROAD,WALLAWAYA","rooms":5,"grade":"B","district":"Moneragala","aga_division":"N/A","ps_mc_uc":"Moneragala Divisional Secretariat","logitiute":81.101003000000006,"latitude":6.732291,"orig_fid":-1}},{"type":"Feature","id":189,"geometry":{"type":"Point","coordinates":[80.249097000000063,6.0121710000000235]},"properties":{"objectid":189,"name":"UNAWATUNA NOR-LANKA HOTEL","address":"PALUGEDARAWATTA,PEELLAGODA,UNAWATUNA","rooms":14,"grade":"A","district":"Galle","aga_division":"Habaraduwa","ps_mc_uc":"Habaraduwa Divisional Secretariat","logitiute":80.249096999999992,"latitude":6.0121710000000004,"orig_fid":-1}},{"type":"Feature","id":190,"geometry":{"type":"Point","coordinates":[80.106735000000072,6.1267870000000357]},"properties":{"objectid":190,"name":"VIBRATION HOTEL","address":"495,,GALLE ROAD,WEWALA,HIKKADUWA.","rooms":6,"grade":"B","district":"Galle","aga_division":"Galle","ps_mc_uc":"Hikkaduwa Divisional Secretariat","logitiute":80.106735,"latitude":6.1267869999999993,"orig_fid":-1}},{"type":"Feature","id":191,"geometry":{"type":"Point","coordinates":[80.031402000000071,9.6705570000000307]},"properties":{"objectid":191,"name":"THINAKKURAL REST","address":"45,CHETTY STREET LANE,NALLUR,JAFFNA","rooms":12,"grade":"B","district":"Jaffna","aga_division":"Jaffna","ps_mc_uc":"Jaffna Divisional Secretariat","logitiute":80.031402,"latitude":9.6705570000000005,"orig_fid":-1}},{"type":"Feature","id":192,"geometry":{"type":"Point","coordinates":[80.602731000000063,6.8533850000000598]},"properties":{"objectid":192,"name":"UPPER GLENCAIRN BUNGALOW","address":"MASKELIYA ROAD,DICKOYA,HATTON","rooms":5,"grade":"A","district":"Nuwara Eliya","aga_division":"Nuwara Eliya","ps_mc_uc":"Nuwara Eliya Divisional Secretariat","logitiute":80.602731000000006,"latitude":6.8533850000000003,"orig_fid":-1}},{"type":"Feature","id":193,"geometry":{"type":"Point","coordinates":[81.832602000000065,6.8414930000000709]},"properties":{"objectid":193,"name":"ARUGAMBAY SURF RESORT","address":"ARUGAMBAY, POTUVIL.","rooms":11,"grade":"B","district":"Ampara","aga_division":"Ampara","ps_mc_uc":"Pottuvil Divisional Secretariat","logitiute":81.832601999999994,"latitude":6.8414929999999998,"orig_fid":-1}},{"type":"Feature","id":194,"geometry":{"type":"Point","coordinates":[79.986677000000043,6.8941400000000499]},"properties":{"objectid":194,"name":"FIELD VIEW INN","address":"ATHURA,BULATHSINGHALA","rooms":7,"grade":"B","district":"Kalutara","aga_division":"Bulathsinhala Pradeshiya Sabha","ps_mc_uc":"Bulathsinhala Divisional Secretariat","logitiute":79.986677,"latitude":6.8941400000000002,"orig_fid":-1}},{"type":"Feature","id":195,"geometry":{"type":"Point","coordinates":[80.385222000000056,8.3429050000000302]},"properties":{"objectid":195,"name":"BOA VISTA","address":"NO. 142, OLD PUTTALAM ROAD, TISSAWEWA, ANURADHAPURA","rooms":11,"grade":"A","district":"Anuradhapura","aga_division":"Anuradhapura","ps_mc_uc":"Anuradhapura East","logitiute":80.385221999999999,"latitude":8.342905,"orig_fid":-1}},{"type":"Feature","id":196,"geometry":{"type":"Point","coordinates":[79.962124000000074,6.5638920000000667]},"properties":{"objectid":196,"name":"A-PRIMA TOURIST HOTEL","address":"173,ST SEBESTIAN ROAD,KATUKURUNDA-KALUTARA","rooms":8,"grade":"A","district":"Kalutara","aga_division":"Kalutara Pradeshiya Sabha","ps_mc_uc":"Kalutara Divisional Secretariat","logitiute":79.962124000000003,"latitude":6.5638920000000009,"orig_fid":-1}},{"type":"Feature","id":197,"geometry":{"type":"Point","coordinates":[81.831418000000042,6.8491360000000441]},"properties":{"objectid":197,"name":"GALAXY LOUNGE","address":"ARUGAMBAY,SINNAVLLOVI,POTTUWIL -18","rooms":8,"grade":"B","district":"Ampara","aga_division":"Ampara","ps_mc_uc":"Pottuvil Divisional Secretariat","logitiute":81.831417999999999,"latitude":6.8491359999999997,"orig_fid":-1}},{"type":"Feature","id":198,"geometry":{"type":"Point","coordinates":[79.968060000000037,6.594470000000058]},"properties":{"objectid":198,"name":"BANDU RIVER INN","address":"RIVERSIDE ROAD, PALATOTA, KALUTARA NORH","rooms":10,"grade":"B","district":"Kalutara","aga_division":"Kalutara Pradeshiya Sabha","ps_mc_uc":"Kalutara Divisional Secretariat","logitiute":79.968060000000008,"latitude":6.5944700000000003,"orig_fid":-1}},{"type":"Feature","id":199,"geometry":{"type":"Point","coordinates":[81.833644000000049,6.8392230000000609]},"properties":{"objectid":199,"name":"RUPAS BEACH HOTEL","address":"ARUGAMBAY,POTTUVIL","rooms":13,"grade":"B","district":"Ampara","aga_division":"Ampara","ps_mc_uc":"Pottuvil Divisional Secretariat","logitiute":81.833644000000007,"latitude":6.8392229999999996,"orig_fid":-1}},{"type":"Feature","id":200,"geometry":{"type":"Point","coordinates":[81.831613000000061,6.8463440000000446]},"properties":{"objectid":200,"name":"TSUNAMI HOTEL","address":"ARUGAMBAY,ULLE,POTHUWIL","rooms":10,"grade":"B","district":"Ampara","aga_division":"Ampara","ps_mc_uc":"Pottuvil Divisional Secretariat","logitiute":81.83161299999999,"latitude":6.8463440000000002,"orig_fid":-1}},{"type":"Feature","id":201,"geometry":{"type":"Point","coordinates":[79.844292000000053,7.2263290000000211]},"properties":{"objectid":201,"name":"CANAL VIEW GARDEN HOTEL","address":"NO 105, ANDERSON ROAD, NEGOMBO","rooms":9,"grade":"B","district":"Gampaha","aga_division":"Negombo","ps_mc_uc":"Negombo Divisional Secretariat","logitiute":79.844291999999996,"latitude":7.2263289999999998,"orig_fid":-1}},{"type":"Feature","id":202,"geometry":{"type":"Point","coordinates":[81.832523000000037,6.8412180000000262]},"properties":{"objectid":202,"name":"GECKO RESTAURANT & ROOMS","address":"MAIN STREET,ARUGAMBAY,POTTUWIL","rooms":6,"grade":"B","district":"Ampara","aga_division":"Ampara","ps_mc_uc":"Pottuvil Divisional Secretariat","logitiute":81.832522999999995,"latitude":6.8412179999999996,"orig_fid":-1}},{"type":"Feature","id":203,"geometry":{"type":"Point","coordinates":[80.54426200000006,7.2229930000000309]},"properties":{"objectid":203,"name":"COUNTRY GARDEN RESORT","address":"PANABOKKE, WATTAPPOLA","rooms":5,"grade":"A","district":"Kandy","aga_division":"Udunuwara Pradeshiya Sabha","ps_mc_uc":"Udunuwara Divisional Secretariat","logitiute":80.544262000000003,"latitude":7.2229929999999998,"orig_fid":-1}},{"type":"Feature","id":204,"geometry":{"type":"Point","coordinates":[81.830823000000066,6.8452180000000453]},"properties":{"objectid":204,"name":"ALOHA CABANAS","address":"SINNA ULLAI,ARUGAMBAY","rooms":10,"grade":"B","district":"Ampara","aga_division":"Ampara","ps_mc_uc":"Pottuvil Divisional Secretariat","logitiute":81.830822999999995,"latitude":6.845218,"orig_fid":-1}},{"type":"Feature","id":205,"geometry":{"type":"Point","coordinates":[80.235093000000063,6.0314240000000723]},"properties":{"objectid":205,"name":"CLOSENBURG HOTEL","address":"11, CLOSEDBERG ROAD,MAGALLE ,GALLE","rooms":20,"grade":"A","district":"Galle","aga_division":"Galle","ps_mc_uc":"Galle Divisional Secretariat","logitiute":80.235093000000006,"latitude":6.0314239999999995,"orig_fid":-1}},{"type":"Feature","id":206,"geometry":{"type":"Point","coordinates":[81.831438000000048,6.8424570000000244]},"properties":{"objectid":206,"name":"ARUGAMBAY PACIFIC HOTEL","address":"MAIN STREET,ARUGAMBAY,POTTUVIL","rooms":12,"grade":"B","district":"Ampara","aga_division":"Ampara","ps_mc_uc":"Pottuvil Divisional Secretariat","logitiute":81.831438000000006,"latitude":6.8424569999999996,"orig_fid":-1}},{"type":"Feature","id":207,"geometry":{"type":"Point","coordinates":[81.049619000000064,6.8727200000000721]},"properties":{"objectid":207,"name":"ELLA GAP TOURIST INN","address":"PASSARA ROAD, ELLA","rooms":5,"grade":"A","district":"Badulla","aga_division":"Ella Pradeshiya Sabha","ps_mc_uc":"Badulla Divisional Secretariat","logitiute":81.049618999999993,"latitude":6.8727200000000002,"orig_fid":-1}},{"type":"Feature","id":208,"geometry":{"type":"Point","coordinates":[79.919841000000076,7.1782910000000584]},"properties":{"objectid":208,"name":"EURO STAR","address":"KATUNAYAKA ROAD, PEELLAWATTA,MINUWANGODA","rooms":30,"grade":"A","district":"Gampaha","aga_division":"Minuwangoda Pradeshiya Sabha","ps_mc_uc":"Minuwangoda Divisional Secretariat","logitiute":79.919840999999991,"latitude":7.1782910000000006,"orig_fid":-1}},{"type":"Feature","id":209,"geometry":{"type":"Point","coordinates":[81.830630000000042,6.8450580000000514]},"properties":{"objectid":209,"name":"THE DANISH VILLA","address":"SINNA ULLAI,ARUGAMBAY","rooms":7,"grade":"B","district":"Ampara","aga_division":"Ampara","ps_mc_uc":"Pottuvil Divisional Secretariat","logitiute":81.830629999999999,"latitude":6.8450579999999999,"orig_fid":-1}},{"type":"Feature","id":210,"geometry":{"type":"Point","coordinates":[81.804181000000085,7.5182120000000623]},"properties":{"objectid":210,"name":"DILUXSHAN REST","address":"BEACH ROAD, KALUWANCHIKUDY","rooms":10,"grade":"B","district":"Batticaloa","aga_division":"Batticaloa","ps_mc_uc":"Batticaloa Divisional Secretariat","logitiute":81.804181,"latitude":7.5182120000000001,"orig_fid":-1}},{"type":"Feature","id":211,"geometry":{"type":"Point","coordinates":[81.385645000000068,7.301744000000042]},"properties":{"objectid":211,"name":"GALOYA HOTEL","address":"NILIATUGODA, ETTAMPITIYA","rooms":5,"grade":"A","district":"Badulla","aga_division":"Badulla","ps_mc_uc":"Badulla Divisional Secretariat","logitiute":81.385644999999997,"latitude":7.3017440000000002,"orig_fid":-1}},{"type":"Feature","id":212,"geometry":{"type":"Point","coordinates":[80.351037000000076,6.1029830000000516]},"properties":{"objectid":212,"name":"HAREESHA HOLIDAY RESORT","address":"IMADUWA ROAD,YAKKALAMULLA","rooms":23,"grade":"A","district":"Galle","aga_division":"Galle","ps_mc_uc":"Yakkalamulla Divisional Secretariat","logitiute":80.351037000000005,"latitude":6.102983,"orig_fid":-1}},{"type":"Feature","id":213,"geometry":{"type":"Point","coordinates":[80.212044000000049,6.949040000000025]},"properties":{"objectid":213,"name":"FAMOUS GUEST HOUSE","address":"NO. 66/5, NEW RATHNAPURA ROAD, SEETHAWAKAPURA, AVISSSAWELLA.","rooms":18,"grade":"A","district":"Colombo","aga_division":"Seethawaka Pradeshiya Sabha","ps_mc_uc":"Hanwella","logitiute":80.212044000000006,"latitude":6.9490400000000001,"orig_fid":-1}},{"type":"Feature","id":214,"geometry":{"type":"Point","coordinates":[80.559379000000035,5.947097000000042]},"properties":{"objectid":214,"name":"GANGA ADDARA HOTEL","address":"NO.295,PEEKWELLA,MATARA","rooms":7,"grade":"B","district":"Matara","aga_division":"Matara","ps_mc_uc":"Matara Divisional Secretariat","logitiute":80.559378999999993,"latitude":5.9470970000000003,"orig_fid":-1}},{"type":"Feature","id":215,"geometry":{"type":"Point","coordinates":[79.864768000000083,6.8425470000000246]},"properties":{"objectid":215,"name":"HAUS CHANDRA HOTEL","address":"NO.37,BEACH ROAD,MT.LAVINIA","rooms":16,"grade":"A","district":"Colombo","aga_division":"Dehiwala-Mount Lavinia","ps_mc_uc":"Mount Lavinia","logitiute":79.864767999999998,"latitude":6.8425470000000006,"orig_fid":-1}},{"type":"Feature","id":216,"geometry":{"type":"Point","coordinates":[80.368872000000067,8.2868640000000369]},"properties":{"objectid":216,"name":"SANJEEWA HOTEL","address":"NO. 72, KALAWEWA ROAD, GALEWELA","rooms":5,"grade":"B","district":"Matale","aga_division":"Matale","ps_mc_uc":"Galewela Divisional Secretariat","logitiute":80.368871999999996,"latitude":8.2868639999999996,"orig_fid":-1}},{"type":"Feature","id":217,"geometry":{"type":"Point","coordinates":[80.398222000000032,8.3175640000000612]},"properties":{"objectid":217,"name":"HOTEL LIONS DEN","address":"NO:523/11,D.S.SENANAYAKE MW,STAGE II,ANURADHAPURA","rooms":5,"grade":"B","district":"Anuradhapura","aga_division":"Anuradhapura","ps_mc_uc":"Anuradhapura East","logitiute":80.398222000000004,"latitude":8.3175640000000008,"orig_fid":-1}},{"type":"Feature","id":218,"geometry":{"type":"Point","coordinates":[80.558646000000067,7.3381270000000427]},"properties":{"objectid":218,"name":"HOTEL SUNRICH","address":"NO. 260/4, HEDENIYA, WERELLAGAMA","rooms":36,"grade":"A","district":"Kandy","aga_division":"Harispattuwa Pradeshiya Sabha","ps_mc_uc":"Harispattuwa Divisional Secretariat","logitiute":80.558645999999996,"latitude":7.3381270000000001,"orig_fid":-1}},{"type":"Feature","id":219,"geometry":{"type":"Point","coordinates":[80.021918000000085,6.8553380000000743]},"properties":{"objectid":219,"name":"HESHAN HOLIDAY REST","address":"740/5,ROMIYAL MAWATHA,PANAGODA,HOMAGAMA","rooms":15,"grade":"B","district":"Colombo","aga_division":"Homagama Pradeshiya Sabha","ps_mc_uc":"Homagama Divisional Secretariat","logitiute":80.021917999999999,"latitude":6.8553379999999997,"orig_fid":-1}},{"type":"Feature","id":220,"geometry":{"type":"Point","coordinates":[80.015791000000036,9.664856000000043]},"properties":{"objectid":220,"name":"HOTEL LOVUSI","address":"NO:584,HOSPITAL ROAD,JAFFNA","rooms":12,"grade":"B","district":"Jaffna","aga_division":"Jaffna","ps_mc_uc":"Jaffna Divisional Secretariat","logitiute":80.015790999999993,"latitude":9.6648560000000003,"orig_fid":-1}},{"type":"Feature","id":221,"geometry":{"type":"Point","coordinates":[80.959676000000059,6.7687950000000683]},"properties":{"objectid":221,"name":"HIGH CLIFFE HOTEL","address":"NO.15,STATION ROAD,,HAPUTHALE","rooms":9,"grade":"B","district":"Badulla","aga_division":"Haputale","ps_mc_uc":"Haputale Divisional Secretariat","logitiute":80.959676000000002,"latitude":6.7687949999999999,"orig_fid":-1}},{"type":"Feature","id":222,"geometry":{"type":"Point","coordinates":[79.83812800000004,7.2112900000000764]},"properties":{"objectid":222,"name":"HAMILTON DELI","address":"NO:2,ASARAPPA ROAD,NEGAMBO","rooms":8,"grade":"A","district":"Gampaha","aga_division":"Negombo","ps_mc_uc":"Negombo Divisional Secretariat","logitiute":79.838127999999998,"latitude":7.21129,"orig_fid":-1}},{"type":"Feature","id":223,"geometry":{"type":"Point","coordinates":[79.873992000000044,7.1483100000000377]},"properties":{"objectid":223,"name":"HOTEL COCKPIT","address":"660/36,ARALIYA LANE,LIYANAGEMULLA,SEEDUWA.","rooms":5,"grade":"B","district":"Gampaha","aga_division":"Gampaha","ps_mc_uc":"Gampaha Divisional Secretariat","logitiute":79.873992000000001,"latitude":7.1483099999999995,"orig_fid":-1}},{"type":"Feature","id":224,"geometry":{"type":"Point","coordinates":[80.217317000000037,7.4340900000000261]},"properties":{"objectid":224,"name":"HOTEL CROWN FIELD","address":"KURUNEGALA ROAD,NARAMMALA","rooms":8,"grade":"A","district":"Kurunegala","aga_division":"Kurunegala","ps_mc_uc":"Narammala Divisional Secretariat","logitiute":80.217316999999994,"latitude":7.4340900000000003,"orig_fid":-1}},{"type":"Feature","id":225,"geometry":{"type":"Point","coordinates":[81.223353000000031,7.1544100000000412]},"properties":{"objectid":225,"name":"HOTEL KINKINI","address":"306,BADULLA RD,BIBILE","rooms":15,"grade":"A","district":"Moneragala","aga_division":"N/A","ps_mc_uc":"Bibile Divisional Secretariat","logitiute":81.223352999999989,"latitude":7.1544099999999995,"orig_fid":-1}},{"type":"Feature","id":226,"geometry":{"type":"Point","coordinates":[80.248556000000065,6.0139720000000239]},"properties":{"objectid":226,"name":"HOTEL FLOWER GARDEN","address":"NO.14,WELLA DEWALA ROAD,UNAWATUNA,GALLE","rooms":25,"grade":"A","district":"Galle","aga_division":"Galle","ps_mc_uc":"Galle Divisional Secretariat","logitiute":80.248556000000008,"latitude":6.0139719999999999,"orig_fid":-1}},{"type":"Feature","id":227,"geometry":{"type":"Point","coordinates":[80.008080000000064,9.663071000000059]},"properties":{"objectid":227,"name":"JAFFNA FORT","address":"NO. 56, 1ST CROSS STREET, JAFFNA","rooms":6,"grade":"B","district":"Jaffna","aga_division":"Jaffna","ps_mc_uc":"Jaffna Divisional Secretariat","logitiute":80.008079999999993,"latitude":9.6630710000000004,"orig_fid":-1}},{"type":"Feature","id":228,"geometry":{"type":"Point","coordinates":[80.607066000000032,7.2745860000000562]},"properties":{"objectid":228,"name":"HOTEL GANGAADDARA","address":"NO.11/A.DEWENI RAJASINGHE MAWATHA,GETABE,KANDY","rooms":13,"grade":"A","district":"Kandy","aga_division":"Kandy","ps_mc_uc":"Kandy Divisional Secretariat","logitiute":80.607066000000003,"latitude":7.2745859999999993,"orig_fid":-1}},{"type":"Feature","id":229,"geometry":{"type":"Point","coordinates":[81.220295000000078,8.6028700000000526]},"properties":{"objectid":229,"name":"HOTEL NEW SEA LORD","address":"3RD MILE POST,UPPAVELI,TRINCOMALEE","rooms":25,"grade":"B","district":"Trincomalee","aga_division":"Trincomalee","ps_mc_uc":"Trincomalee Divisional Secretariat","logitiute":81.220295000000007,"latitude":8.6028699999999994,"orig_fid":-1}},{"type":"Feature","id":230,"geometry":{"type":"Point","coordinates":[80.655409000000077,7.2877360000000522]},"properties":{"objectid":230,"name":"KANDY PANORAMA RESORT","address":"NO. 352/H, DHARMARAJA MAWATHA, KANDY","rooms":10,"grade":"A","district":"Kandy","aga_division":"Kandy","ps_mc_uc":"Gagawata","logitiute":80.655409000000006,"latitude":7.2877359999999998,"orig_fid":-1}},{"type":"Feature","id":231,"geometry":{"type":"Point","coordinates":[79.906688000000031,6.9820570000000544]},"properties":{"objectid":231,"name":"HORIZON HILL HOTEL","address":"NO.33,GOTABAYA MAWATHA,HUNUPITIYA,WATTALA","rooms":12,"grade":"A","district":"Gampaha","aga_division":"Kelaniya Pradeshiya Sabha","ps_mc_uc":"Kelaniya Divisional Secretariat","logitiute":79.906688000000003,"latitude":6.9820570000000002,"orig_fid":-1}},{"type":"Feature","id":232,"geometry":{"type":"Point","coordinates":[80.249934000000053,7.8102010000000632]},"properties":{"objectid":232,"name":"HOTEL BABIE & CATERS","address":"DALADAGAMA,BALALLA,MAHO","rooms":18,"grade":"B","district":"Kurunegala","aga_division":"Kurunegala","ps_mc_uc":"Kurunegala Divisional Secretariat","logitiute":80.249933999999996,"latitude":7.8102010000000002,"orig_fid":-1}},{"type":"Feature","id":233,"geometry":{"type":"Point","coordinates":[79.997708000000046,6.4292300000000751]},"properties":{"objectid":233,"name":"HEMADAN","address":"NO:25,RIVER AVENUE,ALUTHGAMA","rooms":10,"grade":"A","district":"Kalutara","aga_division":"Beruwala Pradeshiya Sabha","ps_mc_uc":"Beruwala Divisional Secretariat","logitiute":79.997707999999989,"latitude":6.4292299999999996,"orig_fid":-1}},{"type":"Feature","id":234,"geometry":{"type":"Point","coordinates":[80.334834000000058,7.2521710000000326]},"properties":{"objectid":234,"name":"KURULUKELAY INN","address":"NO. 17, ALBERT SENEVIRATNA MAWATHA, KEGALLE","rooms":8,"grade":"B","district":"Kegalle","aga_division":"Kegalle","ps_mc_uc":"Kegalle Divisional Secretariat","logitiute":80.334834000000001,"latitude":7.2521710000000006,"orig_fid":-1}},{"type":"Feature","id":235,"geometry":{"type":"Point","coordinates":[81.677940000000035,7.286339000000055]},"properties":{"objectid":235,"name":"MONTY GUEST","address":"C 32,1ST AVEUNE,AMPARA","rooms":42,"grade":"A","district":"Ampara","aga_division":"Ampara","ps_mc_uc":"Ampara Divisional Secretariat","logitiute":81.677939999999992,"latitude":7.2863389999999999,"orig_fid":-1}},{"type":"Feature","id":236,"geometry":{"type":"Point","coordinates":[81.710739000000046,7.7218540000000644]},"properties":{"objectid":236,"name":"HOTEL BRIDGE VIEW","address":"63/24,NEW DUTCH BAR ROAD,KALLADY,BATTICALOA","rooms":21,"grade":"B","district":"Batticaloa","aga_division":"Batticaloa","ps_mc_uc":"Batticaloa Divisional Secretariat","logitiute":81.710739000000004,"latitude":7.7218540000000004,"orig_fid":-1}},{"type":"Feature","id":237,"geometry":{"type":"Point","coordinates":[80.45947300000006,7.1404220000000578]},"properties":{"objectid":237,"name":"HOTEL HESHANI","address":"NO:176/1,WALAWWATTE,KEGALLE","rooms":8,"grade":"B","district":"Kegalle","aga_division":"Kegalle","ps_mc_uc":"Kegalle Divisional Secretariat","logitiute":80.459473000000003,"latitude":7.140422,"orig_fid":-1}},{"type":"Feature","id":238,"geometry":{"type":"Point","coordinates":[81.222902000000033,7.1643420000000333]},"properties":{"objectid":238,"name":"HOTEL CANBO","address":"NO.98,MAHIYANGANA ROAD,BIBILE","rooms":9,"grade":"A","district":"Moneragala","aga_division":"N/A","ps_mc_uc":"Bibile Divisional Secretariat","logitiute":81.222901999999991,"latitude":7.1643419999999995,"orig_fid":-1}},{"type":"Feature","id":239,"geometry":{"type":"Point","coordinates":[80.222378000000049,6.3438920000000394]},"properties":{"objectid":239,"name":"KURUNDUWATTA HOLIDAY RESORT","address":"THOTUPOLA ROAD, PITIGALA","rooms":20,"grade":"A","district":"Galle","aga_division":"Galle","ps_mc_uc":"Niyagama Divisional Secretariat","logitiute":80.222378000000006,"latitude":6.3438920000000003,"orig_fid":-1}},{"type":"Feature","id":240,"geometry":{"type":"Point","coordinates":[80.367042000000083,7.2510710000000245]},"properties":{"objectid":240,"name":"NIPUNA REST","address":"NO.821,MEEPITIYA,KEGALLE.","rooms":5,"grade":"A","district":"Kegalle","aga_division":"Kegalle","ps_mc_uc":"Kegalle Divisional Secretariat","logitiute":80.367041999999998,"latitude":7.2510710000000005,"orig_fid":-1}},{"type":"Feature","id":241,"geometry":{"type":"Point","coordinates":[80.127534000000082,6.9088230000000408]},"properties":{"objectid":241,"name":"THE NATURE'S RESORT","address":"NO. 80, PAHALA MABULA, MAWALGAMA ROAD, WAGA","rooms":8,"grade":"A","district":"Colombo","aga_division":"Colombo","ps_mc_uc":"Hanwella","logitiute":80.127533999999997,"latitude":6.9088229999999999,"orig_fid":-1}},{"type":"Feature","id":242,"geometry":{"type":"Point","coordinates":[80.116599000000065,6.5201950000000579]},"properties":{"objectid":242,"name":"REST HOUSE - MATHUGAMA","address":"NO.53,ALUTHGAMA ROAD,MATHUGAMA","rooms":14,"grade":"A","district":"Kalutara","aga_division":"Mathugama Pradeshiya Sabha","ps_mc_uc":"Mathugama Divisional Secretariat","logitiute":80.116599000000008,"latitude":6.5201950000000002,"orig_fid":-1}},{"type":"Feature","id":243,"geometry":{"type":"Point","coordinates":[80.245628000000067,6.0099250000000666]},"properties":{"objectid":243,"name":"HOTEL NEPTUNE BAY","address":"YADDHIMULLA ROAD, UNAWATUNA, GALLE","rooms":12,"grade":"A","district":"Galle","aga_division":"Habaraduwa","ps_mc_uc":"Habaraduwa Divisional Secretariat","logitiute":80.245627999999996,"latitude":6.009925,"orig_fid":-1}},{"type":"Feature","id":244,"geometry":{"type":"Point","coordinates":[81.292314000000033,6.2849980000000301]},"properties":{"objectid":244,"name":"LAKE SIDE TOURIST INN","address":"AKURUGODA,THISSAMAHARAMA","rooms":22,"grade":"A","district":"Hambantota","aga_division":"Thissamaharama","ps_mc_uc":"Thissamaharama Divisional Secretariat","logitiute":81.29231399999999,"latitude":6.2849980000000008,"orig_fid":-1}},{"type":"Feature","id":245,"geometry":{"type":"Point","coordinates":[80.647375000000068,7.289019000000053]},"properties":{"objectid":245,"name":"LAKE REACH HOTEL","address":"NO.59, LOUIS PEIRIS MAWATHA, KANDY.","rooms":8,"grade":"B","district":"Kandy","aga_division":"Kandy","ps_mc_uc":"Kandy Divisional Secretariat","logitiute":80.647374999999997,"latitude":7.2890189999999997,"orig_fid":-1}},{"type":"Feature","id":246,"geometry":{"type":"Point","coordinates":[79.841541000000063,7.2397200000000339]},"properties":{"objectid":246,"name":"OASIS BEACH HOTEL","address":"NO.10/26,PORUTOTA ROAD,NEGOMBO","rooms":6,"grade":"A","district":"Gampaha","aga_division":"Gampaha","ps_mc_uc":"Negombo Divisional Secretariat","logitiute":79.841540999999992,"latitude":7.2397200000000002,"orig_fid":-1}},{"type":"Feature","id":247,"geometry":{"type":"Point","coordinates":[80.03545500000007,6.3052510000000552]},