{"displayFieldName":"name","fieldAliases":{"objectid":"objectid","name":"name","address":"address","rooms":"rooms","grade":"grade","district":"district","aga_division":"AGA Division","ps_mc_uc":"PS/MC/UC","logitiute":"logitiute","latitude":"latitude","orig_fid":"orig_fid"},"geometryType":"esriGeometryPoint","spatialReference":{"wkid":4326,"latestWkid":4326},"fields":[{"name":"objectid","type":"esriFieldTypeOID","alias":"objectid"},{"name":"name","type":"esriFieldTypeString","alias":"name","length":255},{"name":"address","type":"esriFieldTypeString","alias":"address","length":255},{"name":"rooms","type":"esriFieldTypeDouble","alias":"rooms"},{"name":"grade","type":"esriFieldTypeString","alias":"grade","length":255},{"name":"district","type":"esriFieldTypeString","alias":"district","length":255},{"name":"aga_division","type":"esriFieldTypeString","alias":"AGA Division","length":255},{"name":"ps_mc_uc","type":"esriFieldTypeString","alias":"PS/MC/UC","length":255},{"name":"logitiute","type":"esriFieldTypeDouble","alias":"logitiute"},{"name":"latitude","type":"esriFieldTypeDouble","alias":"latitude"},{"name":"orig_fid","type":"esriFieldTypeInteger","alias":"orig_fid"}],"features":[{"attributes":{"objectid":1,"name":"ALMAMALI HOTEL","address":"HEDAKETIYA,ANGUNUKOLAPELESSA","rooms":12.0,"grade":"B","district":"Hambantota","aga_division":"Batticaloa","ps_mc_uc":"Angunakolapelessa Divisional Secretariat","logitiute":80.8983713,"latitude":6.164142,"orig_fid":-1},"geometry":{"x":80.898371300000065,"y":6.1641420000000267}},{"attributes":{"objectid":2,"name":"BUWANEKA HOTEL AND RESTAURANT","address":"NO 01,DAMBULLA ROAD,KURUNEGALA","rooms":7.0,"grade":"B","district":"Kurunegala","aga_division":"Kurunegala","ps_mc_uc":"Kurunegala Divisional Secretariat","logitiute":80.3626379,"latitude":7.4893989,"orig_fid":-1},"geometry":{"x":80.362637900000038,"y":7.4893989000000261}},{"attributes":{"objectid":3,"name":"HOTEL LAGOON PARADISE","address":"NO. 12/7,RAJAWATTE,PAMUNUGAMA","rooms":8.0,"grade":"A","district":"Gampaha","aga_division":"Negombo","ps_mc_uc":"Negombo Divisional Secretariat","logitiute":79.838623,"latitude":7.135494,"orig_fid":-1},"geometry":{"x":79.838623000000041,"y":7.1354940000000511}},{"attributes":{"objectid":4,"name":"AMBASEVANA WALAUWA","address":"ARANAYAKE ROAD,USSAPITIYA,KEGALLE.","rooms":7.0,"grade":"A","district":"Kegalle","aga_division":"Kegalle","ps_mc_uc":"Aranayaka Divisional Secretariat","logitiute":80.442372,"latitude":7.248193,"orig_fid":-1},"geometry":{"x":80.442372000000034,"y":7.2481930000000716}},{"attributes":{"objectid":5,"name":"SHANGRELA BEACH RESORT","address":"38, SEA BEACH ROAD, AMBALANGODA","rooms":19.0,"grade":"B","district":"Galle","aga_division":"Ambalangoda","ps_mc_uc":"Galle Divisional Secretariat","logitiute":80.051208,"latitude":6.237265,"orig_fid":-1},"geometry":{"x":80.051208000000031,"y":6.2372650000000363}},{"attributes":{"objectid":6,"name":"GRAND CROWN HOTEL","address":"891,MILAGAS JUNCTION,ANURADHAPURA","rooms":10.0,"grade":"A","district":"Anuradhapura","aga_division":"Anuradhapura","ps_mc_uc":"Anuradhapura East","logitiute":80.4063884,"latitude":8.3208563,"orig_fid":-1},"geometry":{"x":80.406388400000083,"y":8.3208563000000595}},{"attributes":{"objectid":7,"name":"JAYALATH INN","address":"NO.269,WELIGAMPITIYA, JAELA","rooms":6.0,"grade":"C","district":"Gampaha","aga_division":"Gampaha","ps_mc_uc":"Ja-Ela Divisional Secretariat","logitiute":79.894116,"latitude":7.068365,"orig_fid":-1},"geometry":{"x":79.894116000000054,"y":7.0683650000000284}},{"attributes":{"objectid":8,"name":"NUGASEWANA EDEN GUEST HOUSE AND RESTAURANT","address":"\"NUGASEWANA\",PALLIKKUDAWA,TANGALLE.","rooms":6.0,"grade":"B","district":"Hambantota","aga_division":"Tangalle Pradeshiya Sabha","ps_mc_uc":"Tangalle Divisional Secretariat","logitiute":80.788431,"latitude":6.017925,"orig_fid":-1},"geometry":{"x":80.78843100000006,"y":6.0179250000000479}},{"attributes":{"objectid":9,"name":"VIVEKA GUEST HOUSE","address":"64,NORTH LAKE ROAD,KURUNAGALA.","rooms":5.0,"grade":"A","district":"Kurunegala","aga_division":"Kurunegala","ps_mc_uc":"Kurunegala Divisional Secretariat","logitiute":80.364746,"latitude":7.496378,"orig_fid":-1},"geometry":{"x":80.364746000000082,"y":7.4963780000000497}},{"attributes":{"objectid":10,"name":"JULIANA HOTEL","address":"NO.316,GALLE ROAD,COLOMBO 3","rooms":51.0,"grade":"A","district":"Colombo","aga_division":"Colombo","ps_mc_uc":"Colombo Divisional Secretariat","logitiute":79.850259,"latitude":6.90929,"orig_fid":-1},"geometry":{"x":79.850259000000051,"y":6.9092900000000554}},{"attributes":{"objectid":11,"name":"THE BLUE MAGPIE","address":"KUDAWA WEDDAGALA, KALAWANA","rooms":12.0,"grade":"A","district":"Ratnapura","aga_division":"Ratnapura","ps_mc_uc":"Kalawana Divisional Secretariat","logitiute":80.417373,"latitude":6.443468,"orig_fid":-1},"geometry":{"x":80.417373000000055,"y":6.4434680000000526}},{"attributes":{"objectid":12,"name":"RAMBODA FALLS HOTEL","address":"76, ROCK FALL ESTATE, NUWARA ELIYA ROAD, RAMBODA","rooms":24.0,"grade":"A","district":"Nuwara Eliya","aga_division":"Nuwara Eliya","ps_mc_uc":"Nuwara Eliya Divisional Secretariat","logitiute":80.698155,"latitude":7.055811,"orig_fid":-1},"geometry":{"x":80.698155000000042,"y":7.0558110000000624}},{"attributes":{"objectid":13,"name":"LAKE LODGE GUEST HOUSE","address":"NO.20, ALWIS TERRACE, COLOMBO 03.","rooms":13.0,"grade":"A","district":"Colombo","aga_division":"Colombo","ps_mc_uc":"Thimbirigasyaya Divisional Secretariat","logitiute":79.854373,"latitude":6.914976,"orig_fid":-1},"geometry":{"x":79.854373000000066,"y":6.9149760000000242}},{"attributes":{"objectid":14,"name":"ASNARA VILLAGE","address":"MORAGASWEWA,HABARANA.","rooms":12.0,"grade":"A","district":"Polonnaruwa","aga_division":"Hingurakgoda Pradeshiya Sabha","ps_mc_uc":"Hingurakgoda Divisional Secretariat","logitiute":80.779024,"latitude":8.031269,"orig_fid":-1},"geometry":{"x":80.779024000000049,"y":8.0312690000000657}},{"attributes":{"objectid":15,"name":"POLWATHTHA ECO-LODGES","address":"69/1, WEPATHANA, GOMAGODA.","rooms":5.0,"grade":"B","district":"Kandy","aga_division":"Kandy","ps_mc_uc":"Kundasale Divisional Secretariat","logitiute":80.73704,"latitude":7.326892,"orig_fid":-1},"geometry":{"x":80.737040000000036,"y":7.3268920000000435}},{"attributes":{"objectid":16,"name":"HOTEL SANDA DIYA","address":"POLONNARUWA ROAD,PELWEHERA,DAMBULLA.","rooms":6.0,"grade":"A","district":"Matale","aga_division":"Dambulla Pradeshiya Sabha","ps_mc_uc":"Dambulla Divisional Secretariat","logitiute":80.677257,"latitude":7.910221,"orig_fid":-1},"geometry":{"x":80.677257000000054,"y":7.9102210000000355}},{"attributes":{"objectid":17,"name":"NEW PANORAMA","address":"NO 302/1, MARADANA ROAD, MORAGALLA, BERUWALA","rooms":9.0,"grade":"B","district":"Kalutara","aga_division":"Beruwala Pradeshiya Sabha","ps_mc_uc":"Beruwala Divisional Secretariat","logitiute":79.97774,"latitude":6.457364,"orig_fid":-1},"geometry":{"x":79.97774000000004,"y":6.457364000000041}},{"attributes":{"objectid":18,"name":"MARINA BENTOTA","address":"PARADISE ISLAND, NATIONAL HOLIDAY RESORT, BENTOTA.","rooms":13.0,"grade":"A","district":"Galle","aga_division":"Bentota Pradeshiya Sabha","ps_mc_uc":"Benthota Divisional Secretariat","logitiute":79.994808,"latitude":6.428809,"orig_fid":-1},"geometry":{"x":79.994808000000035,"y":6.4288090000000579}},{"attributes":{"objectid":19,"name":"PEARL CLIFF HOTEL","address":"NO.25C, BROWNS HILL, MATARA","rooms":10.0,"grade":"A","district":"Matara","aga_division":"Matara","ps_mc_uc":"Matara Divisional Secretariat","logitiute":80.565161,"latitude":5.942197,"orig_fid":-1},"geometry":{"x":80.565161000000046,"y":5.9421970000000215}},{"attributes":{"objectid":20,"name":"CANTALOUPE VILLAS","address":"MATARA ROAD, PALATUGAHA JUNCTION, HABARADUWA","rooms":16.0,"grade":"A","district":"Galle","aga_division":"Habaraduwa","ps_mc_uc":"Habaraduwa Divisional Secretariat","logitiute":80.294133,"latitude":5.994196,"orig_fid":-1},"geometry":{"x":80.294133000000045,"y":5.9941960000000449}},{"attributes":{"objectid":21,"name":"ROYAL GARDEN GUEST HOUSE","address":"200,HOROWAPOTHANA ROAD,VAVUNIYA","rooms":5.0,"grade":"B","district":"Vavuniya","aga_division":"Vavuniya","ps_mc_uc":"Vavuniya","logitiute":80.501698,"latitude":8.754049,"orig_fid":-1},"geometry":{"x":80.501698000000033,"y":8.7540490000000659}},{"attributes":{"objectid":22,"name":"DAMPE VILLAGE","address":"222,DAMPE,MADAPATHA.","rooms":11.0,"grade":"A","district":"Colombo","aga_division":"Kesbewa","ps_mc_uc":"Kesbewa Divisional Secretariat","logitiute":79.915921,"latitude":6.771875,"orig_fid":-1},"geometry":{"x":79.915921000000083,"y":6.7718750000000227}},{"attributes":{"objectid":23,"name":"JASMINE INN","address":"MATARA ROAD, TALPE","rooms":12.0,"grade":"B","district":"Galle","aga_division":"Habaraduwa","ps_mc_uc":"Habaraduwa Divisional Secretariat","logitiute":80.266027,"latitude":5.999494,"orig_fid":-1},"geometry":{"x":80.266027000000065,"y":5.999494000000027}},{"attributes":{"objectid":24,"name":"AQUA PEARL LAKE RESORT","address":"201, GALKANUWA ROAD, GORAKANA MORATUWA","rooms":20.0,"grade":"A","district":"Colombo","aga_division":"Moratuwa","ps_mc_uc":"Moratuwa Divisional Secretariat","logitiute":79.909622,"latitude":6.763687,"orig_fid":-1},"geometry":{"x":79.90962200000007,"y":6.7636870000000613}},{"attributes":{"objectid":25,"name":"SEA PORT GUEST HOUSE","address":"NO.70, ETHUKALA, NEGOMBO","rooms":10.0,"grade":"A","district":"Gampaha","aga_division":"Negombo","ps_mc_uc":"Negombo Divisional Secretariat","logitiute":79.841867,"latitude":7.240334,"orig_fid":-1},"geometry":{"x":79.841867000000036,"y":7.2403340000000753}},{"attributes":{"objectid":26,"name":"BRIGHTEN REST","address":"214/2, MESSENGER STREET , COLOMBO 12","rooms":24.0,"grade":"A","district":"Colombo","aga_division":"Colombo","ps_mc_uc":"Colombo Divisional Secretariat","logitiute":79.863959,"latitude":6.94154,"orig_fid":-1},"geometry":{"x":79.863959000000079,"y":6.9415400000000318}},{"attributes":{"objectid":27,"name":"COTTAGE TOURIST REST","address":"388/38, HARISCHANDRA MAWATHA, ANURADHAPURA","rooms":6.0,"grade":"B","district":"Anuradhapura","aga_division":"Anuradhapura","ps_mc_uc":"Anuradhapura East","logitiute":80.416088,"latitude":8.332007,"orig_fid":-1},"geometry":{"x":80.416088000000059,"y":8.3320070000000328}},{"attributes":{"objectid":28,"name":"GIHANS FAMILY RESTAURANT AND GUEST","address":"NO 90, S. D. S JAYASINGHE MAWATHA, KOHUWALA","rooms":5.0,"grade":"B","district":"Colombo","aga_division":"Dehiwala-Mount Lavinia","ps_mc_uc":"Colombo Divisional Secretariat","logitiute":79.908237,"latitude":6.857903,"orig_fid":-1},"geometry":{"x":79.908237000000042,"y":6.8579030000000216}},{"attributes":{"objectid":29,"name":"LINROSE HOTEL","address":"175/1, KANDY ROAD, ALUTHGAMA, BOGAMUWA, YAKKALA","rooms":9.0,"grade":"A","district":"Gampaha","aga_division":"Gampaha","ps_mc_uc":"Gampaha Divisional Secretariat","logitiute":80.048479,"latitude":7.109119,"orig_fid":-1},"geometry":{"x":80.048479000000043,"y":7.1091190000000211}},{"attributes":{"objectid":30,"name":"DHARSHANA RESTAURANT","address":"MATARA ROAD, MAKANDURA","rooms":5.0,"grade":"B","district":"Matara","aga_division":"Mulatiyana Pradeshiya Sabha","ps_mc_uc":"Mulatiyana Divisional Secretariat","logitiute":80.556558,"latitude":6.138621,"orig_fid":-1},"geometry":{"x":80.556558000000052,"y":6.1386210000000574}},{"attributes":{"objectid":31,"name":"MONREPO GUEST HOUSE AND RESTAURANT","address":"NO 107, GALA JUNCTION KANDY ROAD KIRIBATHGODA","rooms":17.0,"grade":"B","district":"Gampaha","aga_division":"Mahara Pradeshiya Sabha","ps_mc_uc":"Gampaha Divisional Secretariat","logitiute":79.932947,"latitude":6.984369,"orig_fid":-1},"geometry":{"x":79.93294700000007,"y":6.984369000000072}},{"attributes":{"objectid":32,"name":"THE OTHER CORNER","address":"LAKSIRIGAMA, PALIGASWEWA, HABARANA","rooms":9.0,"grade":"A","district":"Anuradhapura","aga_division":"Anuradhapura","ps_mc_uc":"Anuradhapura East","logitiute":80.742822,"latitude":8.038626,"orig_fid":-1},"geometry":{"x":80.742822000000047,"y":8.038626000000022}},{"attributes":{"objectid":33,"name":"NEW KOTHMALE HOLIDAY RESORT","address":"RIVER SIDE,MAWATURA,GAMPOLA.","rooms":5.0,"grade":"A","district":"Kandy","aga_division":"Gampola","ps_mc_uc":"Kandy Divisional Secretariat","logitiute":80.594895,"latitude":7.063906,"orig_fid":-1},"geometry":{"x":80.594895000000065,"y":7.0639060000000313}},{"attributes":{"objectid":34,"name":"WAGON WHEEL","address":"245/1, HILL HOUSE GARDENS,DEHIWALA.","rooms":5.0,"grade":"A","district":"Colombo","aga_division":"Dehiwala-Mount Lavinia","ps_mc_uc":"Dehiwala Divisional Secretariat","logitiute":79.866431,"latitude":6.851757,"orig_fid":-1},"geometry":{"x":79.866431000000034,"y":6.8517570000000205}},{"attributes":{"objectid":35,"name":"SOBA LANKA HOLIDAY RESORT","address":"BALAWATTALA ROAD, MELSIRIPURA.","rooms":9.0,"grade":"B","district":"Kurunegala","aga_division":"Ibbagamuwa Pradeshiya Sabha","ps_mc_uc":"Ibbagamuwa Divisional Secretariat","logitiute":80.505763,"latitude":7.626349,"orig_fid":-1},"geometry":{"x":80.505763000000059,"y":7.6263490000000616}},{"attributes":{"objectid":36,"name":"NEW WADDUWA BEACH RESORT","address":"NO 14, RATHNAYAKA PLACE, THALPITIYA SOUTH, WADDUWA","rooms":11.0,"grade":"A","district":"Kalutara","aga_division":"Panadura Pradeshiya Sabha","ps_mc_uc":"Panadura Divisional Secretariat","logitiute":79.922276,"latitude":6.673997,"orig_fid":-1},"geometry":{"x":79.922276000000068,"y":6.6739970000000426}},{"attributes":{"objectid":37,"name":"COLOMBO SWIMMING CLUB","address":"STORM LODGE, NO 148, GALLE ROAD, COLOMBO 03","rooms":17.0,"grade":"A","district":"Colombo","aga_division":"Colombo","ps_mc_uc":"Thimbirigasyaya Divisional Secretariat","logitiute":79.847602,"latitude":6.914766,"orig_fid":-1},"geometry":{"x":79.847602000000052,"y":6.9147660000000428}},{"attributes":{"objectid":38,"name":"RIVERDALE VILLAS","address":"NO 46, GALLE ROAD, MORAGALLA, ALUTHGAMA","rooms":8.0,"grade":"A","district":"Kalutara","aga_division":"Beruwala Pradeshiya Sabha","ps_mc_uc":"Beruwala Divisional Secretariat","logitiute":79.990433,"latitude":6.445542,"orig_fid":-1},"geometry":{"x":79.990433000000053,"y":6.4455420000000458}},{"attributes":{"objectid":39,"name":"NITHILA INN","address":"228/J, BANDARAGAMA ROAD, KESBEWA","rooms":6.0,"grade":"B","district":"Colombo","aga_division":"Kesbewa","ps_mc_uc":"Kesbewa Divisional Secretariat","logitiute":79.940755,"latitude":6.794258,"orig_fid":-1},"geometry":{"x":79.940755000000081,"y":6.7942580000000703}},{"attributes":{"objectid":40,"name":"DIL REST","address":"RATNAPURA ROAD, GURUGODA, HORANA","rooms":6.0,"grade":"A","district":"Kalutara","aga_division":"Horana Pradeshiya Sabha","ps_mc_uc":"Horana Divisional Secretariat","logitiute":80.099906,"latitude":6.730412,"orig_fid":-1},"geometry":{"x":80.099906000000033,"y":6.730412000000058}},{"attributes":{"objectid":41,"name":"OCEAN VILLA","address":"NO. 14, JOHN KEELS HOUSING COMPLEX, PINWATTA, PANADURA","rooms":4.0,"grade":"A","district":"Kalutara","aga_division":"Panadura Pradeshiya Sabha","ps_mc_uc":"Panadura Divisional Secretariat","logitiute":79.930813,"latitude":6.655353,"orig_fid":-1},"geometry":{"x":79.930813000000057,"y":6.6553530000000478}},{"attributes":{"objectid":42,"name":"SYZYGY GARDEN","address":"NO. 475, KURUNDANKULAMA ANURADHAPURA","rooms":7.0,"grade":"B","district":"Anuradhapura","aga_division":"Anuradhapura","ps_mc_uc":"Anuradhapura East","logitiute":80.446212,"latitude":8.346319,"orig_fid":-1},"geometry":{"x":80.44621200000006,"y":8.3463190000000509}},{"attributes":{"objectid":43,"name":"KANRO HOLIDAY RESORT","address":"NO. 117, HANWELLA ROAD, TITTAPATHTHARA","rooms":7.0,"grade":"B","district":"Gampaha","aga_division":"Gampaha","ps_mc_uc":"Gampaha Divisional Secretariat","logitiute":80.084443,"latitude":6.930542,"orig_fid":-1},"geometry":{"x":80.084443000000078,"y":6.9305420000000595}},{"attributes":{"objectid":44,"name":"THE MOUNTAIN HEAVENS","address":"KITHAL ELLA, ELLA","rooms":9.0,"grade":"A","district":"Badulla","aga_division":"Ella Pradeshiya Sabha","ps_mc_uc":"Ella Divisional Secretariat","logitiute":81.046036,"latitude":6.871162,"orig_fid":-1},"geometry":{"x":81.046036000000072,"y":6.8711620000000266}},{"attributes":{"objectid":45,"name":"SOLIS TOURIST REST","address":"NO. 217, NUPE, MATARA","rooms":10.0,"grade":"A","district":"Matara","aga_division":"Matara","ps_mc_uc":"Matara Divisional Secretariat","logitiute":80.536898,"latitude":5.948347,"orig_fid":-1},"geometry":{"x":80.536898000000065,"y":5.9483470000000693}},{"attributes":{"objectid":46,"name":"ANON REST","address":"YAPAGAMA, MATALE ROAD, DAMBULLA","rooms":18.0,"grade":"A","district":"Matale","aga_division":"Dambulla Pradeshiya Sabha","ps_mc_uc":"Dambulla Divisional Secretariat","logitiute":80.653899,"latitude":7.846443,"orig_fid":-1},"geometry":{"x":80.653899000000081,"y":7.846443000000022}},{"attributes":{"objectid":47,"name":"HOTEL WESTEERN","address":"NO. 35, FRANKFURT PLACE, COLOMBO 04","rooms":44.0,"grade":"A","district":"Colombo","aga_division":"Colombo","ps_mc_uc":"Colombo Divisional Secretariat","logitiute":79.855433,"latitude":6.883914,"orig_fid":-1},"geometry":{"x":79.855433000000062,"y":6.8839140000000612}},{"attributes":{"objectid":48,"name":"HOTEL GREEN VALLEY","address":"OLD COLOMBO ROAD, HANWELLA","rooms":18.0,"grade":"A","district":"Colombo","aga_division":"Colombo","ps_mc_uc":"Colombo Divisional Secretariat","logitiute":80.077071,"latitude":6.909187,"orig_fid":-1},"geometry":{"x":80.077071000000046,"y":6.9091870000000313}},{"attributes":{"objectid":49,"name":"LAGOON GARDEN","address":"KALAWILAWATTA, MORAGALLA, ALUTHGAMA","rooms":5.0,"grade":"B","district":"Kalutara","aga_division":"Beruwala Pradeshiya Sabha","ps_mc_uc":"Beruwala Divisional Secretariat","logitiute":79.991388,"latitude":6.445224,"orig_fid":-1},"geometry":{"x":79.991388000000029,"y":6.4452240000000529}},{"attributes":{"objectid":50,"name":"HOTEL ELEPHANT VIEW","address":"PINNAWALA, RAMBUKKANA","rooms":4.0,"grade":"A","district":"Kegalle","aga_division":"Rambukkana Pradeshiya Sabha","ps_mc_uc":"Rambukkana Divisional Secretariat","logitiute":80.385921,"latitude":7.298837,"orig_fid":-1},"geometry":{"x":80.385921000000053,"y":7.2988370000000486}},{"attributes":{"objectid":51,"name":"HOTEL ROSILU","address":"NO. 60/5/A, KANDY ROAD, THIHARIYA, KALAGEDIHENA","rooms":6.0,"grade":"B","district":"Gampaha","aga_division":"Attanagalla Pradeshiya Sabha","ps_mc_uc":"Attanagalla Divisional Secretariat","logitiute":80.068738,"latitude":7.124225,"orig_fid":-1},"geometry":{"x":80.068738000000053,"y":7.124225000000024}},{"attributes":{"objectid":52,"name":"ISHAN HOTEL","address":"NO. 583, COLOMBO ROAD, UTUWANKANDA, MAWANELLA","rooms":10.0,"grade":"A","district":"Kegalle","aga_division":"Kegalle","ps_mc_uc":"Mawanella Divisional Secretariat","logitiute":80.428744,"latitude":7.2519,"orig_fid":-1},"geometry":{"x":80.428744000000052,"y":7.2519000000000347}},{"attributes":{"objectid":53,"name":"SURFING VILLA","address":"WELHANGODA, AHANGAMA,","rooms":6.0,"grade":"B","district":"Galle","aga_division":"Habaraduwa","ps_mc_uc":"Habaraduwa Divisional Secretariat","logitiute":80.348913,"latitude":5.978203,"orig_fid":-1},"geometry":{"x":80.348913000000039,"y":5.9782030000000645}},{"attributes":{"objectid":54,"name":"HOTEL BLUE NOTE","address":"NO. 424, GALLE ROAD, HIKKADUWA","rooms":9.0,"grade":"B","district":"Galle","aga_division":"Hikkaduwa","ps_mc_uc":"Hikkaduwa Divisional Secretariat","logitiute":80.104097,"latitude":6.12801,"orig_fid":-1},"geometry":{"x":80.104097000000081,"y":6.1280100000000743}},{"attributes":{"objectid":55,"name":"OLANKA HOTEL AND RESTAURANT","address":"NO. 9TH LANE, MILE POST, KARUWALAGASWEWA, PUTTLAM","rooms":8.0,"grade":"B","district":"Puttalam","aga_division":"Karuwalagaswewa Pradeshiya","ps_mc_uc":"Karuwalagaswewa Divisional Secretariat","logitiute":79.959919,"latitude":8.057558,"orig_fid":-1},"geometry":{"x":79.95991900000007,"y":8.0575580000000286}},{"attributes":{"objectid":56,"name":"HOTEL SUMADAI","address":"NO. 61, BANDARAWATHTHA, BERUWALA","rooms":21.0,"grade":"A","district":"Kalutara","aga_division":"Beruwala Pradeshiya Sabha","ps_mc_uc":"Beruwala Divisional Secretariat","logitiute":79.975532,"latitude":6.467535,"orig_fid":-1},"geometry":{"x":79.975532000000044,"y":6.4675350000000549}},{"attributes":{"objectid":57,"name":"VILLA PALMA BEACH RESORT","address":"BEACH ROAD, PAMUNUGAMA, JA-ELA","rooms":19.0,"grade":"A","district":"Gampaha","aga_division":"Gampaha","ps_mc_uc":"Ja-Ela Divisional Secretariat","logitiute":79.84844,"latitude":7.085179,"orig_fid":-1},"geometry":{"x":79.848440000000039,"y":7.0851790000000392}},{"attributes":{"objectid":58,"name":"AIR LINK REST INN","address":"NO. 580, NEGOMBO ROAD, SEEDUWA","rooms":15.0,"grade":"A","district":"Gampaha","aga_division":"Katunayake-Seeduwa","ps_mc_uc":"Katana Divisional Secretariat","logitiute":79.877075,"latitude":7.12633,"orig_fid":-1},"geometry":{"x":79.877075000000048,"y":7.1263300000000527}},{"attributes":{"objectid":59,"name":"AUBRONA HOTEL","address":"NO. 81, NEW ROAD, HUNUPITIYA WATTALA","rooms":50.0,"grade":"A","district":"Gampaha","aga_division":"Kelaniya Pradeshiya Sabha","ps_mc_uc":"Kelaniya Divisional Secretariat","logitiute":79.907996,"latitude":6.982729,"orig_fid":-1},"geometry":{"x":79.907996000000082,"y":6.982729000000063}},{"attributes":{"objectid":60,"name":"HOTEL DHAMMIKA","address":"YADDEHIMULLA ROAD, UNAWATUNA, GALLE","rooms":6.0,"grade":"B","district":"Galle","aga_division":"Habaraduwa","ps_mc_uc":"Habaraduwa Divisional Secretariat","logitiute":80.246331,"latitude":6.009779,"orig_fid":-1},"geometry":{"x":80.246331000000055,"y":6.0097790000000373}},{"attributes":{"objectid":61,"name":"AMALYA REACH RESORT","address":"NO. 556, MORAGAHAHENA ROAD, PITIPANA NORTH, HOMAGAMA","rooms":16.0,"grade":"A","district":"Colombo","aga_division":"Homagama Pradeshiya Sabha","ps_mc_uc":"Homagama Divisional Secretariat","logitiute":80.021092,"latitude":6.840281,"orig_fid":-1},"geometry":{"x":80.021092000000067,"y":6.8402810000000613}},{"attributes":{"objectid":62,"name":"ASIAN JEWEL HOTEL","address":"\"FIELD VIEW\", BADDEGAMA ROAD, NALAGASDENIYA, HIKKADUWA","rooms":7.0,"grade":"B","district":"Galle","aga_division":"Hikkaduwa","ps_mc_uc":"Hikkaduwa Divisional Secretariat","logitiute":80.118417,"latitude":6.14168,"orig_fid":-1},"geometry":{"x":80.118417000000079,"y":6.1416800000000649}},{"attributes":{"objectid":63,"name":"LEOPARD DEN","address":"WILPATTU JUNCTION, PAHALAMARAGAHAWEWA","rooms":12.0,"grade":"A","district":"Anuradhapura","aga_division":"Anuradhapura","ps_mc_uc":"Anuradhapura East","logitiute":80.202998,"latitude":8.260678,"orig_fid":-1},"geometry":{"x":80.202998000000036,"y":8.2606780000000413}},{"attributes":{"objectid":64,"name":"NEW IMPERIAL GUEST HOUSE","address":"NO. 500, GALLE ROAD, WEWALA, HIKKADUWA","rooms":5.0,"grade":"B","district":"Galle","aga_division":"Hikkaduwa","ps_mc_uc":"Hikkaduwa Divisional Secretariat","logitiute":80.10559,"latitude":6.127181,"orig_fid":-1},"geometry":{"x":80.105590000000063,"y":6.1271810000000642}},{"attributes":{"objectid":65,"name":"NEDAGAMUWA VILLAGE INN","address":"NO. 76, UDUGAMPOLA ROAD, NEDUGAMUWA, KOTUGODA","rooms":7.0,"grade":"A","district":"Gampaha","aga_division":"Minuwangoda Pradeshiya Sabha","ps_mc_uc":"Minuwangoda Divisional Secretariat","logitiute":79.94518,"latitude":7.122843,"orig_fid":-1},"geometry":{"x":79.94518000000005,"y":7.1228430000000458}},{"attributes":{"objectid":66,"name":"DIYALUMA FALLS INN","address":"NO. 14, DIYALUMA, KOSLANDA","rooms":9.0,"grade":"A","district":"Badulla","aga_division":"Haldummulla Pradeshiya Sabha","ps_mc_uc":"Haldummulla Divisional Secretariat","logitiute":81.030733,"latitude":6.72828,"orig_fid":-1},"geometry":{"x":81.030733000000055,"y":6.7282800000000407}},{"attributes":{"objectid":67,"name":"NATHALIA TOURIST HOTEL","address":"NO. 636/1, LIYANAGEMULLA, SEEDUWA","rooms":12.0,"grade":"B","district":"Gampaha","aga_division":"Katana Pradeshiya Sabha","ps_mc_uc":"Katana Divisional Secretariat","logitiute":79.874098,"latitude":7.146048,"orig_fid":-1},"geometry":{"x":79.87409800000006,"y":7.1460480000000643}},{"attributes":{"objectid":68,"name":"RAASHI LAKE RESORT","address":"374/4, GALLE ROAD, GORAKANA, KESELWATTE","rooms":16.0,"grade":"B","district":"Kalutara","aga_division":"Panadura Pradeshiya Sabha","ps_mc_uc":"Panadura Divisional Secretariat","logitiute":79.896623,"latitude":6.764255,"orig_fid":-1},"geometry":{"x":79.896623000000034,"y":6.7642550000000483}},{"attributes":{"objectid":69,"name":"SRI GEMUNU GUEST HOUSE","address":"DALAWELLA, UNAWATUNA, GALLE","rooms":20.0,"grade":"A","district":"Galle","aga_division":"Habaraduwa","ps_mc_uc":"Habaraduwa Divisional Secretariat","logitiute":80.262016,"latitude":6.000509,"orig_fid":-1},"geometry":{"x":80.262016000000074,"y":6.0005090000000223}},{"attributes":{"objectid":70,"name":"VICTORIYA REACH TOURIST GUEST HOUSE","address":"133/2, HANGURANKETHA ROAD, GURUDENIYA.","rooms":6.0,"grade":"B","district":"Kandy","aga_division":"Kandy","ps_mc_uc":"Kandy Divisional Secretariat","logitiute":80.673613,"latitude":7.275099,"orig_fid":-1},"geometry":{"x":80.673613000000046,"y":7.2750990000000684}},{"attributes":{"objectid":71,"name":"VICTORY INN","address":"NO. 65, WELLAWAYA ROAD, MONARAGALA","rooms":12.0,"grade":"A","district":"Moneragala","aga_division":"Thissamaharama","ps_mc_uc":"Moneragala Divisional Secretariat","logitiute":81.347934,"latitude":6.868747,"orig_fid":-1},"geometry":{"x":81.347934000000066,"y":6.8687470000000417}},{"attributes":{"objectid":72,"name":"SUMMER CLUB","address":"RIVER VIEW ROAD, HIRANA, PANADURA","rooms":5.0,"grade":"B","district":"Kalutara","aga_division":"Panadura Pradeshiya Sabha","ps_mc_uc":"Panadura Divisional Secretariat","logitiute":79.945353,"latitude":6.743163,"orig_fid":-1},"geometry":{"x":79.945353000000068,"y":6.7431630000000382}},{"attributes":{"objectid":73,"name":"SOUTH BEACH RESORT","address":"POLOYAMODARA WATTHA, KATHALUWA, AHANGAMA","rooms":22.0,"grade":"A","district":"Galle","aga_division":"Habaraduwa","ps_mc_uc":"Habaraduwa Divisional Secretariat","logitiute":80.336367,"latitude":5.982629,"orig_fid":-1},"geometry":{"x":80.336367000000052,"y":5.9826290000000313}},{"attributes":{"objectid":74,"name":"ST. LACHLAN HOTEL AND SUITES","address":"NO. 25, ST ANTHONYS LANE, ETHUKALA, NEGOMBO","rooms":16.0,"grade":"A","district":"Gampaha","aga_division":"Negombo","ps_mc_uc":"Negombo Divisional Secretariat","logitiute":79.842631,"latitude":7.24018,"orig_fid":-1},"geometry":{"x":79.84263100000004,"y":7.2401800000000662}},{"attributes":{"objectid":75,"name":"SEA VIEW GUEST HOUSE","address":"DEVALA ROAD, UNAWATUNA, GALLE","rooms":12.0,"grade":"B","district":"Galle","aga_division":"Habaraduwa","ps_mc_uc":"Habaraduwa Divisional Secretariat","logitiute":80.243747,"latitude":6.010399,"orig_fid":-1},"geometry":{"x":80.243747000000042,"y":6.0103990000000636}},{"attributes":{"objectid":76,"name":"SERENE BRIDGE RESORT","address":"NO. 182/2, HIGH LEVEL ROAD, WATARAKA, PADUKKA","rooms":10.0,"grade":"A","district":"Colombo","aga_division":"Homagama Pradeshiya Sabha","ps_mc_uc":"Homagama Divisional Secretariat","logitiute":80.078141,"latitude":6.854048,"orig_fid":-1},"geometry":{"x":80.078141000000073,"y":6.8540480000000343}},{"attributes":{"objectid":77,"name":"HOTEL MIYORA","address":"YATIBERIYA, PITAWALA, NAWALAPITIYA","rooms":22.0,"grade":"A","district":"Nuwara Eliya","aga_division":"Nawalapitiya","ps_mc_uc":"Nuwara Eliya Divisional Secretariat","logitiute":80.43517,"latitude":6.990179,"orig_fid":-1},"geometry":{"x":80.435170000000085,"y":6.9901790000000688}},{"attributes":{"objectid":78,"name":"OLD FASHION GUEST HOUSE","address":"NO. 18, GAMPAHA ROAD, AMBAGAHAWATTA, MINUWANGODA","rooms":5.0,"grade":"B","district":"Gampaha","aga_division":"Minuwangoda Pradeshiya Sabha","ps_mc_uc":"Minuwangoda Divisional Secretariat","logitiute":79.94703,"latitude":7.163702,"orig_fid":-1},"geometry":{"x":79.947030000000041,"y":7.1637020000000575}},{"attributes":{"objectid":79,"name":"HIDEAWAY RESORT","address":"ULLE, POTTUVIL","rooms":13.0,"grade":"B","district":"Ampara","aga_division":"Ampara","ps_mc_uc":"Pottuvil Divisional Secretariat","logitiute":81.831908,"latitude":6.841615,"orig_fid":-1},"geometry":{"x":81.831908000000055,"y":6.8416150000000471}},{"attributes":{"objectid":80,"name":"SUNRAY INN","address":"NO. 156, KANDY ROAD, DAMBULLA","rooms":8.0,"grade":"A","district":"Matale","aga_division":"Dambulla Pradeshiya Sabha","ps_mc_uc":"Dambulla Divisional Secretariat","logitiute":80.652218,"latitude":7.861287,"orig_fid":-1},"geometry":{"x":80.652218000000062,"y":7.8612870000000612}},{"attributes":{"objectid":81,"name":"OCEAN VIEW TOUR INN","address":"NO. 34/4, DE SERAM ROAD, MOUNT LAVINIYA","rooms":23.0,"grade":"A","district":"Colombo","aga_division":"Colombo","ps_mc_uc":"Mount Lavinia","logitiute":79.863653,"latitude":6.839774,"orig_fid":-1},"geometry":{"x":79.863653000000056,"y":6.839774000000034}},{"attributes":{"objectid":82,"name":"GREEN INN RESTAURANT","address":"NO.60, KANDY ROAD, CHUNDIKULI, JAFFNA","rooms":7.0,"grade":"B","district":"Jaffna","aga_division":"Jaffna","ps_mc_uc":"Aluthgama","logitiute":80.027023,"latitude":9.660214,"orig_fid":-1},"geometry":{"x":80.027023000000042,"y":9.6602140000000531}},{"attributes":{"objectid":83,"name":"NEW GREEN INN RESTAURANT","address":"NO.258/3, KANDY ROAD, JAFFNA","rooms":7.0,"grade":"B","district":"Jaffna","aga_division":"Jaffna","ps_mc_uc":"Jaffna Divisional Secretariat","logitiute":80.027023,"latitude":9.660209,"orig_fid":-1},"geometry":{"x":80.027023000000042,"y":9.6602090000000658}},{"attributes":{"objectid":84,"name":"PILLAIAR INN AND PILLAIAR STORES","address":"NO. 31, MANIPAY ROAD, JAFFNA","rooms":22.0,"grade":"A","district":"Jaffna","aga_division":"Jaffna","ps_mc_uc":"Jaffna Divisional Secretariat","logitiute":80.009551,"latitude":9.670069,"orig_fid":-1},"geometry":{"x":80.009551000000044,"y":9.6700690000000691}},{"attributes":{"objectid":85,"name":"JAYS HOLIDAY RESORT","address":"THREESINGHAGAMA, MORAGASWAWE, HABARANA","rooms":8.0,"grade":"A","district":"Polonnaruwa","aga_division":"Hingurakgoda Pradeshiya Sabha","ps_mc_uc":"Hingurakgoda Divisional Secretariat","logitiute":80.76564,"latitude":8.029694,"orig_fid":-1},"geometry":{"x":80.765640000000076,"y":8.0296940000000632}},{"attributes":{"objectid":86,"name":"J.CS VILLAGE","address":"NO. 175, KANDY ROAD, KAPUWATTA, DAMBULLA","rooms":12.0,"grade":"A","district":"Matale","aga_division":"Dambulla Pradeshiya Sabha","ps_mc_uc":"Dambulla Divisional Secretariat","logitiute":80.655484,"latitude":7.838936,"orig_fid":-1},"geometry":{"x":80.655484000000058,"y":7.8389360000000465}},{"attributes":{"objectid":87,"name":"JAFFNA CITY HOTEL","address":"NO. 70/06, K. K. S ROAD, JAFFNA","rooms":8.0,"grade":"A","district":"Jaffna","aga_division":"Jaffna","ps_mc_uc":"Jaffna Divisional Secretariat","logitiute":80.009635,"latitude":9.665792,"orig_fid":-1},"geometry":{"x":80.00963500000006,"y":9.6657920000000672}},{"attributes":{"objectid":88,"name":"JOES HABARANA VILLAGE","address":"NO. 107, MILE POST, KIMBISSA.","rooms":12.0,"grade":"A","district":"Matale","aga_division":"Dambulla Pradeshiya Sabha","ps_mc_uc":"Dambulla Divisional Secretariat","logitiute":80.72963,"latitude":7.997661,"orig_fid":-1},"geometry":{"x":80.729630000000043,"y":7.9976610000000505}},{"attributes":{"objectid":89,"name":"NATURE TRAILS HOTEL","address":"NO. 234, POLONNARUWA ROAD, GIRITHALE","rooms":6.0,"grade":"B","district":"Polonnaruwa","aga_division":"Hingurakgoda Pradeshiya Sabha","ps_mc_uc":"Hingurakgoda Divisional Secretariat","logitiute":80.959299,"latitude":8.029267,"orig_fid":-1},"geometry":{"x":80.959299000000044,"y":8.0292670000000612}},{"attributes":{"objectid":90,"name":"SUPERSTAR TOURIST INN","address":"NO. 23/1, YARD ROAD, KALMUNAI 01","rooms":15.0,"grade":"B","district":"Ampara","aga_division":"Kalmunai","ps_mc_uc":"Kalmunai Divisional Secretariat","logitiute":81.824219,"latitude":7.420669,"orig_fid":-1},"geometry":{"x":81.824219000000085,"y":7.4206690000000322}},{"attributes":{"objectid":91,"name":"HOTEL SANSU","address":"NO.651/31- B, ELVITIGALA MAWATHA, COLOMBO 05","rooms":18.0,"grade":"A","district":"Colombo","aga_division":"Colombo","ps_mc_uc":"Thimbirigasyaya Divisional Secretariat","logitiute":79.877542,"latitude":6.888832,"orig_fid":-1},"geometry":{"x":79.877542000000062,"y":6.8888320000000363}},{"attributes":{"objectid":92,"name":"GREEN GRASS HOTEL & RESTAURANT","address":"NO. 33, ASEERVATHAM LANE, HOSPITAL ROAD, JAFFNA","rooms":25.0,"grade":"A","district":"Jaffna","aga_division":"Jaffna","ps_mc_uc":"Jaffna Divisional Secretariat","logitiute":80.021882,"latitude":9.664293,"orig_fid":-1},"geometry":{"x":80.021882000000062,"y":9.6642930000000433}},{"attributes":{"objectid":93,"name":"OCEAN DREAMS HOTEL","address":"JANISGEWATTA,\"ARANWALA\",MATARA RD,AHANGAMA","rooms":13.0,"grade":"A","district":"Galle","aga_division":"Habaraduwa","ps_mc_uc":"Habaraduwa Divisional Secretariat","logitiute":80.376404,"latitude":5.966579,"orig_fid":-1},"geometry":{"x":80.376404000000036,"y":5.9665790000000243}},{"attributes":{"objectid":94,"name":"S.T .RAAJ RESTAURANT AND GUEST HOUSE","address":"OLD HOSPITAL ROAD,AKKARAIPATTU-09","rooms":6.0,"grade":"C","district":"Ampara","aga_division":"Ampara","ps_mc_uc":"Alayadiwembu Divisional Secretariat","logitiute":81.856883,"latitude":7.206247,"orig_fid":-1},"geometry":{"x":81.856883000000039,"y":7.2062470000000758}},{"attributes":{"objectid":95,"name":"WASANTHA GUEST HOUSE & RESTAURANT","address":"AMBALANGODA ROAD,ELPITIYTA.","rooms":18.0,"grade":"B","district":"Galle","aga_division":"Ambalangoda","ps_mc_uc":"Elpitiya Divisional Secretariat","logitiute":80.054295,"latitude":6.232812,"orig_fid":-1},"geometry":{"x":80.054295000000081,"y":6.232812000000024}},{"attributes":{"objectid":96,"name":"LALUNA HOTEL","address":"NO.6,KALUWAMODARA,ALUTHGAMA.","rooms":14.0,"grade":"B","district":"Kalutara","aga_division":"Aluthgama","ps_mc_uc":"Aluthgama","logitiute":79.994732,"latitude":6.435952,"orig_fid":-1},"geometry":{"x":79.994732000000056,"y":6.435952000000043}},{"attributes":{"objectid":97,"name":"HOTEL SELLA REST","address":"NO.46, KANAKAPURAM ROAD, UTHAYANGAR WEST, KILINOCHCHI.","rooms":10.0,"grade":"B","district":"Kilinochchi","aga_division":"Karachchi","ps_mc_uc":"Karachchi","logitiute":80.396111,"latitude":9.383397,"orig_fid":-1},"geometry":{"x":80.396111000000076,"y":9.3833970000000591}},{"attributes":{"objectid":98,"name":"TAPROSPA \"TISSA\"","address":"NO.15,TISSAWEWA ROAD,TISSAMAHARAMA.","rooms":15.0,"grade":"A","district":"Hambantota","aga_division":"Thissamaharama","ps_mc_uc":"Thissamaharama Divisional Secretariat","logitiute":81.290697,"latitude":6.291296,"orig_fid":-1},"geometry":{"x":81.29069700000008,"y":6.2912960000000453}},{"attributes":{"objectid":99,"name":"PALACE MIRISSA","address":"KOPPARAMULLA,MIRISSA.","rooms":13.0,"grade":"A","district":"Matara","aga_division":"Weligama Pradeshiya Sabha","ps_mc_uc":"Weligama Divisional Secretariat","logitiute":80.454304,"latitude":5.94293,"orig_fid":-1},"geometry":{"x":80.454304000000036,"y":5.9429300000000467}},{"attributes":{"objectid":100,"name":"LOON TAO","address":"43\\12 BEACH ROAD,MOUNT LAVINIA.","rooms":5.0,"grade":"B","district":"Colombo","aga_division":"Dehiwala-Mount Lavinia","ps_mc_uc":"Colombo Divisional Secretariat","logitiute":79.863186,"latitude":6.839039,"orig_fid":-1},"geometry":{"x":79.863186000000042,"y":6.8390390000000707}},{"attributes":{"objectid":101,"name":"BEACH HOTEL BLACK ORCHID","address":"GALLE ROAD, KIKAWALA, INDURUWA","rooms":10.0,"grade":"A","district":"Galle","aga_division":"Bentota Pradeshiya Sabha","ps_mc_uc":"Benthota Divisional Secretariat","logitiute":80.009809,"latitude":6.381604,"orig_fid":-1},"geometry":{"x":80.009809000000075,"y":6.3816040000000385}},{"attributes":{"objectid":102,"name":"CHAYANIKA BEACH HOTEL","address":"NO. 21, FONSEKA LANE, KALUTARA NORTH","rooms":22.0,"grade":"A","district":"Kalutara","aga_division":"Kalutara Pradeshiya Sabha","ps_mc_uc":"Kalutara Divisional Secretariat","logitiute":79.954171,"latitude":6.595533,"orig_fid":-1},"geometry":{"x":79.954171000000031,"y":6.5955330000000458}},{"attributes":{"objectid":103,"name":"SERENDIPITY HOLIDAY RESORT","address":"NO. 73/1 A, KALAVILAWATTA, KALUWAMODARA, ALUTHGAMA","rooms":9.0,"grade":"B","district":"Kalutara","aga_division":"Beruwala Pradeshiya Sabha","ps_mc_uc":"Beruwala Divisional Secretariat","logitiute":79.989221,"latitude":6.447703,"orig_fid":-1},"geometry":{"x":79.989221000000043,"y":6.4477030000000468}},{"attributes":{"objectid":104,"name":"SANDAKELUM TOURIST GUEST HOUSE","address":"NO. 29, PARK AVANUE, DANGOLLA, KANDY","rooms":13.0,"grade":"A","district":"Kandy","aga_division":"Kandy","ps_mc_uc":"Kandy Divisional Secretariat","logitiute":80.61017,"latitude":7.267498,"orig_fid":-1},"geometry":{"x":80.610170000000039,"y":7.267498000000046}},{"attributes":{"objectid":105,"name":"HANWELLA REST HOUSE","address":"HANWELLA","rooms":8.0,"grade":"B","district":"Colombo","aga_division":"Seethawaka Pradeshiya Sabha","ps_mc_uc":"Seethawaka Divisional Secretariat","logitiute":80.082467,"latitude":6.910321,"orig_fid":-1},"geometry":{"x":80.082467000000065,"y":6.9103210000000672}},{"attributes":{"objectid":106,"name":"REGGIES GUEST HOUSE AND RESTAURANT","address":"NO.177,PORUTHOTA ROAD,PALAGATHURAI,KOCHCHIKADE,NEGOMBO.","rooms":10.0,"grade":"B","district":"Gampaha","aga_division":"Negombo","ps_mc_uc":"Negombo Divisional Secretariat","logitiute":79.841888,"latitude":7.249863,"orig_fid":-1},"geometry":{"x":79.84188800000004,"y":7.2498630000000617}},{"attributes":{"objectid":107,"name":"AYURVEDA SHUNYATA VILLA","address":"NO:660/A,GALLE ROAD,GALABODA,INDURUWA","rooms":5.0,"grade":"A","district":"Galle","aga_division":"Bentota Pradeshiya Sabha","ps_mc_uc":"Benthota Divisional Secretariat","logitiute":80.008527,"latitude":6.384861,"orig_fid":-1},"geometry":{"x":80.008527000000072,"y":6.3848610000000576}},{"attributes":{"objectid":108,"name":"MEDAWACHCHIYA REST HOUSE","address":"MEDAWACHCHIYA","rooms":4.0,"grade":"B","district":"Anuradhapura","aga_division":"Anuradhapura","ps_mc_uc":"Anuradhapura East","logitiute":80.415532,"latitude":8.323678,"orig_fid":-1},"geometry":{"x":80.415532000000042,"y":8.3236780000000294}},{"attributes":{"objectid":109,"name":"KITHULGALA REST HOUSE","address":"KITHULGALA","rooms":19.0,"grade":"A","district":"Kegalle","aga_division":"Yatiyantota Pradeshiya Sabha","ps_mc_uc":"Yatiyanthota Divisional Secretariat","logitiute":80.405998,"latitude":6.995549,"orig_fid":-1},"geometry":{"x":80.405998000000068,"y":6.9955490000000395}},{"attributes":{"objectid":110,"name":"BELIHULOYA REST HOUSE","address":"BELIHULOYA","rooms":15.0,"grade":"A","district":"Ratnapura","aga_division":"Ratnapura","ps_mc_uc":"Ratnapura Divisional Secretariat","logitiute":80.769503,"latitude":6.717253,"orig_fid":-1},"geometry":{"x":80.769503000000043,"y":6.7172530000000279}},{"attributes":{"objectid":111,"name":"CHANUKA TOURIST GUEST HOUSE","address":"NO:29,FRANCES ROAD,WELLAWATTA,COLOMBO 06","rooms":10.0,"grade":"B","district":"Colombo","aga_division":"Colombo","ps_mc_uc":"Colombo Divisional Secretariat","logitiute":79.858306,"latitude":6.875813,"orig_fid":-1},"geometry":{"x":79.858306000000084,"y":6.8758130000000506}},{"attributes":{"objectid":112,"name":"KAMVELTA HOLIDAY RESORT","address":"KINDELPITIYA JUNCTION,WELMILLA,BANDARAGAMA","rooms":6.0,"grade":"A","district":"Kalutara","aga_division":"Bandaragama Pradeshiya Sabha","ps_mc_uc":"Bandaragama Divisional Secretariat","logitiute":79.957457,"latitude":6.751599,"orig_fid":-1},"geometry":{"x":79.957457000000034,"y":6.7515990000000556}},{"attributes":{"objectid":113,"name":"ELEMENTS WATER SPORTS & NATURE RESORT","address":"KAPPALADY,KALPITIYA.","rooms":5.0,"grade":"B","district":"Puttalam","aga_division":"Kalpitiya Pradeshiya Sabha","ps_mc_uc":"Kalpitiya Divisional Secretariat","logitiute":79.705919,"latitude":8.134297,"orig_fid":-1},"geometry":{"x":79.705919000000051,"y":8.1342970000000605}},{"attributes":{"objectid":114,"name":"GUNNERS' CLUB","address":"ARTILLERY COMPLEX ,MINNERIYA","rooms":16.0,"grade":"A","district":"Polonnaruwa","aga_division":"Hingurakgoda Pradeshiya Sabha","ps_mc_uc":"Hingurakgoda Divisional Secretariat","logitiute":80.90291,"latitude":8.061251,"orig_fid":-1},"geometry":{"x":80.902910000000077,"y":8.061251000000027}},{"attributes":{"objectid":115,"name":"THE OCEAN PEARL HOTEL NEGOMBO.","address":"NO:262,PORUTHOTA ROAD,PALAGETHURE,KOCHCHIKADE.","rooms":12.0,"grade":"C","district":"Gampaha","aga_division":"Negombo","ps_mc_uc":"Negombo Divisional Secretariat","logitiute":79.842497,"latitude":7.254093,"orig_fid":-1},"geometry":{"x":79.842497000000037,"y":7.2540930000000685}},{"attributes":{"objectid":116,"name":"NEW YORK BEACH CLUB","address":"PORUTHOTA ROAD,NEGAMBO","rooms":5.0,"grade":"C","district":"Gampaha","aga_division":"Negombo","ps_mc_uc":"Negombo Divisional Secretariat","logitiute":79.84165,"latitude":7.238395,"orig_fid":-1},"geometry":{"x":79.841650000000072,"y":7.2383950000000254}},{"attributes":{"objectid":117,"name":"B.N.C GUEST HOUSE","address":"POLKOTUWA,GALLE ROAD,BERUWALA","rooms":13.0,"grade":"A","district":"Kalutara","aga_division":"Beruwala Pradeshiya Sabha","ps_mc_uc":"Beruwala Divisional Secretariat","logitiute":79.983553,"latitude":6.482415,"orig_fid":-1},"geometry":{"x":79.983553000000029,"y":6.48241500000006}},{"attributes":{"objectid":118,"name":"A9 SPOT","address":"158,A9 ROAD,THONDAMAN NAGAR, KILINOCHCHI.","rooms":8.0,"grade":"A","district":"Kilinochchi","aga_division":"Karachchi","ps_mc_uc":"Karachchi","logitiute":80.408421,"latitude":9.360176,"orig_fid":-1},"geometry":{"x":80.408421000000033,"y":9.360176000000024}},{"attributes":{"objectid":119,"name":"SUN AND MOON RESORT","address":"104/8, GALLE ROAD, KALUWAMODARA, ALUTHGAMA.","rooms":8.0,"grade":"A","district":"Kalutara","aga_division":"Beruwala Pradeshiya Sabha","ps_mc_uc":"Beruwala Divisional Secretariat","logitiute":79.994143,"latitude":6.438851,"orig_fid":-1},"geometry":{"x":79.994143000000065,"y":6.4388510000000565}},{"attributes":{"objectid":120,"name":"CLUB PENTHOUSE ISLAND RESORT","address":"NO:22/1,TUDUWA JUNCTION,DAMPE ,PILIYANDALA","rooms":8.0,"grade":"A","district":"Colombo","aga_division":"Kesbewa","ps_mc_uc":"Kesbewa Divisional Secretariat","logitiute":79.924172,"latitude":6.756206,"orig_fid":-1},"geometry":{"x":79.924172000000056,"y":6.7562060000000201}},{"attributes":{"objectid":121,"name":"APSARA RESORT","address":"539,KANDY ROAD,MALWATTA, NITTAMBUWA.","rooms":10.0,"grade":"A","district":"Gampaha","aga_division":"Attanagalla Pradeshiya Sabha","ps_mc_uc":"Attanagalla Divisional Secretariat","logitiute":80.07915,"latitude":7.133494,"orig_fid":-1},"geometry":{"x":80.079150000000084,"y":7.1334940000000415}},{"attributes":{"objectid":122,"name":"SHANTHI GUEST HOUSE","address":"DALAWELLA,UNAWATUNA,GALLE.","rooms":13.0,"grade":"B","district":"Galle","aga_division":"Habaraduwa","ps_mc_uc":"Habaraduwa Divisional Secretariat","logitiute":80.261613,"latitude":6.000796,"orig_fid":-1},"geometry":{"x":80.261613000000068,"y":6.0007960000000367}},{"attributes":{"objectid":123,"name":"MAWELLA BEACH RESORT","address":"MAHAWELA ROAD,MORAKETIYA,NAKULUGAMA,TANGALLE","rooms":10.0,"grade":"B","district":"Hambantota","aga_division":"Tangalle Pradeshiya Sabha","ps_mc_uc":"Tangalle Divisional Secretariat","logitiute":80.747598,"latitude":5.999027,"orig_fid":-1},"geometry":{"x":80.747598000000039,"y":5.9990270000000692}},{"attributes":{"objectid":124,"name":"GRAND ELLA MOTEL","address":"ELLA","rooms":14.0,"grade":"A","district":"Badulla","aga_division":"Ella Pradeshiya Sabha","ps_mc_uc":"Ella Divisional Secretariat","logitiute":81.049067,"latitude":6.871321,"orig_fid":-1},"geometry":{"x":81.049067000000036,"y":6.8713210000000231}},{"attributes":{"objectid":125,"name":"HOTEL NILKETHA VILLA","address":"NO:139,OLD MIHINTALE ROAD,ANURADHAPURA","rooms":15.0,"grade":"A","district":"Anuradhapura","aga_division":"Anuradhapura","ps_mc_uc":"Anuradhapura East","logitiute":80.411506,"latitude":8.354155,"orig_fid":-1},"geometry":{"x":80.411506000000031,"y":8.3541550000000484}},{"attributes":{"objectid":126,"name":"BIG JOHN GUEST HOUSE","address":"NO. 47, ALBERT PLACE, DEHIWALA,","rooms":17.0,"grade":"A","district":"Colombo","aga_division":"Dehiwala-Mount Lavinia","ps_mc_uc":"Dehiwala Divisional Secretariat","logitiute":79.860757,"latitude":6.858268,"orig_fid":-1},"geometry":{"x":79.860757000000035,"y":6.8582680000000664}},{"attributes":{"objectid":127,"name":"CONCORD GUEST HOUSE","address":"NO. 141, GALLE ROAD, DEHIWALA","rooms":30.0,"grade":"A","district":"Colombo","aga_division":"Dehiwala-Mount Lavinia","ps_mc_uc":"Dehiwala Divisional Secretariat","logitiute":79.865687,"latitude":6.855363,"orig_fid":-1},"geometry":{"x":79.865687000000037,"y":6.855363000000068}},{"attributes":{"objectid":128,"name":"SEA VIEW HOTEL & GUEST HOUSE","address":"10TH MILE POST, GOPALAPURAM, NILAVALI, TRINKOMALEE","rooms":11.0,"grade":"A","district":"Trincomalee","aga_division":"Trincomalee","ps_mc_uc":"Kuchchaveli Divisional Secretariat","logitiute":79.915124,"latitude":6.688123,"orig_fid":-1},"geometry":{"x":79.915124000000048,"y":6.6881230000000755}},{"attributes":{"objectid":129,"name":"RIVER VIEW WATSALA INN","address":"ADAMSPEAK, DELHOUSE, MASKELIYA","rooms":31.0,"grade":"B","district":"Nuwara Eliya","aga_division":"Ambagamuwa Pradeshiya Sabha","ps_mc_uc":"Nuwara Eliya Divisional Secretariat","logitiute":80.526538,"latitude":6.827108,"orig_fid":-1},"geometry":{"x":80.526538000000073,"y":6.8271080000000666}},{"attributes":{"objectid":130,"name":"SIGN OF LIFE RESORT","address":"ATURUWELLA, INDURUWA","rooms":9.0,"grade":"B","district":"Galle","aga_division":"Bentota Pradeshiya Sabha","ps_mc_uc":"Benthota Divisional Secretariat","logitiute":80.009084,"latitude":6.377266,"orig_fid":-1},"geometry":{"x":80.00908400000003,"y":6.3772660000000201}},{"attributes":{"objectid":131,"name":"KANDYAN ARTS RESIDENCY","address":"NO: 839, PERADENIYA ROAD, KANDY","rooms":13.0,"grade":"A","district":"Kandy","aga_division":"Kandy","ps_mc_uc":"Gagawata","logitiute":80.615529,"latitude":7.276996,"orig_fid":-1},"geometry":{"x":80.615529000000038,"y":7.2769960000000538}},{"attributes":{"objectid":132,"name":"K.G.A.ARIYAWAN REST","address":"K.P.66, 1ST AVANUE, NAWAGAMPURA,AMPARA.","rooms":31.0,"grade":"A","district":"Ampara","aga_division":"Ampara","ps_mc_uc":"Ampara Divisional Secretariat","logitiute":81.69295,"latitude":7.294888,"orig_fid":-1},"geometry":{"x":81.692950000000053,"y":7.2948880000000713}},{"attributes":{"objectid":133,"name":"LIYANKA GUEST HOUSE","address":"NO:110/1,SRI DEVANANDA ROAD,PILIYANDALA.","rooms":6.0,"grade":"B","district":"Colombo","aga_division":"Kesbewa","ps_mc_uc":"Kesbewa Divisional Secretariat","logitiute":79.918339,"latitude":6.803928,"orig_fid":-1},"geometry":{"x":79.91833900000006,"y":6.8039280000000417}},{"attributes":{"objectid":134,"name":"ASIRI REST HOUSE","address":"242,WIJENAYAKE MAWATHA,EHELIYAGODA.","rooms":5.0,"grade":"A","district":"Ratnapura","aga_division":"Eheliyagoda Pradeshiya Sabha","ps_mc_uc":"Eheliyagoda Divisional Secretariat","logitiute":79.95363,"latitude":6.596046,"orig_fid":-1},"geometry":{"x":79.953630000000032,"y":6.596046000000058}},{"attributes":{"objectid":135,"name":"BASTIAN HOTEL","address":"37/11,KANDY ROAD,JAFFNA","rooms":13.0,"grade":"A","district":"Jaffna","aga_division":"Jaffna","ps_mc_uc":"Jaffna Divisional Secretariat","logitiute":80.025745,"latitude":9.659292,"orig_fid":-1},"geometry":{"x":80.025745000000029,"y":9.6592920000000504}},{"attributes":{"objectid":136,"name":"LAVENDISH BEACH RESORT","address":"GANAHENA,UNAWATUNA,GALLE","rooms":15.0,"grade":"A","district":"Galle","aga_division":"Habaraduwa","ps_mc_uc":"Habaraduwa Divisional Secretariat","logitiute":80.252783,"latitude":6.007163,"orig_fid":-1},"geometry":{"x":80.252783000000079,"y":6.0071630000000482}},{"attributes":{"objectid":137,"name":"BRIGHT BRAVO HOTEL","address":"3RD FLOOR,MUNICIPAL SHOPPING COMPLEX,KURUNEGALA","rooms":12.0,"grade":"A","district":"Kurunegala","aga_division":"Kurunegala","ps_mc_uc":"Kurunegala Divisional Secretariat","logitiute":80.36472,"latitude":7.487292,"orig_fid":-1},"geometry":{"x":80.364720000000034,"y":7.4872920000000249}},{"attributes":{"objectid":138,"name":"BEACH VIEW TOURIST GUEST HOUSE","address":"57,PORUTHOTA RD,ETHUKALA,NEGOMBO","rooms":15.0,"grade":"B","district":"Gampaha","aga_division":"Negombo","ps_mc_uc":"Negombo Divisional Secretariat","logitiute":79.840878,"latitude":7.227449,"orig_fid":-1},"geometry":{"x":79.840878000000032,"y":7.2274490000000355}},{"attributes":{"objectid":139,"name":"CENTAURIA HILL RESORT","address":"305/2, COLOMBO ROAD, WERALUPA, RATHNAPURA.","rooms":14.0,"grade":"A","district":"Ratnapura","aga_division":"Ratnapura","ps_mc_uc":"Ratnapura Divisional Secretariat","logitiute":80.390439,"latitude":6.697089,"orig_fid":-1},"geometry":{"x":80.390439000000072,"y":6.6970890000000622}},{"attributes":{"objectid":140,"name":"CRYSTAL VILLAS","address":"GALLE - MATARA ROAD, PELENA, WELIGAMA.","rooms":6.0,"grade":"A","district":"Matara","aga_division":"Weligama Pradeshiya Sabha","ps_mc_uc":"Weligama Divisional Secretariat","logitiute":80.429656,"latitude":5.975737,"orig_fid":-1},"geometry":{"x":80.42965600000008,"y":5.9757370000000378}},{"attributes":{"objectid":141,"name":"NEW CHAMARA REST","address":"7/5,KARAUKETIYA ROAD,BALANGODA.","rooms":11.0,"grade":"B","district":"Ratnapura","aga_division":"Balangoda","ps_mc_uc":"Balangoda Divisional Secretariat","logitiute":80.699252,"latitude":6.646762,"orig_fid":-1},"geometry":{"x":80.699252000000058,"y":6.6467620000000238}},{"attributes":{"objectid":142,"name":"CEYBANK REST - ANURADHAPURA","address":"JAYANTHI MAWATHA, ANURADHAPURA.","rooms":20.0,"grade":"A","district":"Anuradhapura","aga_division":"Anuradhapura","ps_mc_uc":"Anuradhapura East","logitiute":80.4077,"latitude":8.340685,"orig_fid":-1},"geometry":{"x":80.407700000000034,"y":8.3406850000000645}},{"attributes":{"objectid":143,"name":"JKAB PARK HOTEL","address":"NO.93, LOVE LANE, NILAVELI ROAD, TRINCOMALEE.","rooms":13.0,"grade":"A","district":"Trincomalee","aga_division":"Trincomalee","ps_mc_uc":"Trincomalee Divisional Secretariat","logitiute":81.216748,"latitude":8.593913,"orig_fid":-1},"geometry":{"x":81.216748000000052,"y":8.5939130000000432}},{"attributes":{"objectid":144,"name":"DEPHANI BEACH GUEST HOUSE & RESTAURANT","address":"189/15,LEWIS PLACE,NEGOMBO","rooms":12.0,"grade":"B","district":"Gampaha","aga_division":"Negombo","ps_mc_uc":"Negombo Divisional Secretariat","logitiute":79.839924,"latitude":7.22777,"orig_fid":-1},"geometry":{"x":79.839924000000053,"y":7.2277700000000209}},{"attributes":{"objectid":145,"name":"DALMANUTA","address":"21, MEEGAMA, ROAD, WARAPITIYA, DHARGATOWN.","rooms":9.0,"grade":"A","district":"Kalutara","aga_division":"Beruwala Pradeshiya Sabha","ps_mc_uc":"Beruwala Divisional Secretariat","logitiute":80.022022,"latitude":6.434796,"orig_fid":-1},"geometry":{"x":80.02202200000005,"y":6.4347960000000626}},{"attributes":{"objectid":146,"name":"DHANAWWA TOURIST RESORT","address":"NO:46,COLOMBO ROAD,MALPITIYA,BOYAGANE","rooms":5.0,"grade":"A","district":"Kurunegala","aga_division":"Kurunegala","ps_mc_uc":"Kurunegala Divisional Secretariat","logitiute":80.341247,"latitude":7.443756,"orig_fid":-1},"geometry":{"x":80.341247000000067,"y":7.4437560000000644}},{"attributes":{"objectid":147,"name":"GANGA GARDEN","address":"126/27, GALLE ROAD, KALUWAMODARA, ALUTHGAMA.","rooms":5.0,"grade":"B","district":"Kalutara","aga_division":"Aluthgama","ps_mc_uc":"Beruwala Divisional Secretariat","logitiute":79.99412,"latitude":6.437746,"orig_fid":-1},"geometry":{"x":79.994120000000066,"y":6.437746000000061}},{"attributes":{"objectid":148,"name":"GAYAN GUEST HOUSE","address":"ELAKAKA ROAD, KANAHENTOTA, HABURUGALA.","rooms":5.0,"grade":"B","district":"Galle","aga_division":"Bentota Pradeshiya Sabha","ps_mc_uc":"Benthota Divisional Secretariat","logitiute":80.798941,"latitude":6.031898,"orig_fid":-1},"geometry":{"x":80.79894100000007,"y":6.0318980000000693}},{"attributes":{"objectid":149,"name":"GREEN WOODS HOLIDAY INN","address":"NO.301, BANDARAWELA ROAD, BADULLA.","rooms":14.0,"grade":"B","district":"Badulla","aga_division":"Badulla","ps_mc_uc":"Badulla Divisional Secretariat","logitiute":81.055286,"latitude":6.990582,"orig_fid":-1},"geometry":{"x":81.055286000000081,"y":6.9905820000000745}},{"attributes":{"objectid":150,"name":"GAJAMADARA WALAUWA","address":"75, KURUNEGALA ROAD, POLGAHAWELA.","rooms":8.0,"grade":"A","district":"Kurunegala","aga_division":"Polgahawela Pradeshiya Sabha","ps_mc_uc":"Polgahawela Divisional Secretariat","logitiute":80.30267,"latitude":7.340999,"orig_fid":-1},"geometry":{"x":80.302670000000035,"y":7.3409990000000676}},{"attributes":{"objectid":151,"name":"GOVERNORS CHALETS","address":"BADULLA, ROAD, NUWARAELIYA.","rooms":6.0,"grade":"A","district":"Nuwara Eliya","aga_division":"Nuwara Eliya","ps_mc_uc":"Nuwara Eliya Divisional Secretariat","logitiute":80.777807,"latitude":6.956578,"orig_fid":-1},"geometry":{"x":80.777807000000053,"y":6.9565780000000359}},{"attributes":{"objectid":152,"name":"HOTEL SILANMO","address":"BANDARAMULLA,MIRISSA","rooms":15.0,"grade":"A","district":"Matara","aga_division":"Weligama","ps_mc_uc":"Weligama Divisional Secretariat","logitiute":80.461384,"latitude":5.944065,"orig_fid":-1},"geometry":{"x":80.461384000000066,"y":5.9440650000000232}},{"attributes":{"objectid":153,"name":"HAPPY KENT HOTEL","address":"MAHASENPURA,KATARAGAMA RD,TISSAMAHARAMA","rooms":19.0,"grade":"B","district":"Hambantota","aga_division":"Hambantota","ps_mc_uc":"Hambantota Divisional Secretariat","logitiute":81.29623,"latitude":6.292301,"orig_fid":-1},"geometry":{"x":81.296230000000037,"y":6.2923010000000659}},{"attributes":{"objectid":154,"name":"HOTEL ORCHID INN","address":"NO.571/6, GALLE ROAD, COLOMBO 06.","rooms":20.0,"grade":"B","district":"Colombo","aga_division":"Colombo","ps_mc_uc":"Colombo Divisional Secretariat","logitiute":79.86393,"latitude":6.865113,"orig_fid":-1},"geometry":{"x":79.863930000000039,"y":6.8651130000000649}},{"attributes":{"objectid":155,"name":"HOTEL OSHIN","address":"NO.621, KANDY ROAD,ANDANKULAMA, TRINCOMALEE.","rooms":8.0,"grade":"A","district":"Trincomalee","aga_division":"Trincomalee","ps_mc_uc":"Trincomalee Divisional Secretariat","logitiute":81.194631,"latitude":8.588839,"orig_fid":-1},"geometry":{"x":81.194631000000072,"y":8.5888390000000641}},{"attributes":{"objectid":156,"name":"HASARA GUEST HOUSE","address":"NO.01, WEKUNUGODA ROAD, GALLE.","rooms":20.0,"grade":"A","district":"Galle","aga_division":"Galle","ps_mc_uc":"Galle Divisional Secretariat","logitiute":80.206286,"latitude":6.04959,"orig_fid":-1},"geometry":{"x":80.206286000000034,"y":6.0495900000000233}},{"attributes":{"objectid":157,"name":"HOTEL MAPURA","address":"61,COLOMBO ROAD,KIRIBATHKUMBURA","rooms":6.0,"grade":"A","district":"Kandy","aga_division":"Kandy","ps_mc_uc":"Kandy Divisional Secretariat","logitiute":80.574673,"latitude":7.267232,"orig_fid":-1},"geometry":{"x":80.574673000000075,"y":7.2672320000000354}},{"attributes":{"objectid":158,"name":"HOTEL PANCHI VILLA","address":"KURUWATTA, WARAHENA, BENTOTA.","rooms":8.0,"grade":"A","district":"Galle","aga_division":"Bentota Pradeshiya Sabha","ps_mc_uc":"Benthota Divisional Secretariat","logitiute":80.005938,"latitude":6.400549,"orig_fid":-1},"geometry":{"x":80.005938000000071,"y":6.4005490000000691}},{"attributes":{"objectid":159,"name":"HOTEL SILVER SANDS","address":"229,LEWIS PLACE,NEGOMBO","rooms":15.0,"grade":"B","district":"Gampaha","aga_division":"Negombo","ps_mc_uc":"Negombo Divisional Secretariat","logitiute":79.840374,"latitude":7.228771,"orig_fid":-1},"geometry":{"x":79.840374000000054,"y":7.2287710000000516}},{"attributes":{"objectid":160,"name":"KANDY HOLIDAY HOME","address":"51/30, BANGALAWATTA, LEWELLA, KANDY.","rooms":10.0,"grade":"A","district":"Kandy","aga_division":"Kandy","ps_mc_uc":"Kandy Divisional Secretariat","logitiute":80.653874,"latitude":7.297828,"orig_fid":-1},"geometry":{"x":80.65387400000003,"y":7.2978280000000382}},{"attributes":{"objectid":161,"name":"INNAMALUWA INN","address":"SIGIRIYA RD,INNAMALUWA","rooms":10.0,"grade":"B","district":"Matale","aga_division":"Dambulla Pradeshiya Sabha","ps_mc_uc":"Dambulla Divisional Secretariat","logitiute":80.693661,"latitude":7.927465,"orig_fid":-1},"geometry":{"x":80.693661000000077,"y":7.9274650000000406}},{"attributes":{"objectid":162,"name":"KOTTAWATTA VILLAGE INN","address":"THIMBOLKETIYA, KOLAMBAGEARA.","rooms":6.0,"grade":"B","district":"Ratnapura","aga_division":"Embilipitiya","ps_mc_uc":"Embilipitiya Divisional Secretariat","logitiute":80.80106,"latitude":6.406341,"orig_fid":-1},"geometry":{"x":80.801060000000064,"y":6.4063410000000545}},{"attributes":{"objectid":163,"name":"KUSUM NADIYA","address":"NEGOMBO ROAD, KURUNEGALA.","rooms":10.0,"grade":"B","district":"Kurunegala","aga_division":"Kurunegala","ps_mc_uc":"Kurunegala Divisional Secretariat","logitiute":80.335617,"latitude":7.476941,"orig_fid":-1},"geometry":{"x":80.33561700000007,"y":7.4769410000000676}},{"attributes":{"objectid":164,"name":"LAKE VIEW GARDEN HOTEL","address":"KANDY ROAD,MATALE JUNCTION, KURUNDANKULAMA, ANURADHAPURA.","rooms":6.0,"grade":"B","district":"Anuradhapura","aga_division":"Anuradhapura","ps_mc_uc":"Anuradhapura East","logitiute":80.444118,"latitude":8.347579,"orig_fid":-1},"geometry":{"x":80.44411800000006,"y":8.3475790000000529}},{"attributes":{"objectid":165,"name":"HOTEL LION INN","address":"BINDUNUWEWA, BANDARAWELA.","rooms":19.0,"grade":"A","district":"Badulla","aga_division":"Bandarawela Pradeshiya Sabha","ps_mc_uc":"Bandarawela Divisional Secretariat","logitiute":81.003221,"latitude":6.837185,"orig_fid":-1},"geometry":{"x":81.003221000000053,"y":6.8371850000000336}},{"attributes":{"objectid":166,"name":"LAKE VIEW INN","address":"06, LIOYDS AVENUE, BATTICALOA.","rooms":9.0,"grade":"B","district":"Batticaloa","aga_division":"Batticaloa","ps_mc_uc":"Manmunai North Divisional Secretariat","logitiute":81.697994,"latitude":7.715671,"orig_fid":-1},"geometry":{"x":81.697994000000051,"y":7.715671000000043}},{"attributes":{"objectid":167,"name":"LUNUGALA REST HOUSE","address":"REST HOUSE, LUNUGALA.","rooms":3.0,"grade":"B","district":"Badulla","aga_division":"Badulla","ps_mc_uc":"Lunugala Divisional Secretariat","logitiute":81.201067,"latitude":7.038551,"orig_fid":-1},"geometry":{"x":81.20106700000008,"y":7.0385510000000409}},{"attributes":{"objectid":168,"name":"MAYURA BEACH RESORT","address":"NO.33A, BEACH ROAD, MATARA.","rooms":16.0,"grade":"B","district":"Matara","aga_division":"Matara","ps_mc_uc":"Matara Divisional Secretariat","logitiute":80.553861,"latitude":5.942909,"orig_fid":-1},"geometry":{"x":80.55386100000004,"y":5.9429090000000429}},{"attributes":{"objectid":169,"name":"MILANO TOURIST REST","address":"596/40, STAGE 01, ANURADHAPURA.","rooms":8.0,"grade":"A","district":"Anuradhapura","aga_division":"Anuradhapura","ps_mc_uc":"Anuradhapura East","logitiute":80.417125,"latitude":8.325037,"orig_fid":-1},"geometry":{"x":80.417125000000055,"y":8.3250370000000657}},{"attributes":{"objectid":170,"name":"PANWILA REST HOUSE","address":"PANWILA REST HOUSE,PANWILA","rooms":5.0,"grade":"B","district":"Kandy","aga_division":"Kandy","ps_mc_uc":"Panvila Divisional Secretariat","logitiute":80.723812,"latitude":7.364177,"orig_fid":-1},"geometry":{"x":80.723812000000066,"y":7.3641770000000406}},{"attributes":{"objectid":171,"name":"REST HOUSE-PADUKKA","address":"REST HOUSE,HORANA ROAD,PADUKKA","rooms":3.0,"grade":"B","district":"Colombo","aga_division":"Colombo","ps_mc_uc":"Padukka Divisional Secretariat","logitiute":80.092341,"latitude":6.841294,"orig_fid":-1},"geometry":{"x":80.092341000000033,"y":6.8412940000000617}},{"attributes":{"objectid":172,"name":"PARADIES HOLIDAY INN","address":"539/4,SAMUDRI MAWATHA,MALAWANA,BIYAGAMA","rooms":8.0,"grade":"C","district":"Gampaha","aga_division":"Gampaha","ps_mc_uc":"Gampaha Divisional Secretariat","logitiute":80.003701,"latitude":6.961295,"orig_fid":-1},"geometry":{"x":80.003701000000035,"y":6.9612950000000637}},{"attributes":{"objectid":173,"name":"REST HOUSE -KAKIRAWA","address":"THLAWA ROAD,KAKIRAWA","rooms":3.0,"grade":"B","district":"Anuradhapura","aga_division":"Anuradhapura","ps_mc_uc":"Anuradhapura East","logitiute":80.593785,"latitude":8.041418,"orig_fid":-1},"geometry":{"x":80.593785000000082,"y":8.0414180000000215}},{"attributes":{"objectid":174,"name":"PARADISE BEACH CLUB","address":"140, GUNASIRI NAHIMI MAWATHA, MIRISSA.","rooms":40.0,"grade":"A","district":"Matara","aga_division":"Weligama Pradeshiya Sabha","ps_mc_uc":"Weligama Divisional Secretariat","logitiute":80.457395,"latitude":5.945335,"orig_fid":-1},"geometry":{"x":80.457395000000076,"y":5.9453350000000569}},{"attributes":{"objectid":175,"name":"RAIN FOREST LODGE","address":"RAIN FOREST LODGE, GALKUBURA HENYAYA, TEMPLE ROAD, DENIYAYA","rooms":9.0,"grade":"B","district":"Matara","aga_division":"Matara","ps_mc_uc":"Kotapola Divisional Secretariat","logitiute":80.549579,"latitude":6.343899,"orig_fid":-1},"geometry":{"x":80.549579000000051,"y":6.3438990000000217}},{"attributes":{"objectid":176,"name":"SISILA TOURIST INN","address":"KURUNAGALA RD,AMBEPUSSA,WARAKAPOLA","rooms":15.0,"grade":"A","district":"Kegalle","aga_division":"Kegalle","ps_mc_uc":"Warakapola Divisional Secretariat","logitiute":80.213027,"latitude":7.244146,"orig_fid":-1},"geometry":{"x":80.213027000000068,"y":7.2441460000000575}},{"attributes":{"objectid":177,"name":"ROY VILLA BEACH HOTEL","address":"NAINNAWATTA,1ST CROSS STREET,PAYAGALA.","rooms":12.0,"grade":"A","district":"Kalutara","aga_division":"Beruwala Pradeshiya Sabha","ps_mc_uc":"Beruwala Divisional Secretariat","logitiute":79.973852,"latitude":6.535184,"orig_fid":-1},"geometry":{"x":79.973852000000079,"y":6.535184000000072}},{"attributes":{"objectid":178,"name":"SAMAN REST","address":"235,NEW ROAD,AMBALANGODA","rooms":5.0,"grade":"B","district":"Galle","aga_division":"Ambalangoda","ps_mc_uc":"Ambalangoda Divisional Secretariat","logitiute":80.054098,"latitude":6.237236,"orig_fid":-1},"geometry":{"x":80.054098000000067,"y":6.2372360000000526}},{"attributes":{"objectid":179,"name":"SAN VILLA","address":"NO:405/2,PILIYANDALA ROAD,MAHARAGAMA","rooms":15.0,"grade":"B","district":"Colombo","aga_division":"Maharagama","ps_mc_uc":"Maharagama Divisional Secretariat","logitiute":79.932747,"latitude":6.835733,"orig_fid":-1},"geometry":{"x":79.932747000000063,"y":6.8357330000000616}},{"attributes":{"objectid":180,"name":"SUITE LANKA HOTEL","address":"THIRANAGAMA,HIKKADAWA","rooms":7.0,"grade":"A","district":"Galle","aga_division":"Hikkaduwa","ps_mc_uc":"Hikkaduwa Divisional Secretariat","logitiute":80.115549,"latitude":6.119985,"orig_fid":-1},"geometry":{"x":80.115549000000044,"y":6.1199850000000424}},{"attributes":{"objectid":181,"name":"SANDY RIVER INN","address":"NO 16/1,DEVANI RAJASINGHE MW,GATAMBE,KANDY","rooms":9.0,"grade":"B","district":"Kandy","aga_division":"Kandy","ps_mc_uc":"Kandy Divisional Secretariat","logitiute":80.606801,"latitude":7.277312,"orig_fid":-1},"geometry":{"x":80.606801000000075,"y":7.2773120000000517}},{"attributes":{"objectid":182,"name":"SEA LINE","address":"NO.1/108,PETTIGALAWATTA,GALLE","rooms":12.0,"grade":"B","district":"Galle","aga_division":"Galle","ps_mc_uc":"Galle Divisional Secretariat","logitiute":80.223402,"latitude":6.036901,"orig_fid":-1},"geometry":{"x":80.223402000000078,"y":6.0369010000000571}},{"attributes":{"objectid":183,"name":"THAMPA TOURIST HOTEL & INN","address":"10,1ST LANE,SINNAPUTHUKULAM,VAUNIYA","rooms":19.0,"grade":"A","district":"Vavuniya","aga_division":"Vavuniya","ps_mc_uc":"Vavuniya","logitiute":80.510586,"latitude":8.745916,"orig_fid":-1},"geometry":{"x":80.510586000000046,"y":8.7459160000000224}},{"attributes":{"objectid":184,"name":"WELIGAMA BAY RESORT","address":"MATARA ROAD,PELENA,WELIGAMA","rooms":24.0,"grade":"A","district":"Matara","aga_division":"Weligama","ps_mc_uc":"Weligama Divisional Secretariat","logitiute":80.440137,"latitude":5.972813,"orig_fid":-1},"geometry":{"x":80.44013700000005,"y":5.9728130000000306}},{"attributes":{"objectid":185,"name":"TAPROSPA LABOOKELLIE VILLA","address":"LABOOKELLIE ESTATE,LABOOKELLIE,NUWARAELIYA","rooms":5.0,"grade":"A","district":"Nuwara Eliya","aga_division":"Nuwara Eliya","ps_mc_uc":"Kothmale Divisional Secretariat","logitiute":80.718587,"latitude":7.024754,"orig_fid":-1},"geometry":{"x":80.71858700000007,"y":7.0247540000000299}},{"attributes":{"objectid":186,"name":"THAMBAPANNI RETREAT","address":"YADDEHIMULLA,UNAWATUNA,GALLE","rooms":18.0,"grade":"A","district":"Galle","aga_division":"Habaraduwa","ps_mc_uc":"Habaraduwa Divisional Secretariat","logitiute":80.243394,"latitude":6.011141,"orig_fid":-1},"geometry":{"x":80.24339400000008,"y":6.011141000000066}},{"attributes":{"objectid":187,"name":"THAPROBAN ROOMS AND RESTAURANT","address":"72,YADDEHIMULLA,UNAWATUNA","rooms":14.0,"grade":"A","district":"Galle","aga_division":"Galle","ps_mc_uc":"Galle Divisional Secretariat","logitiute":80.240417,"latitude":6.009545,"orig_fid":-1},"geometry":{"x":80.240417000000036,"y":6.0095450000000596}},{"attributes":{"objectid":188,"name":"REST HOUSE - WELLAWAYA","address":"ELLA ROAD,WALLAWAYA","rooms":5.0,"grade":"B","district":"Moneragala","aga_division":"N/A","ps_mc_uc":"Moneragala Divisional Secretariat","logitiute":81.101003,"latitude":6.732291,"orig_fid":-1},"geometry":{"x":81.101003000000048,"y":6.732291000000032}},{"attributes":{"objectid":189,"name":"UNAWATUNA NOR-LANKA HOTEL","address":"PALUGEDARAWATTA,PEELLAGODA,UNAWATUNA","rooms":14.0,"grade":"A","district":"Galle","aga_division":"Habaraduwa","ps_mc_uc":"Habaraduwa Divisional Secretariat","logitiute":80.249097,"latitude":6.012171,"orig_fid":-1},"geometry":{"x":80.249097000000063,"y":6.0121710000000235}},{"attributes":{"objectid":190,"name":"VIBRATION HOTEL","address":"495,,GALLE ROAD,WEWALA,HIKKADUWA.","rooms":6.0,"grade":"B","district":"Galle","aga_division":"Galle","ps_mc_uc":"Hikkaduwa Divisional Secretariat","logitiute":80.106735,"latitude":6.126787,"orig_fid":-1},"geometry":{"x":80.106735000000072,"y":6.1267870000000357}},{"attributes":{"objectid":191,"name":"THINAKKURAL REST","address":"45,CHETTY STREET LANE,NALLUR,JAFFNA","rooms":12.0,"grade":"B","district":"Jaffna","aga_division":"Jaffna","ps_mc_uc":"Jaffna Divisional Secretariat","logitiute":80.031402,"latitude":9.670557,"orig_fid":-1},"geometry":{"x":80.031402000000071,"y":9.6705570000000307}},{"attributes":{"objectid":192,"name":"UPPER GLENCAIRN BUNGALOW","address":"MASKELIYA ROAD,DICKOYA,HATTON","rooms":5.0,"grade":"A","district":"Nuwara Eliya","aga_division":"Nuwara Eliya","ps_mc_uc":"Nuwara Eliya Divisional Secretariat","logitiute":80.602731,"latitude":6.853385,"orig_fid":-1},"geometry":{"x":80.602731000000063,"y":6.8533850000000598}},{"attributes":{"objectid":193,"name":"ARUGAMBAY SURF RESORT","address":"ARUGAMBAY, POTUVIL.","rooms":11.0,"grade":"B","district":"Ampara","aga_division":"Ampara","ps_mc_uc":"Pottuvil Divisional Secretariat","logitiute":81.832602,"latitude":6.841493,"orig_fid":-1},"geometry":{"x":81.832602000000065,"y":6.8414930000000709}},{"attributes":{"objectid":194,"name":"FIELD VIEW INN","address":"ATHURA,BULATHSINGHALA","rooms":7.0,"grade":"B","district":"Kalutara","aga_division":"Bulathsinhala Pradeshiya Sabha","ps_mc_uc":"Bulathsinhala Divisional Secretariat","logitiute":79.986677,"latitude":6.89414,"orig_fid":-1},"geometry":{"x":79.986677000000043,"y":6.8941400000000499}},{"attributes":{"objectid":195,"name":"BOA VISTA","address":"NO. 142, OLD PUTTALAM ROAD, TISSAWEWA, ANURADHAPURA","rooms":11.0,"grade":"A","district":"Anuradhapura","aga_division":"Anuradhapura","ps_mc_uc":"Anuradhapura East","logitiute":80.385222,"latitude":8.342905,"orig_fid":-1},"geometry":{"x":80.385222000000056,"y":8.3429050000000302}},{"attributes":{"objectid":196,"name":"A-PRIMA TOURIST HOTEL","address":"173,ST SEBESTIAN ROAD,KATUKURUNDA-KALUTARA","rooms":8.0,"grade":"A","district":"Kalutara","aga_division":"Kalutara Pradeshiya Sabha","ps_mc_uc":"Kalutara Divisional Secretariat","logitiute":79.962124,"latitude":6.563892,"orig_fid":-1},"geometry":{"x":79.962124000000074,"y":6.5638920000000667}},{"attributes":{"objectid":197,"name":"GALAXY LOUNGE","address":"ARUGAMBAY,SINNAVLLOVI,POTTUWIL -18","rooms":8.0,"grade":"B","district":"Ampara","aga_division":"Ampara","ps_mc_uc":"Pottuvil Divisional Secretariat","logitiute":81.831418,"latitude":6.849136,"orig_fid":-1},"geometry":{"x":81.831418000000042,"y":6.8491360000000441}},{"attributes":{"objectid":198,"name":"BANDU RIVER INN","address":"RIVERSIDE ROAD, PALATOTA, KALUTARA NORH","rooms":10.0,"grade":"B","district":"Kalutara","aga_division":"Kalutara Pradeshiya Sabha","ps_mc_uc":"Kalutara Divisional Secretariat","logitiute":79.96806,"latitude":6.59447,"orig_fid":-1},"geometry":{"x":79.968060000000037,"y":6.594470000000058}},{"attributes":{"objectid":199,"name":"RUPAS BEACH HOTEL","address":"ARUGAMBAY,POTTUVIL","rooms":13.0,"grade":"B","district":"Ampara","aga_division":"Ampara","ps_mc_uc":"Pottuvil Divisional Secretariat","logitiute":81.833644,"latitude":6.839223,"orig_fid":-1},"geometry":{"x":81.833644000000049,"y":6.8392230000000609}},{"attributes":{"objectid":200,"name":"TSUNAMI HOTEL","address":"ARUGAMBAY,ULLE,POTHUWIL","rooms":10.0,"grade":"B","district":"Ampara","aga_division":"Ampara","ps_mc_uc":"Pottuvil Divisional Secretariat","logitiute":81.831613,"latitude":6.846344,"orig_fid":-1},"geometry":{"x":81.831613000000061,"y":6.8463440000000446}},{"attributes":{"objectid":201,"name":"CANAL VIEW GARDEN HOTEL","address":"NO 105, ANDERSON ROAD, NEGOMBO","rooms":9.0,"grade":"B","district":"Gampaha","aga_division":"Negombo","ps_mc_uc":"Negombo Divisional Secretariat","logitiute":79.844292,"latitude":7.226329,"orig_fid":-1},"geometry":{"x":79.844292000000053,"y":7.2263290000000211}},{"attributes":{"objectid":202,"name":"GECKO RESTAURANT & ROOMS","address":"MAIN STREET,ARUGAMBAY,POTTUWIL","rooms":6.0,"grade":"B","district":"Ampara","aga_division":"Ampara","ps_mc_uc":"Pottuvil Divisional Secretariat","logitiute":81.832523,"latitude":6.841218,"orig_fid":-1},"geometry":{"x":81.832523000000037,"y":6.8412180000000262}},{"attributes":{"objectid":203,"name":"COUNTRY GARDEN RESORT","address":"PANABOKKE, WATTAPPOLA","rooms":5.0,"grade":"A","district":"Kandy","aga_division":"Udunuwara Pradeshiya Sabha","ps_mc_uc":"Udunuwara Divisional Secretariat","logitiute":80.544262,"latitude":7.222993,"orig_fid":-1},"geometry":{"x":80.54426200000006,"y":7.2229930000000309}},{"attributes":{"objectid":204,"name":"ALOHA CABANAS","address":"SINNA ULLAI,ARUGAMBAY","rooms":10.0,"grade":"B","district":"Ampara","aga_division":"Ampara","ps_mc_uc":"Pottuvil Divisional Secretariat","logitiute":81.830823,"latitude":6.845218,"orig_fid":-1},"geometry":{"x":81.830823000000066,"y":6.8452180000000453}},{"attributes":{"objectid":205,"name":"CLOSENBURG HOTEL","address":"11, CLOSEDBERG ROAD,MAGALLE ,GALLE","rooms":20.0,"grade":"A","district":"Galle","aga_division":"Galle","ps_mc_uc":"Galle Divisional Secretariat","logitiute":80.235093,"latitude":6.031424,"orig_fid":-1},"geometry":{"x":80.235093000000063,"y":6.0314240000000723}},{"attributes":{"objectid":206,"name":"ARUGAMBAY PACIFIC HOTEL","address":"MAIN STREET,ARUGAMBAY,POTTUVIL","rooms":12.0,"grade":"B","district":"Ampara","aga_division":"Ampara","ps_mc_uc":"Pottuvil Divisional Secretariat","logitiute":81.831438,"latitude":6.842457,"orig_fid":-1},"geometry":{"x":81.831438000000048,"y":6.8424570000000244}},{"attributes":{"objectid":207,"name":"ELLA GAP TOURIST INN","address":"PASSARA ROAD, ELLA","rooms":5.0,"grade":"A","district":"Badulla","aga_division":"Ella Pradeshiya Sabha","ps_mc_uc":"Badulla Divisional Secretariat","logitiute":81.049619,"latitude":6.87272,"orig_fid":-1},"geometry":{"x":81.049619000000064,"y":6.8727200000000721}},{"attributes":{"objectid":208,"name":"EURO STAR","address":"KATUNAYAKA ROAD, PEELLAWATTA,MINUWANGODA","rooms":30.0,"grade":"A","district":"Gampaha","aga_division":"Minuwangoda Pradeshiya Sabha","ps_mc_uc":"Minuwangoda Divisional Secretariat","logitiute":79.919841,"latitude":7.178291,"orig_fid":-1},"geometry":{"x":79.919841000000076,"y":7.1782910000000584}},{"attributes":{"objectid":209,"name":"THE DANISH VILLA","address":"SINNA ULLAI,ARUGAMBAY","rooms":7.0,"grade":"B","district":"Ampara","aga_division":"Ampara","ps_mc_uc":"Pottuvil Divisional Secretariat","logitiute":81.83063,"latitude":6.845058,"orig_fid":-1},"geometry":{"x":81.830630000000042,"y":6.8450580000000514}},{"attributes":{"objectid":210,"name":"DILUXSHAN REST","address":"BEACH ROAD, KALUWANCHIKUDY","rooms":10.0,"grade":"B","district":"Batticaloa","aga_division":"Batticaloa","ps_mc_uc":"Batticaloa Divisional Secretariat","logitiute":81.804181,"latitude":7.518212,"orig_fid":-1},"geometry":{"x":81.804181000000085,"y":7.5182120000000623}},{"attributes":{"objectid":211,"name":"GALOYA HOTEL","address":"NILIATUGODA, ETTAMPITIYA","rooms":5.0,"grade":"A","district":"Badulla","aga_division":"Badulla","ps_mc_uc":"Badulla Divisional Secretariat","logitiute":81.385645,"latitude":7.301744,"orig_fid":-1},"geometry":{"x":81.385645000000068,"y":7.301744000000042}},{"attributes":{"objectid":212,"name":"HAREESHA HOLIDAY RESORT","address":"IMADUWA ROAD,YAKKALAMULLA","rooms":23.0,"grade":"A","district":"Galle","aga_division":"Galle","ps_mc_uc":"Yakkalamulla Divisional Secretariat","logitiute":80.351037,"latitude":6.102983,"orig_fid":-1},"geometry":{"x":80.351037000000076,"y":6.1029830000000516}},{"attributes":{"objectid":213,"name":"FAMOUS GUEST HOUSE","address":"NO. 66/5, NEW RATHNAPURA ROAD, SEETHAWAKAPURA, AVISSSAWELLA.","rooms":18.0,"grade":"A","district":"Colombo","aga_division":"Seethawaka Pradeshiya Sabha","ps_mc_uc":"Hanwella","logitiute":80.212044,"latitude":6.94904,"orig_fid":-1},"geometry":{"x":80.212044000000049,"y":6.949040000000025}},{"attributes":{"objectid":214,"name":"GANGA ADDARA HOTEL","address":"NO.295,PEEKWELLA,MATARA","rooms":7.0,"grade":"B","district":"Matara","aga_division":"Matara","ps_mc_uc":"Matara Divisional Secretariat","logitiute":80.559379,"latitude":5.947097,"orig_fid":-1},"geometry":{"x":80.559379000000035,"y":5.947097000000042}},{"attributes":{"objectid":215,"name":"HAUS CHANDRA HOTEL","address":"NO.37,BEACH ROAD,MT.LAVINIA","rooms":16.0,"grade":"A","district":"Colombo","aga_division":"Dehiwala-Mount Lavinia","ps_mc_uc":"Mount Lavinia","logitiute":79.864768,"latitude":6.842547,"orig_fid":-1},"geometry":{"x":79.864768000000083,"y":6.8425470000000246}},{"attributes":{"objectid":216,"name":"SANJEEWA HOTEL","address":"NO. 72, KALAWEWA ROAD, GALEWELA","rooms":5.0,"grade":"B","district":"Matale","aga_division":"Matale","ps_mc_uc":"Galewela Divisional Secretariat","logitiute":80.368872,"latitude":8.286864,"orig_fid":-1},"geometry":{"x":80.368872000000067,"y":8.2868640000000369}},{"attributes":{"objectid":217,"name":"HOTEL LIONS DEN","address":"NO:523/11,D.S.SENANAYAKE MW,STAGE II,ANURADHAPURA","rooms":5.0,"grade":"B","district":"Anuradhapura","aga_division":"Anuradhapura","ps_mc_uc":"Anuradhapura East","logitiute":80.398222,"latitude":8.317564,"orig_fid":-1},"geometry":{"x":80.398222000000032,"y":8.3175640000000612}},{"attributes":{"objectid":218,"name":"HOTEL SUNRICH","address":"NO. 260/4, HEDENIYA, WERELLAGAMA","rooms":36.0,"grade":"A","district":"Kandy","aga_division":"Harispattuwa Pradeshiya Sabha","ps_mc_uc":"Harispattuwa Divisional Secretariat","logitiute":80.558646,"latitude":7.338127,"orig_fid":-1},"geometry":{"x":80.558646000000067,"y":7.3381270000000427}},{"attributes":{"objectid":219,"name":"HESHAN HOLIDAY REST","address":"740/5,ROMIYAL MAWATHA,PANAGODA,HOMAGAMA","rooms":15.0,"grade":"B","district":"Colombo","aga_division":"Homagama Pradeshiya Sabha","ps_mc_uc":"Homagama Divisional Secretariat","logitiute":80.021918,"latitude":6.855338,"orig_fid":-1},"geometry":{"x":80.021918000000085,"y":6.8553380000000743}},{"attributes":{"objectid":220,"name":"HOTEL LOVUSI","address":"NO:584,HOSPITAL ROAD,JAFFNA","rooms":12.0,"grade":"B","district":"Jaffna","aga_division":"Jaffna","ps_mc_uc":"Jaffna Divisional Secretariat","logitiute":80.015791,"latitude":9.664856,"orig_fid":-1},"geometry":{"x":80.015791000000036,"y":9.664856000000043}},{"attributes":{"objectid":221,"name":"HIGH CLIFFE HOTEL","address":"NO.15,STATION ROAD,,HAPUTHALE","rooms":9.0,"grade":"B","district":"Badulla","aga_division":"Haputale","ps_mc_uc":"Haputale Divisional Secretariat","logitiute":80.959676,"latitude":6.768795,"orig_fid":-1},"geometry":{"x":80.959676000000059,"y":6.7687950000000683}},{"attributes":{"objectid":222,"name":"HAMILTON DELI","address":"NO:2,ASARAPPA ROAD,NEGAMBO","rooms":8.0,"grade":"A","district":"Gampaha","aga_division":"Negombo","ps_mc_uc":"Negombo Divisional Secretariat","logitiute":79.838128,"latitude":7.21129,"orig_fid":-1},"geometry":{"x":79.83812800000004,"y":7.2112900000000764}},{"attributes":{"objectid":223,"name":"HOTEL COCKPIT","address":"660/36,ARALIYA LANE,LIYANAGEMULLA,SEEDUWA.","rooms":5.0,"grade":"B","district":"Gampaha","aga_division":"Gampaha","ps_mc_uc":"Gampaha Divisional Secretariat","logitiute":79.873992,"latitude":7.14831,"orig_fid":-1},"geometry":{"x":79.873992000000044,"y":7.1483100000000377}},{"attributes":{"objectid":224,"name":"HOTEL CROWN FIELD","address":"KURUNEGALA ROAD,NARAMMALA","rooms":8.0,"grade":"A","district":"Kurunegala","aga_division":"Kurunegala","ps_mc_uc":"Narammala Divisional Secretariat","logitiute":80.217317,"latitude":7.43409,"orig_fid":-1},"geometry":{"x":80.217317000000037,"y":7.4340900000000261}},{"attributes":{"objectid":225,"name":"HOTEL KINKINI","address":"306,BADULLA RD,BIBILE","rooms":15.0,"grade":"A","district":"Moneragala","aga_division":"N/A","ps_mc_uc":"Bibile Divisional Secretariat","logitiute":81.223353,"latitude":7.15441,"orig_fid":-1},"geometry":{"x":81.223353000000031,"y":7.1544100000000412}},{"attributes":{"objectid":226,"name":"HOTEL FLOWER GARDEN","address":"NO.14,WELLA DEWALA ROAD,UNAWATUNA,GALLE","rooms":25.0,"grade":"A","district":"Galle","aga_division":"Galle","ps_mc_uc":"Galle Divisional Secretariat","logitiute":80.248556,"latitude":6.013972,"orig_fid":-1},"geometry":{"x":80.248556000000065,"y":6.0139720000000239}},{"attributes":{"objectid":227,"name":"JAFFNA FORT","address":"NO. 56, 1ST CROSS STREET, JAFFNA","rooms":6.0,"grade":"B","district":"Jaffna","aga_division":"Jaffna","ps_mc_uc":"Jaffna Divisional Secretariat","logitiute":80.00808,"latitude":9.663071,"orig_fid":-1},"geometry":{"x":80.008080000000064,"y":9.663071000000059}},{"attributes":{"objectid":228,"name":"HOTEL GANGAADDARA","address":"NO.11/A.DEWENI RAJASINGHE MAWATHA,GETABE,KANDY","rooms":13.0,"grade":"A","district":"Kandy","aga_division":"Kandy","ps_mc_uc":"Kandy Divisional Secretariat","logitiute":80.607066,"latitude":7.274586,"orig_fid":-1},"geometry":{"x":80.607066000000032,"y":7.2745860000000562}},{"attributes":{"objectid":229,"name":"HOTEL NEW SEA LORD","address":"3RD MILE POST,UPPAVELI,TRINCOMALEE","rooms":25.0,"grade":"B","district":"Trincomalee","aga_division":"Trincomalee","ps_mc_uc":"Trincomalee Divisional Secretariat","logitiute":81.220295,"latitude":8.60287,"orig_fid":-1},"geometry":{"x":81.220295000000078,"y":8.6028700000000526}},{"attributes":{"objectid":230,"name":"KANDY PANORAMA RESORT","address":"NO. 352/H, DHARMARAJA MAWATHA, KANDY","rooms":10.0,"grade":"A","district":"Kandy","aga_division":"Kandy","ps_mc_uc":"Gagawata","logitiute":80.655409,"latitude":7.287736,"orig_fid":-1},"geometry":{"x":80.655409000000077,"y":7.2877360000000522}},{"attributes":{"objectid":231,"name":"HORIZON HILL HOTEL","address":"NO.33,GOTABAYA MAWATHA,HUNUPITIYA,WATTALA","rooms":12.0,"grade":"A","district":"Gampaha","aga_division":"Kelaniya Pradeshiya Sabha","ps_mc_uc":"Kelaniya Divisional Secretariat","logitiute":79.906688,"latitude":6.982057,"orig_fid":-1},"geometry":{"x":79.906688000000031,"y":6.9820570000000544}},{"attributes":{"objectid":232,"name":"HOTEL BABIE & CATERS","address":"DALADAGAMA,BALALLA,MAHO","rooms":18.0,"grade":"B","district":"Kurunegala","aga_division":"Kurunegala","ps_mc_uc":"Kurunegala Divisional Secretariat","logitiute":80.249934,"latitude":7.810201,"orig_fid":-1},"geometry":{"x":80.249934000000053,"y":7.8102010000000632}},{"attributes":{"objectid":233,"name":"HEMADAN","address":"NO:25,RIVER AVENUE,ALUTHGAMA","rooms":10.0,"grade":"A","district":"Kalutara","aga_division":"Beruwala Pradeshiya Sabha","ps_mc_uc":"Beruwala Divisional Secretariat","logitiute":79.997708,"latitude":6.42923,"orig_fid":-1},"geometry":{"x":79.997708000000046,"y":6.4292300000000751}},{"attributes":{"objectid":234,"name":"KURULUKELAY INN","address":"NO. 17, ALBERT SENEVIRATNA MAWATHA, KEGALLE","rooms":8.0,"grade":"B","district":"Kegalle","aga_division":"Kegalle","ps_mc_uc":"Kegalle Divisional Secretariat","logitiute":80.334834,"latitude":7.252171,"orig_fid":-1},"geometry":{"x":80.334834000000058,"y":7.2521710000000326}},{"attributes":{"objectid":235,"name":"MONTY GUEST","address":"C 32,1ST AVEUNE,AMPARA","rooms":42.0,"grade":"A","district":"Ampara","aga_division":"Ampara","ps_mc_uc":"Ampara Divisional Secretariat","logitiute":81.67794,"latitude":7.286339,"orig_fid":-1},"geometry":{"x":81.677940000000035,"y":7.286339000000055}},{"attributes":{"objectid":236,"name":"HOTEL BRIDGE VIEW","address":"63/24,NEW DUTCH BAR ROAD,KALLADY,BATTICALOA","rooms":21.0,"grade":"B","district":"Batticaloa","aga_division":"Batticaloa","ps_mc_uc":"Batticaloa Divisional Secretariat","logitiute":81.710739,"latitude":7.721854,"orig_fid":-1},"geometry":{"x":81.710739000000046,"y":7.7218540000000644}},{"attributes":{"objectid":237,"name":"HOTEL HESHANI","address":"NO:176/1,WALAWWATTE,KEGALLE","rooms":8.0,"grade":"B","district":"Kegalle","aga_division":"Kegalle","ps_mc_uc":"Kegalle Divisional Secretariat","logitiute":80.459473,"latitude":7.140422,"orig_fid":-1},"geometry":{"x":80.45947300000006,"y":7.1404220000000578}},{"attributes":{"objectid":238,"name":"HOTEL CANBO","address":"NO.98,MAHIYANGANA ROAD,BIBILE","rooms":9.0,"grade":"A","district":"Moneragala","aga_division":"N/A","ps_mc_uc":"Bibile Divisional Secretariat","logitiute":81.222902,"latitude":7.164342,"orig_fid":-1},"geometry":{"x":81.222902000000033,"y":7.1643420000000333}},{"attributes":{"objectid":239,"name":"KURUNDUWATTA HOLIDAY RESORT","address":"THOTUPOLA ROAD, PITIGALA","rooms":20.0,"grade":"A","district":"Galle","aga_division":"Galle","ps_mc_uc":"Niyagama Divisional Secretariat","logitiute":80.222378,"latitude":6.343892,"orig_fid":-1},"geometry":{"x":80.222378000000049,"y":6.3438920000000394}},{"attributes":{"objectid":240,"name":"NIPUNA REST","address":"NO.821,MEEPITIYA,KEGALLE.","rooms":5.0,"grade":"A","district":"Kegalle","aga_division":"Kegalle","ps_mc_uc":"Kegalle Divisional Secretariat","logitiute":80.367042,"latitude":7.251071,"orig_fid":-1},"geometry":{"x":80.367042000000083,"y":7.2510710000000245}},{"attributes":{"objectid":241,"name":"THE NATURE'S RESORT","address":"NO. 80, PAHALA MABULA, MAWALGAMA ROAD, WAGA","rooms":8.0,"grade":"A","district":"Colombo","aga_division":"Colombo","ps_mc_uc":"Hanwella","logitiute":80.127534,"latitude":6.908823,"orig_fid":-1},"geometry":{"x":80.127534000000082,"y":6.9088230000000408}},{"attributes":{"objectid":242,"name":"REST HOUSE - MATHUGAMA","address":"NO.53,ALUTHGAMA ROAD,MATHUGAMA","rooms":14.0,"grade":"A","district":"Kalutara","aga_division":"Mathugama Pradeshiya Sabha","ps_mc_uc":"Mathugama Divisional Secretariat","logitiute":80.116599,"latitude":6.520195,"orig_fid":-1},"geometry":{"x":80.116599000000065,"y":6.5201950000000579}},{"attributes":{"objectid":243,"name":"HOTEL NEPTUNE BAY","address":"YADDHIMULLA ROAD, UNAWATUNA, GALLE","rooms":12.0,"grade":"A","district":"Galle","aga_division":"Habaraduwa","ps_mc_uc":"Habaraduwa Divisional Secretariat","logitiute":80.245628,"latitude":6.009925,"orig_fid":-1},"geometry":{"x":80.245628000000067,"y":6.0099250000000666}},{"attributes":{"objectid":244,"name":"LAKE SIDE TOURIST INN","address":"AKURUGODA,THISSAMAHARAMA","rooms":22.0,"grade":"A","district":"Hambantota","aga_division":"Thissamaharama","ps_mc_uc":"Thissamaharama Divisional Secretariat","logitiute":81.292314,"latitude":6.284998,"orig_fid":-1},"geometry":{"x":81.292314000000033,"y":6.2849980000000301}},{"attributes":{"objectid":245,"name":"LAKE REACH HOTEL","address":"NO.59, LOUIS PEIRIS MAWATHA, KANDY.","rooms":8.0,"grade":"B","district":"Kandy","aga_division":"Kandy","ps_mc_uc":"Kandy Divisional Secretariat","logitiute":80.647375,"latitude":7.289019,"orig_fid":-1},"geometry":{"x":80.647375000000068,"y":7.289019000000053}},{"attributes":{"objectid":246,"name":"OASIS BEACH HOTEL","address":"NO.10/26,PORUTOTA ROAD,NEGOMBO","rooms":6.0,"grade":"A","district":"Gampaha","aga_division":"Gampaha","ps_mc_uc":"Negombo Divisional Secretariat","logitiute":79.841541,"latitude":7.23972,"orig_fid":-1},"geometry":{"x":79.841541000000063,"y":7.2397200000000339}},{"attributes":{"objectid":247,"name":"LOTUS REST","address":"162/19, WATHUREGAMA, AHUNGALLA","rooms":20.0,"grade":"A","district":"Galle","aga_division":"Galle","ps_mc_uc":"Balapitiya Divisional Secretariat","logitiute":80.035455,"latitude":6.305251,"orig_fid":-1},"geometry":{"x":80.03545500000007,"y":6.3052510000000552}},{"attributes":{"objectid":248,"name":"PABASARA GUEST HOUSE","address":"PANSAL WATTE, BANGAMA ROAD, AKURESSA","rooms":5.0,"grade":"B","district":"Matara","aga_division":"Akuressa Pradeshiya Sabha","ps_mc_uc":"Akuressa Divisional Secretariat","logitiute":80.474981,"latitude":6.101911,"orig_fid":-1},"geometry":{"x":80.474981000000071,"y":6.1019110000000296}},{"attributes":{"objectid":249,"name":"OLD REST HOUSE","address":"OLD ELLA ROAD,WELLAWAYA","rooms":10.0,"grade":"A","district":"Moneragala","aga_division":"N/A","ps_mc_uc":"Wellawaya Divisional Secretariat","logitiute":81.101002,"latitude":6.732293,"orig_fid":-1},"geometry":{"x":81.101002000000051,"y":6.732293000000027}},{"attributes":{"objectid":250,"name":"PABASARA REST","address":"NO. 4/3, KOSWATTA, KIRIBATHGODA, KELANIYA","rooms":10.0,"grade":"B","district":"Gampaha","aga_division":"Kelaniya Pradeshiya Sabha","ps_mc_uc":"Kelaniya Divisional Secretariat","logitiute":79.926224,"latitude":6.976251,"orig_fid":-1},"geometry":{"x":79.926224000000047,"y":6.9762510000000475}},{"attributes":{"objectid":251,"name":"PAIVAS CITY HOTEL","address":"NO. 37, YATINUWARA VEEDIYA, KANDY","rooms":5.0,"grade":"A","district":"Kandy","aga_division":"Kandy","ps_mc_uc":"Ganewatta Divisional Secretariat","logitiute":80.635766,"latitude":7.293828,"orig_fid":-1},"geometry":{"x":80.635766000000046,"y":7.2938280000000759}},{"attributes":{"objectid":252,"name":"PARADISE INN","address":"NO. 8, DANGOLLA ROAD,PERADENIYA","rooms":19.0,"grade":"A","district":"Kandy","aga_division":"Kandy","ps_mc_uc":"Gagawata","logitiute":80.60789,"latitude":7.269178,"orig_fid":-1},"geometry":{"x":80.607890000000054,"y":7.2691780000000676}},{"attributes":{"objectid":253,"name":"PARADISE REST","address":"NO. 76, REST HOUSE ROAD, NIKAWERATIYA.","rooms":14.0,"grade":"B","district":"Kurunegala","aga_division":"Nikaweratiya Pradeshiya Sabha","ps_mc_uc":"Nikaweratiya Divisional Secretariat","logitiute":80.120044,"latitude":7.751355,"orig_fid":-1},"geometry":{"x":80.120044000000064,"y":7.7513550000000464}},{"attributes":{"objectid":254,"name":"PULEY S BALMORAL HOTEL","address":"OPPOSITE TO RAILWAY STATION ,VAUNIYA.","rooms":14.0,"grade":"A","district":"Vavuniya","aga_division":"Vavuniya","ps_mc_uc":"Vavuniya","logitiute":80.494247,"latitude":8.753839,"orig_fid":-1},"geometry":{"x":80.49424700000003,"y":8.7538390000000277}},{"attributes":{"objectid":255,"name":"HOTEL PARADISO","address":"406,GALLE ROAD,HIKKADUWA","rooms":1.0,"grade":"B","district":"Galle","aga_division":"Hikkaduwa","ps_mc_uc":"Hikkaduwa Divisional Secretariat","logitiute":80.102908,"latitude":6.128799,"orig_fid":-1},"geometry":{"x":80.10290800000007,"y":6.1287990000000718}},{"attributes":{"objectid":256,"name":"HOTEL RANDIV","address":"562/1A,KANDY RD,MEEPITIYA,KEGALLE","rooms":5.0,"grade":"A","district":"Kegalle","aga_division":"Kegalle","ps_mc_uc":"Kegalle Divisional Secretariat","logitiute":80.384047,"latitude":7.281209,"orig_fid":-1},"geometry":{"x":80.384047000000066,"y":7.2812090000000467}},{"attributes":{"objectid":257,"name":"REST HOUSE DENIYAYA","address":"REST HOUSE,DENIYAYA","rooms":4.0,"grade":"B","district":"Matara","aga_division":"Kotapola Pradeshiya Sabha","ps_mc_uc":"Kotapola Divisional Secretariat","logitiute":80.557427,"latitude":6.339833,"orig_fid":-1},"geometry":{"x":80.557427000000075,"y":6.3398330000000556}},{"attributes":{"objectid":258,"name":"PRASANNA GUEST HOUSE","address":"NO:1042,KANDY ROAD, ANURADHAPURA JUNTION,TRINCOMALEE","rooms":18.0,"grade":"B","district":"Trincomalee","aga_division":"Trincomalee","ps_mc_uc":"Trincomalee Divisional Secretariat","logitiute":81.208747,"latitude":8.585838,"orig_fid":-1},"geometry":{"x":81.208747000000074,"y":8.5858380000000238}},{"attributes":{"objectid":259,"name":"SILVIKRIS","address":"32/9A,RAYMOND ROAD, NUGEGODA","rooms":5.0,"grade":"A","district":"Colombo","aga_division":"Dehiwala-Mount Lavinia","ps_mc_uc":"Dehiwala Divisional Secretariat","logitiute":79.882293,"latitude":6.871275,"orig_fid":-1},"geometry":{"x":79.882293000000061,"y":6.8712750000000256}},{"attributes":{"objectid":260,"name":"SIYANCO HOLIDAY RESORT","address":"1ST CANAL ROAD,POLONNARUWA","rooms":17.0,"grade":"A","district":"Polonnaruwa","aga_division":"Polonnaruwa","ps_mc_uc":"Polonnaruwa Divisional Secretariat","logitiute":80.99859,"latitude":7.940886,"orig_fid":-1},"geometry":{"x":80.998590000000036,"y":7.9408860000000345}},{"attributes":{"objectid":261,"name":"HINIDUMA REST HOUSE","address":"REST HOUSE,HINIDUMA","rooms":3.0,"grade":"B","district":"Galle","aga_division":"Galle","ps_mc_uc":"Thawalama Divisional Secretariat","logitiute":80.320077,"latitude":6.304647,"orig_fid":-1},"geometry":{"x":80.320077000000083,"y":6.3046470000000454}},{"attributes":{"objectid":262,"name":"SOROWWA RESORT & SPA","address":"LAKE ROAD,HABARANA.","rooms":22.0,"grade":"A","district":"Anuradhapura","aga_division":"Anuradhapura","ps_mc_uc":"Anuradhapura East","logitiute":80.75079,"latitude":8.040575,"orig_fid":-1},"geometry":{"x":80.750790000000052,"y":8.0405750000000467}},{"attributes":{"objectid":263,"name":"STAR REST","address":"KANDY ROAD,PARANTHAN","rooms":6.0,"grade":"B","district":"Kilinochchi","aga_division":"N/A","ps_mc_uc":"N/A","logitiute":80.407352,"latitude":9.426661,"orig_fid":-1},"geometry":{"x":80.40735200000006,"y":9.4266610000000242}},{"attributes":{"objectid":264,"name":"REST HOUSE - MORAGALA","address":"MORAGALA,MEEGAHATENNA","rooms":4.0,"grade":"B","district":"Kalutara","aga_division":"Walallawita Pradeshiya Sabha","ps_mc_uc":"Kalutara Divisional Secretariat","logitiute":80.178349,"latitude":6.461504,"orig_fid":-1},"geometry":{"x":80.178349000000082,"y":6.4615040000000477}},{"attributes":{"objectid":265,"name":"SENKADA REST","address":"NO 108, HEWAHATE ROAD,TALWATTE, KANDY","rooms":8.0,"grade":"B","district":"Kandy","aga_division":"Kandy","ps_mc_uc":"Kandy Divisional Secretariat","logitiute":80.655699,"latitude":7.28974,"orig_fid":-1},"geometry":{"x":80.655699000000084,"y":7.2897400000000516}},{"attributes":{"objectid":266,"name":"SERENE GARDEN","address":"173/5, RAJAPIHIALLA MAWATHA, KANDY","rooms":12.0,"grade":"B","district":"Kandy","aga_division":"Kandy","ps_mc_uc":"Kandy Divisional Secretariat","logitiute":80.64412,"latitude":7.284872,"orig_fid":-1},"geometry":{"x":80.644120000000044,"y":7.284872000000064}},{"attributes":{"objectid":267,"name":"GSH COLOMBO","address":"NO. 382, GALLE ROAD, COLOMBO 06","rooms":32.0,"grade":"A","district":"Colombo","aga_division":"Colombo","ps_mc_uc":"Thimbirigasyaya Divisional Secretariat","logitiute":79.862452,"latitude":6.867818,"orig_fid":-1},"geometry":{"x":79.862452000000076,"y":6.8678180000000566}},{"attributes":{"objectid":268,"name":"THARANA GUEST HOUSE","address":"NO.28,GANGASIRIWATTA,SIRIMALWATTA,GUNNEPANA","rooms":5.0,"grade":"B","district":"Kandy","aga_division":"Kandy","ps_mc_uc":"Kundasale Divisional Secretariat","logitiute":80.721233,"latitude":7.289313,"orig_fid":-1},"geometry":{"x":80.721233000000041,"y":7.2893130000000497}},{"attributes":{"objectid":269,"name":"TANIYA NATURE RESORT","address":"PUTTALAM ROAD,KALPITIYA","rooms":14.0,"grade":"A","district":"Puttalam","aga_division":"Kalpitiya Pradeshiya Sabha","ps_mc_uc":"Kalpitiya Divisional Secretariat","logitiute":79.744219,"latitude":8.217138,"orig_fid":-1},"geometry":{"x":79.744219000000044,"y":8.217138000000034}},{"attributes":{"objectid":270,"name":"THE ALBATROSS GOLFING & HOLIDAY RESORT","address":"C/O VICTORIA GOLF& COUNTRY RESORT,P.O. BOX 07,RAJAWELLA","rooms":5.0,"grade":"A","district":"Kandy","aga_division":"Kandy","ps_mc_uc":"Medadumbara Divisional Secretariat","logitiute":80.772308,"latitude":7.265746,"orig_fid":-1},"geometry":{"x":80.772308000000066,"y":7.2657460000000356}},{"attributes":{"objectid":271,"name":"MAHAGAMA REST HOUSE","address":"MAHAGAMA REST HOUSE, MAHAGAMA","rooms":4.0,"grade":"B","district":"Kalutara","aga_division":"Bulathsinhala Pradeshiya Sabha","ps_mc_uc":"Bulathsinhala Divisional Secretariat","logitiute":80.159812,"latitude":6.62073,"orig_fid":-1},"geometry":{"x":80.159812000000045,"y":6.6207300000000373}},{"attributes":{"objectid":272,"name":"REST HOUSE - ANAMADUWA","address":"REST HOUSE,ANAMADUWA","rooms":5.0,"grade":"B","district":"Puttalam","aga_division":"Anamaduwa Pradeshiya Sabha","ps_mc_uc":"Anamaduwa Divisional Secretariat","logitiute":80.011116,"latitude":7.903239,"orig_fid":-1},"geometry":{"x":80.011116000000072,"y":7.9032390000000419}},{"attributes":{"objectid":273,"name":"THE BELFRY GUEST HOUSE","address":"NO. 13/4, POLKATUWA, GALLE ROAD, BERUWALA","rooms":6.0,"grade":"A","district":"Kalutara","aga_division":"Beruwala Pradeshiya Sabha","ps_mc_uc":"Beruwala Divisional Secretariat","logitiute":79.985959,"latitude":6.468166,"orig_fid":-1},"geometry":{"x":79.985959000000037,"y":6.4681660000000534}},{"attributes":{"objectid":274,"name":"ROSA RESTAURENT","address":"MAVADY MOOLAI ROAD, VADDU WEST, VADDUK KODDAI.","rooms":15.0,"grade":"B","district":"Jaffna","aga_division":"Jaffna","ps_mc_uc":"Jaffna Divisional Secretariat","logitiute":79.946031,"latitude":9.744691,"orig_fid":-1},"geometry":{"x":79.946031000000062,"y":9.7446910000000457}},{"attributes":{"objectid":275,"name":"POLGAHAWELA REST HOUSE","address":"NO. 76, KEGALLE ROAD, POLGAHAWELA","rooms":18.0,"grade":"B","district":"Kurunegala","aga_division":"Polgahawela Pradeshiya Sabha","ps_mc_uc":"Polgahawela Divisional Secretariat","logitiute":80.299345,"latitude":7.331108,"orig_fid":-1},"geometry":{"x":80.299345000000073,"y":7.3311080000000288}},{"attributes":{"objectid":276,"name":"TISSA VILLAGE","address":"UDUWILA,THISSAMAHARAMA","rooms":6.0,"grade":"B","district":"Hambantota","aga_division":"Thissamaharama","ps_mc_uc":"Thissamaharama Divisional Secretariat","logitiute":81.285821,"latitude":6.278132,"orig_fid":-1},"geometry":{"x":81.285821000000055,"y":6.2781320000000278}},{"attributes":{"objectid":277,"name":"VERONA HOTEL","address":"ZAVIER ROAD, WENNAPPUWA","rooms":10.0,"grade":"A","district":"Puttalam","aga_division":"Wennappuwa Pradeshiya Sabha","ps_mc_uc":"Chilaw Divisional Secretariat","logitiute":79.83491,"latitude":7.34757,"orig_fid":-1},"geometry":{"x":79.834910000000036,"y":7.3475700000000757}},{"attributes":{"objectid":278,"name":"VICTORIA GOLF & COUNTRY RESORT","address":"P.O.BOX 07, RAJAWELLA","rooms":25.0,"grade":"A","district":"Kandy","aga_division":"Kandy","ps_mc_uc":"Kandy Divisional Secretariat","logitiute":80.774256,"latitude":7.265143,"orig_fid":-1},"geometry":{"x":80.774256000000037,"y":7.2651430000000232}},{"attributes":{"objectid":279,"name":"VISAKA HOTEL","address":"NO:34, SELLAKATARAGAMA ROAD, KATARAGAMA","rooms":22.0,"grade":"A","district":"Moneragala","aga_division":"Hambantota","ps_mc_uc":"Hambantota Divisional Secretariat","logitiute":81.31888,"latitude":6.420677,"orig_fid":-1},"geometry":{"x":81.318880000000036,"y":6.4206770000000688}},{"attributes":{"objectid":280,"name":"WET WATER RESORT","address":"NO.136/D,LUMBINIWATTA,JA-ELA ,GAMPAHA","rooms":12.0,"grade":"A","district":"Gampaha","aga_division":"Ja-Ela Pradeshiya Sabha","ps_mc_uc":"Ja-Ela Divisional Secretariat","logitiute":79.95547,"latitude":7.090865,"orig_fid":-1},"geometry":{"x":79.955470000000048,"y":7.0908650000000648}},{"attributes":{"objectid":281,"name":"RICO SHADOW GUEST HOUSE & RESTAURENT","address":"KAMMALA NORTH, WAIKKALA","rooms":10.0,"grade":"A","district":"Puttalam","aga_division":"Wennappuwa Pradeshiya Sabha","ps_mc_uc":"Wennappuwa Divisional Secretariat","logitiute":79.83965,"latitude":7.298235,"orig_fid":-1},"geometry":{"x":79.839650000000063,"y":7.2982350000000338}},{"attributes":{"objectid":282,"name":"HOTEL WONDER BAR","address":"CHANDANA VILLA,ROBOLGODA,BENTHOTA","rooms":6.0,"grade":"A","district":"Galle","aga_division":"Bentota Pradeshiya Sabha","ps_mc_uc":"Benthota Divisional Secretariat","logitiute":80.000133,"latitude":6.411683,"orig_fid":-1},"geometry":{"x":80.000133000000062,"y":6.4116830000000391}},{"attributes":{"objectid":283,"name":"WIJAYA HOLIDAY RESORT","address":"THALGAHAHENA ESTATE,EPITAWALA,KIRIELLA","rooms":12.0,"grade":"A","district":"Ratnapura","aga_division":"Ratnapura","ps_mc_uc":"Kiriella Divisional Secretariat","logitiute":80.243828,"latitude":6.743553,"orig_fid":-1},"geometry":{"x":80.243828000000065,"y":6.7435530000000767}},{"attributes":{"objectid":284,"name":"YALA EDGE","address":"KOCHIPOTHANA, SITHULPAHUWA ROAD, KATHARAGAMA","rooms":5.0,"grade":"B","district":"Moneragala","aga_division":"Polonnaruwa","ps_mc_uc":"Moneragala Divisional Secretariat","logitiute":81.38107,"latitude":6.402011,"orig_fid":-1},"geometry":{"x":81.381070000000079,"y":6.4020110000000727}},{"attributes":{"objectid":285,"name":"ROYAL PARK GUEST","address":"NO:121, GALA JUNCTION, KIRIBATHGODA","rooms":16.0,"grade":"B","district":"Colombo","aga_division":"Colombo","ps_mc_uc":"Colombo Divisional Secretariat","logitiute":79.933777,"latitude":6.984793,"orig_fid":-1},"geometry":{"x":79.933777000000077,"y":6.9847930000000247}},{"attributes":{"objectid":286,"name":"THE TALDUWA MANOR","address":"MALWATTE LEISURE RESORTS, TALDUWA ESTATE, IRRACHT DIIVISION, HATTON ROAD, DEHIOWITA","rooms":12.0,"grade":"B","district":"Kegalle","aga_division":"Dehiowita Pradeshiya Sabha","ps_mc_uc":"Dehiovita Divisional Secretariat","logitiute":80.249924,"latitude":6.974722,"orig_fid":-1},"geometry":{"x":80.249924000000078,"y":6.9747220000000425}},{"attributes":{"objectid":287,"name":"SPRING OF LIFE","address":"NO. 57/A, GANGABODA ROAD, WEWELA, PILIYANDALA","rooms":11.0,"grade":"A","district":"Colombo","aga_division":"Kesbewa","ps_mc_uc":"Kesbewa Divisional Secretariat","logitiute":79.904251,"latitude":6.803964,"orig_fid":-1},"geometry":{"x":79.904251000000045,"y":6.8039640000000645}},{"attributes":{"objectid":288,"name":"SUN N SEA HOTEL","address":"NO. 324, MATARA ROAD, GANAHENA, UNAWATUNA","rooms":10.0,"grade":"B","district":"Galle","aga_division":"Habaraduwa","ps_mc_uc":"Habaraduwa Divisional Secretariat","logitiute":80.252304,"latitude":6.007165,"orig_fid":-1},"geometry":{"x":80.252304000000038,"y":6.0071650000000432}},{"attributes":{"objectid":289,"name":"COSY HOTEL & RESTAURANT","address":"NO.15,SIRAMPIYADI LANE,JAFFNA.","rooms":15.0,"grade":"A","district":"Jaffna","aga_division":"Jaffna","ps_mc_uc":"Jaffna Divisional Secretariat","logitiute":80.017311,"latitude":9.667941,"orig_fid":-1},"geometry":{"x":80.017311000000063,"y":9.6679410000000416}},{"attributes":{"objectid":290,"name":"HERITAGE GARDEN","address":"NO:687,GALLE ROAD,MOLLIGODA,WADDUWA,","rooms":5.0,"grade":"B","district":"Kalutara","aga_division":"Panadura Pradeshiya Sabha","ps_mc_uc":"Panadura Divisional Secretariat","logitiute":79.931446,"latitude":6.66238,"orig_fid":-1},"geometry":{"x":79.931446000000051,"y":6.6623800000000415}},{"attributes":{"objectid":291,"name":"GOMEZ PLACE","address":"NO:22/6B,PORUTHOTA ROAD,ETTUKALA,NEGAMBO","rooms":11.0,"grade":"B","district":"Gampaha","aga_division":"Negombo","ps_mc_uc":"Negombo Divisional Secretariat","logitiute":79.843826,"latitude":7.240576,"orig_fid":-1},"geometry":{"x":79.843826000000035,"y":7.2405760000000328}},{"attributes":{"objectid":292,"name":"HOTEL ALAKAMANDA","address":"NO:11/1,NAGASENA MAWATHA,ANURADHAPURA","rooms":6.0,"grade":"A","district":"Anuradhapura","aga_division":"Anuradhapura","ps_mc_uc":"Anuradhapura East","logitiute":80.417471,"latitude":8.308622,"orig_fid":-1},"geometry":{"x":80.417471000000035,"y":8.3086220000000708}},{"attributes":{"objectid":293,"name":"DECO ON FORTY FOUR","address":"NO:44,LIGHT HOUSE STREET,FORT,GALLE","rooms":7.0,"grade":"A","district":"Galle","aga_division":"Galle","ps_mc_uc":"Galle Divisional Secretariat","logitiute":80.216486,"latitude":6.026811,"orig_fid":-1},"geometry":{"x":80.216486000000032,"y":6.0268110000000661}},{"attributes":{"objectid":294,"name":"BANDAGIRI VILLAGE ECO RESORTS","address":"GONNORUWA ROAD,HAMBANTOTA","rooms":22.0,"grade":"A","district":"Hambantota","aga_division":"Hambantota","ps_mc_uc":"Hambantota Divisional Secretariat","logitiute":81.142757,"latitude":6.234207,"orig_fid":-1},"geometry":{"x":81.142757000000074,"y":6.2342070000000263}},{"attributes":{"objectid":295,"name":"CEYBANK REST - KATARAGAMA","address":"TISSAMAHARAMA ROAD,KATARAGAMA.","rooms":26.0,"grade":"A","district":"Moneragala","aga_division":"Katharagama","ps_mc_uc":"Katharagama Divisional Secretariat","logitiute":81.330985,"latitude":6.412627,"orig_fid":-1},"geometry":{"x":81.330985000000055,"y":6.4126270000000432}},{"attributes":{"objectid":296,"name":"SEA MOON GARDEN GUEST HOUSE","address":"KALMUNAI ROAD, MAIN STREET, KIRANKULAM 06 NORTH, BATTICALOA","rooms":7.0,"grade":"A","district":"Batticaloa","aga_division":"N/A","ps_mc_uc":"Manmunai Pattu Divisional Secretariat","logitiute":81.763094,"latitude":7.613703,"orig_fid":-1},"geometry":{"x":81.763094000000081,"y":7.6137030000000436}},{"attributes":{"objectid":297,"name":"SUN RISE GUEST","address":"UDAKALAGAMA.POLONNARUWA ROAD.HABARANA","rooms":6.0,"grade":"C","district":"Polonnaruwa","aga_division":"Hingurakgoda Pradeshiya Sabha","ps_mc_uc":"Hingurakgoda Divisional Secretariat","logitiute":80.747548,"latitude":8.027473,"orig_fid":-1},"geometry":{"x":80.747548000000052,"y":8.0274730000000432}},{"attributes":{"objectid":298,"name":"REST HOUSE - BOGAWANTALAWA","address":"11O.MAIN STREET,BOGAWANTALAWA","rooms":3.0,"grade":"B","district":"Nuwara Eliya","aga_division":"Ambagamuwa Pradeshiya Sabha","ps_mc_uc":"Ginigathhena","logitiute":80.678775,"latitude":6.795292,"orig_fid":-1},"geometry":{"x":80.67877500000003,"y":6.7952920000000745}},{"attributes":{"objectid":299,"name":"DALAWELLA BEACH RESORT","address":"NO448.DALAWELLA.UNAWATUNA","rooms":8.0,"grade":"B","district":"Galle","aga_division":"Habaraduwa","ps_mc_uc":"Habaraduwa Divisional Secretariat","logitiute":80.259485,"latitude":6.002037,"orig_fid":-1},"geometry":{"x":80.259485000000041,"y":6.0020370000000298}},{"attributes":{"objectid":300,"name":"SARANGA HOLIDAY INN","address":"37.ELLA ROAD.WELLAWAYA.","rooms":10.0,"grade":"A","district":"Moneragala","aga_division":"Wellawaya","ps_mc_uc":"Wellawaya Divisional Secretariat","logitiute":81.100217,"latitude":6.733045,"orig_fid":-1},"geometry":{"x":81.100217000000043,"y":6.733045000000061}},{"attributes":{"objectid":301,"name":"SAYURIMA HOTEL & GUEST HOUSE","address":"GOVIYAPANA, AHANGAMA","rooms":7.0,"grade":"B","district":"Galle","aga_division":"Habaraduwa","ps_mc_uc":"Habaraduwa Divisional Secretariat","logitiute":80.380499,"latitude":5.965326,"orig_fid":-1},"geometry":{"x":80.380499000000043,"y":5.9653260000000614}},{"attributes":{"objectid":302,"name":"MANDARA ROYAL RESORT","address":"253, HORAGOLLA, NITTAMBUWA","rooms":5.0,"grade":"B","district":"Gampaha","aga_division":"Attanagalla Pradeshiya Sabha","ps_mc_uc":"Attanagalla Divisional Secretariat","logitiute":80.08492,"latitude":7.134154,"orig_fid":-1},"geometry":{"x":80.084920000000068,"y":7.1341540000000236}},{"attributes":{"objectid":303,"name":"COPPENRATH GUEST HOUSE & RESTAURENT","address":"NO 61 A.WIJAYA ROAD.TANGALLE","rooms":6.0,"grade":"B","district":"Hambantota","aga_division":"Tangalle Pradeshiya Sabha","ps_mc_uc":"Tangalle Divisional Secretariat","logitiute":80.800652,"latitude":6.032977,"orig_fid":-1},"geometry":{"x":80.800652000000071,"y":6.0329770000000735}},{"attributes":{"objectid":304,"name":"THUSHARA RESTAURANT & GUEST HOUSE","address":"NO 02.NUWARAELIYA RD.WELIMADA.","rooms":6.0,"grade":"B","district":"Badulla","aga_division":"Welimada Pradeshiya Sabha","ps_mc_uc":"Welimada Divisional Secretariat","logitiute":80.912443,"latitude":6.907542,"orig_fid":-1},"geometry":{"x":80.912443000000053,"y":6.9075420000000349}},{"attributes":{"objectid":305,"name":"ROYAL GARDEN RESTAURANT","address":"903/18, WILLIOM GOPALLAWA MAWATHA, KANDY","rooms":25.0,"grade":"A","district":"Kandy","aga_division":"Gagawata Koralya","ps_mc_uc":"Gagawata","logitiute":80.61308,"latitude":7.274373,"orig_fid":-1},"geometry":{"x":80.613080000000082,"y":7.2743730000000255}},{"attributes":{"objectid":306,"name":"PANORAMA HOTEL","address":"9/3, NAOTUNNA, TALALLA","rooms":7.0,"grade":"A","district":"Matara","aga_division":"Devinuwara Pradeshiya Sabha","ps_mc_uc":"Devinuwara Divisional Secretariat","logitiute":80.630098,"latitude":5.946184,"orig_fid":-1},"geometry":{"x":80.630098000000032,"y":5.9461840000000734}},{"attributes":{"objectid":307,"name":"AMILA GUEST HOUSE","address":"NO 5,LOVE LANE.CROSS ROAD,UPPUWELI,TRINCOMALEE","rooms":5.0,"grade":"C","district":"Trincomalee","aga_division":"Trincomalee","ps_mc_uc":"Trincomalee Divisional Secretariat","logitiute":81.215846,"latitude":8.594559,"orig_fid":-1},"geometry":{"x":81.215846000000056,"y":8.5945590000000607}},{"attributes":{"objectid":308,"name":"PARADISE RESORT","address":"15/ 8 A, DANGOLLA ROAD, GATAMBE,KANDY","rooms":18.0,"grade":"C","district":"Kandy","aga_division":"Kandy","ps_mc_uc":"GANGAWATA KORALAYA","logitiute":80.608277,"latitude":7.270056,"orig_fid":-1},"geometry":{"x":80.608277000000044,"y":7.2700560000000678}},{"attributes":{"objectid":309,"name":"DELMAR MOUNT VIEW HOTEL","address":"NO :213/7, ALADENIYA, WERELLAGAM, KANDY","rooms":8.0,"grade":"A","district":"Kandy","aga_division":"Harispattuwa Pradeshiya Sabha","ps_mc_uc":"Harispattuwa Divisional Secretariat","logitiute":80.565804,"latitude":7.337839,"orig_fid":-1},"geometry":{"x":80.565804000000071,"y":7.3378390000000309}},{"attributes":{"objectid":310,"name":"DELTHOTA VILLAGE","address":"154, BOPITIYA ROAD, DELTOTA","rooms":8.0,"grade":"B","district":"Kandy","aga_division":"Pathahewaheta","ps_mc_uc":"Pathahewaheta Divisional Secretariat","logitiute":80.699216,"latitude":7.174126,"orig_fid":-1},"geometry":{"x":80.699216000000035,"y":7.174126000000058}},{"attributes":{"objectid":311,"name":"HOTEL BINOTA","address":"NO 21. BONAVISTA ROAD. KELEGALA. NUWARA ELIYA","rooms":9.0,"grade":"A","district":"Nuwara Eliya","aga_division":"Nuwara Eliya","ps_mc_uc":"Nuwara Eliya Divisional Secretariat","logitiute":80.774704,"latitude":6.955417,"orig_fid":-1},"geometry":{"x":80.774704000000042,"y":6.9554170000000681}},{"attributes":{"objectid":312,"name":"NETHMINI GUEST & REST","address":"1ST MILE POST ,AMPARA ROAD,SIYABALANDUWA","rooms":15.0,"grade":"C","district":"Moneragala","aga_division":"Ampara","ps_mc_uc":"Moneragala Divisional Secretariat","logitiute":81.558596,"latitude":6.918292,"orig_fid":-1},"geometry":{"x":81.55859600000008,"y":6.9182920000000649}},{"attributes":{"objectid":313,"name":"CHOYS WATER FRONT RESIDENCE","address":"NO31,CUSTOM HOUSE ROAD,NEGOMBO","rooms":8.0,"grade":"A","district":"Gampaha","aga_division":"Negombo","ps_mc_uc":"Negombo Divisional Secretariat","logitiute":79.835564,"latitude":7.208541,"orig_fid":-1},"geometry":{"x":79.835564000000034,"y":7.2085410000000252}},{"attributes":{"objectid":314,"name":"NONAGAMA VILLAGE TOURIST GUEST HOUSE","address":"NO 275,TANGALLE ROAD,EKKASSE,AMBALANTOTA","rooms":7.0,"grade":"B","district":"Hambantota","aga_division":"Ambalantota Pradeshiya Sabha","ps_mc_uc":"Ambalantota Divisional Secretariat","logitiute":80.992906,"latitude":6.114312,"orig_fid":-1},"geometry":{"x":80.992906000000062,"y":6.1143120000000408}},{"attributes":{"objectid":315,"name":"THE HAVELOCK PLACE BUNGLOW","address":"NO 6 & 8,HAVELOCK PLACE,COLOMBO 05","rooms":7.0,"grade":"A","district":"Colombo","aga_division":"Colombo","ps_mc_uc":"Colombo Divisional Secretariat","logitiute":79.865045,"latitude":6.885259,"orig_fid":-1},"geometry":{"x":79.865045000000066,"y":6.885259000000076}},{"attributes":{"objectid":316,"name":"GODAGAMA REACH HOTEL","address":"NO23/3,SAMANALA UYANA, PADUKKA ROAD,GODAGAMA,MEEGODA","rooms":18.0,"grade":"A","district":"Colombo","aga_division":"Homagama Pradeshiya Sabha","ps_mc_uc":"Homagama Divisional Secretariat","logitiute":80.035188,"latitude":6.84855,"orig_fid":-1},"geometry":{"x":80.035188000000062,"y":6.8485500000000457}},{"attributes":{"objectid":317,"name":"COCOON SEA RESORT","address":"NO 903,GALLE ROAD,DUWE MADARA,KOSGODA","rooms":7.0,"grade":"A","district":"Galle","aga_division":"balapitiya","ps_mc_uc":"Balapitiya Divisional Secretariat","logitiute":80.022195,"latitude":6.348125,"orig_fid":-1},"geometry":{"x":80.022195000000067,"y":6.3481250000000387}},{"attributes":{"objectid":318,"name":"POWER ZONE GUEST HOUSE","address":"NO743/1,MATALE ROAD,ALAWATUGODA","rooms":5.0,"grade":"B","district":"Kandy","aga_division":"Akurana Pradeshiya Sabha","ps_mc_uc":"Akurana Divisional Secretariat","logitiute":80.612297,"latitude":7.403021,"orig_fid":-1},"geometry":{"x":80.612297000000069,"y":7.4030210000000238}},{"attributes":{"objectid":319,"name":"GIRAGALA VILLAGE RESTAURENT","address":"BANDARAMULLA,MIRISSA","rooms":17.0,"grade":"B","district":"Matara","aga_division":"Weligama Pradeshiya Sabha","ps_mc_uc":"Weligama Divisional Secretariat","logitiute":80.462675,"latitude":5.943054,"orig_fid":-1},"geometry":{"x":80.462675000000047,"y":5.9430540000000747}},{"attributes":{"objectid":320,"name":"SHANGHAI","address":"SHANGHAI ENTERPRISES,NO 12,FIRST LANE,ANGULANA STATION ROAD,MORATUWA","rooms":5.0,"grade":"A","district":"Colombo","aga_division":"Moratuwa","ps_mc_uc":"Moratuwa Divisional Secretariat","logitiute":79.881909,"latitude":6.802403,"orig_fid":-1},"geometry":{"x":79.881909000000064,"y":6.8024030000000266}},{"attributes":{"objectid":321,"name":"MOUNT WAVES HOTEL","address":"NO 17-19, DE SERAM ROAD,MOUNT LAVINIA","rooms":9.0,"grade":"B","district":"Colombo","aga_division":"Dehiwala-Mount Lavinia","ps_mc_uc":"Dehiwala Divisional Secretariat","logitiute":79.86475,"latitude":6.840511,"orig_fid":-1},"geometry":{"x":79.864750000000072,"y":6.8405110000000491}},{"attributes":{"objectid":322,"name":"DICKWELLA BEACH HOTEL","address":"NO.112, MAHAWELA ROAD, DICKWELLA","rooms":15.0,"grade":"B","district":"Matara","aga_division":"Dickwella","ps_mc_uc":"Dickwella Divisional Secretariat","logitiute":80.69762,"latitude":5.964324,"orig_fid":-1},"geometry":{"x":80.697620000000029,"y":5.9643240000000333}},{"attributes":{"objectid":323,"name":"INDRA HOTEL","address":"174/3,NADUNA WATTA,RAGAMA ROAD,KADAWATHA","rooms":19.0,"grade":"B","district":"Gampaha","aga_division":"Gampaha","ps_mc_uc":"Gampaha Divisional Secretariat","logitiute":79.950605,"latitude":7.002975,"orig_fid":-1},"geometry":{"x":79.950605000000053,"y":7.002975000000049}},{"attributes":{"objectid":324,"name":"RUWALA RESORT","address":"KALPITIYA ROAD,THIHALIYA,ETHTHALE","rooms":6.0,"grade":"B","district":"Puttalam","aga_division":"Kalpitiya Pradeshiya Sabha","ps_mc_uc":"Kalpitiya Divisional Secretariat","logitiute":79.735411,"latitude":8.109541,"orig_fid":-1},"geometry":{"x":79.735411000000056,"y":8.1095410000000356}},{"attributes":{"objectid":325,"name":"THE ICEBEAR GUEST HOUSE","address":"95,LEWIS PLACE, NEGOMBO","rooms":8.0,"grade":"C","district":"Gampaha","aga_division":"Negombo","ps_mc_uc":"Negombo Divisional Secretariat","logitiute":79.840137,"latitude":7.224388,"orig_fid":-1},"geometry":{"x":79.840137000000084,"y":7.2243880000000331}},{"attributes":{"objectid":326,"name":"HANSA HOLIDAY REST","address":"NO 5/1, WEWALA KANDA, WEWALA - HORANA","rooms":15.0,"grade":"A","district":"Kalutara","aga_division":"Horana Pradeshiya Sabha","ps_mc_uc":"Horana Divisional Secretariat","logitiute":80.068375,"latitude":6.701054,"orig_fid":-1},"geometry":{"x":80.06837500000006,"y":6.701054000000056}},{"attributes":{"objectid":327,"name":"INDRANS","address":"40/5, RAILWAY STATION ROAD, VAVUNIYA","rooms":6.0,"grade":"C","district":"Vavuniya","aga_division":"Vavuniya","ps_mc_uc":"Vavuniya","logitiute":80.494198,"latitude":8.752929,"orig_fid":-1},"geometry":{"x":80.49419800000004,"y":8.7529290000000515}},{"attributes":{"objectid":328,"name":"NIPPON VILLA BEACH RESORT","address":"NO.412/D, GALLE ROAD, WEWALA, HIKKADUWA","rooms":26.0,"grade":"A","district":"Galle","aga_division":"Hikkaduwa","ps_mc_uc":"Hikkaduwa Divisional Secretariat","logitiute":80.103424,"latitude":6.128514,"orig_fid":-1},"geometry":{"x":80.103424000000075,"y":6.1285140000000524}},{"attributes":{"objectid":329,"name":"HOTEL ASHFORD - NUWARA ELIYA","address":"WELIMADA ROAD, SEETHA ELIYA, NUWARA ELIYA","rooms":20.0,"grade":"A","district":"Nuwara Eliya","aga_division":"Nuwara Eliya","ps_mc_uc":"Nuwara Eliya Divisional Secretariat","logitiute":80.806478,"latitude":6.934051,"orig_fid":-1},"geometry":{"x":80.806478000000084,"y":6.9340510000000677}},{"attributes":{"objectid":330,"name":"DIYA ULPATHA TEA GARDEN RESORT","address":"MAWATHAGODA ROAD,HORAVALA","rooms":5.0,"grade":"B","district":"Kalutara","aga_division":"Kalutara Pradeshiya Sabha","ps_mc_uc":"Kalutara Divisional Secretariat","logitiute":80.129562,"latitude":6.472226,"orig_fid":-1},"geometry":{"x":80.129562000000078,"y":6.4722260000000347}},{"attributes":{"objectid":331,"name":"SANOREECH HOTEL","address":"NO :391/1 ,CHILAW ROAD,DALUPOTHA,NEGOMBO","rooms":5.0,"grade":"A","district":"Gampaha","aga_division":"Kundasle","ps_mc_uc":"Negombo Divisional Secretariat","logitiute":79.850068,"latitude":7.225966,"orig_fid":-1},"geometry":{"x":79.850068000000078,"y":7.2259660000000281}},{"attributes":{"objectid":332,"name":"SAPTHAPADHI","address":"NO:35, COLOMBO ROAD,MALANGAMA,RATNAPURA","rooms":14.0,"grade":"A","district":"Ratnapura","aga_division":"Ratnapura","ps_mc_uc":"Balangoda Divisional Secretariat","logitiute":80.383669,"latitude":6.732908,"orig_fid":-1},"geometry":{"x":80.383669000000054,"y":6.7329080000000658}},{"attributes":{"objectid":333,"name":"M.P.S.VILLAGE","address":"KALUNDEWA ROAD, DAMBULU OYA JUNCTION, DAMBULLA","rooms":12.0,"grade":"A","district":"Matale","aga_division":"Dambulla Pradeshiya Sabha","ps_mc_uc":"Dambulla Divisional Secretariat","logitiute":80.677775,"latitude":7.798769,"orig_fid":-1},"geometry":{"x":80.677775000000054,"y":7.7987690000000498}},{"attributes":{"objectid":334,"name":"AARYA LAGOON ,KALPITIYA","address":"KALPITIYA ROAD,MAMPURI","rooms":5.0,"grade":"A","district":"Puttalam","aga_division":"Kalpitiya Pradeshiya Sabha","ps_mc_uc":"Kalpitiya Divisional Secretariat","logitiute":79.742325,"latitude":7.995629,"orig_fid":-1},"geometry":{"x":79.742325000000051,"y":7.9956290000000649}},{"attributes":{"objectid":335,"name":"WHITE HOUSE HOLIDAY INN","address":"15/4,BUTTHALA ROAD,PANGUWATTA GAMA,PASSARA","rooms":6.0,"grade":"A","district":"Badulla","aga_division":"Badulla","ps_mc_uc":"Passara Divisional Secretariat","logitiute":81.162021,"latitude":6.933551,"orig_fid":-1},"geometry":{"x":81.162021000000038,"y":6.9335510000000227}},{"attributes":{"objectid":336,"name":"MANOMA LEISURE VILLAGE","address":"NO 165/11 , UPPER LAKE ROAD , NUWARA ELIYA","rooms":12.0,"grade":"B","district":"Nuwara Eliya","aga_division":"Sri Jayawardenapura-Kotte","ps_mc_uc":"Nuwara Eliya Divisional Secretariat","logitiute":80.785329,"latitude":6.957035,"orig_fid":-1},"geometry":{"x":80.785329000000047,"y":6.9570350000000758}},{"attributes":{"objectid":337,"name":"SEA BREEZE RESTAURANT & GUEST INN","address":"430,BEACH ROAD,SAINTHAMARUTHU","rooms":7.0,"grade":"C","district":"Ampara","aga_division":"Kalmunai","ps_mc_uc":"Sainthamarathu Divisional Secretariat","logitiute":81.840089,"latitude":7.408089,"orig_fid":-1},"geometry":{"x":81.840089000000035,"y":7.408089000000075}},{"attributes":{"objectid":338,"name":"SEVEN ELEVEN HOTEL","address":"NO:269/L,ARALIYA UYANA,HOKANDARA ROAD,THALAWATHUGODA","rooms":11.0,"grade":"A","district":"Colombo","aga_division":"Maharagama","ps_mc_uc":"Maharagama Divisional Secretariat","logitiute":79.94153,"latitude":6.879555,"orig_fid":-1},"geometry":{"x":79.941530000000057,"y":6.8795550000000389}},{"attributes":{"objectid":339,"name":"PANWILA CABANAS","address":"CINNAMON NR.030,PANWILA,80240,HIKKADUWA","rooms":6.0,"grade":"C","district":"Galle","aga_division":"Hikkaduwa","ps_mc_uc":"Hikkaduwa Divisional Secretariat","logitiute":80.123665,"latitude":6.132364,"orig_fid":-1},"geometry":{"x":80.123665000000074,"y":6.1323640000000523}},{"attributes":{"objectid":340,"name":"HAPPY LEONI HOTEL","address":"NO 329/6,MAHAWELA WATHTHA,5TH LANE,MEHENTHALE ROAD,ANURADHAPURA","rooms":10.0,"grade":"A","district":"Anuradhapura","aga_division":"Anuradhapura","ps_mc_uc":"Anuradhapura East","logitiute":80.487041,"latitude":8.353516,"orig_fid":-1},"geometry":{"x":80.487041000000033,"y":8.3535160000000701}},{"attributes":{"objectid":341,"name":"SANDADIYA GUEST HOUSE AND RESTAURANT","address":"DEBARAWEWA LAKE LANE,DEBARAWEWA,TISSAMAHARAMAYA","rooms":7.0,"grade":"C","district":"Hambantota","aga_division":"Thissamaharama","ps_mc_uc":"Thissamaharama Divisional Secretariat","logitiute":81.268153,"latitude":6.287025,"orig_fid":-1},"geometry":{"x":81.268153000000041,"y":6.2870250000000283}},{"attributes":{"objectid":342,"name":"ISURU RESTAURANT","address":"NO.42/B, KANDY ROAD, GELIOYA","rooms":12.0,"grade":"B","district":"Kandy","aga_division":"Udunuwara Pradeshiya Sabha","ps_mc_uc":"Udunuwara Divisional Secretariat","logitiute":80.597858,"latitude":7.216917,"orig_fid":-1},"geometry":{"x":80.597858000000031,"y":7.2169170000000236}},{"attributes":{"objectid":343,"name":"ROYAL BAR AND HOTEL","address":"NO 44,KINGS STREET,KANDY","rooms":6.0,"grade":"A","district":"Kandy","aga_division":"Kandy","ps_mc_uc":"Kandy Divisional Secretariat","logitiute":80.63758,"latitude":7.295276,"orig_fid":-1},"geometry":{"x":80.637580000000071,"y":7.295276000000058}},{"attributes":{"objectid":344,"name":"AARYA HOTEL","address":"KOLONGALLA ESTATE,RANDENIYA,HIRIWADUNNA","rooms":7.0,"grade":"A","district":"Kegalle","aga_division":"Kegalle","ps_mc_uc":"Kegalle Divisional Secretariat","logitiute":80.382392,"latitude":7.272594,"orig_fid":-1},"geometry":{"x":80.382392000000038,"y":7.2725940000000264}},{"attributes":{"objectid":345,"name":"THEVNI RECEPTION HALL AND HOLIDAY RESORT","address":"216,ARAKWILA,BOPE,PADUKKA","rooms":15.0,"grade":"A","district":"Kalutara","aga_division":"Kalutara Pradeshiya Sabha","ps_mc_uc":"Kalutara Divisional Secretariat","logitiute":80.14494,"latitude":6.817573,"orig_fid":-1},"geometry":{"x":80.144940000000076,"y":6.8175730000000385}},{"attributes":{"objectid":346,"name":"MIRISSA BAY RESORT","address":"UDUPILA,MIRISSA","rooms":9.0,"grade":"B","district":"Matara","aga_division":"Uhana Pradeshiya Sabha","ps_mc_uc":"Weligama Divisional Secretariat","logitiute":80.459803,"latitude":5.944825,"orig_fid":-1},"geometry":{"x":80.459803000000079,"y":5.9448250000000371}},{"attributes":{"objectid":347,"name":"NICE PLACE RESTURANT & BUNGALOWS","address":"INAMALUWA,DAMBULLA.","rooms":7.0,"grade":"A","district":"Matale","aga_division":"Dambulla Pradeshiya Sabha","ps_mc_uc":"Dambulla Divisional Secretariat","logitiute":80.691631,"latitude":7.909657,"orig_fid":-1},"geometry":{"x":80.691631000000029,"y":7.9096570000000384}},{"attributes":{"objectid":348,"name":"DE SILVA WIND RESORT KALPITIYA","address":"PUDUKUDUIRUPPU,SEETHAWADI,KALPITIYA","rooms":9.0,"grade":"B","district":"Puttalam","aga_division":"Puttalam","ps_mc_uc":"Puttalam Divisional Secretariat","logitiute":79.740314,"latitude":8.230936,"orig_fid":-1},"geometry":{"x":79.740314000000069,"y":8.2309360000000424}},{"attributes":{"objectid":349,"name":"TEA BUSH HOTEL","address":"NO:29,HADDON HILL ROAD,NUWARA ELIYA","rooms":9.0,"grade":"A","district":"Nuwara Eliya","aga_division":"Nuwara Eliya","ps_mc_uc":"Nuwara Eliya Divisional Secretariat","logitiute":80.762923,"latitude":6.962004,"orig_fid":-1},"geometry":{"x":80.762923000000058,"y":6.9620040000000358}},{"attributes":{"objectid":350,"name":"GRAND REGENT","address":"GALKOTUWA, POTHANA, KIMBISSA, SIGIRIYA","rooms":12.0,"grade":"A","district":"Matale","aga_division":"Dambulla Pradeshiya Sabha","ps_mc_uc":"Dambulla Divisional Secretariat","logitiute":80.722325,"latitude":7.934016,"orig_fid":-1},"geometry":{"x":80.722325000000069,"y":7.9340160000000424}},{"attributes":{"objectid":351,"name":"THE HIDEOUT SIGIRIYA HOLIDAY RESORT","address":"PALUTAWA ROAD,RANGIRIGAMA,KIMBISSA","rooms":9.0,"grade":"A","district":"Matale","aga_division":"Dambulla Pradeshiya Sabha","ps_mc_uc":"Dambulla Divisional Secretariat","logitiute":80.722329,"latitude":7.934016,"orig_fid":-1},"geometry":{"x":80.722329000000059,"y":7.9340160000000424}},{"attributes":{"objectid":352,"name":"ASVIKA HOTEL","address":"NO.09, SAWMIYAPURAM, KOTAGALA","rooms":14.0,"grade":"A","district":"Nuwara Eliya","aga_division":"Nuwara Eliya","ps_mc_uc":"Nuwara Eliya Divisional Secretariat","logitiute":80.597509,"latitude":6.916606,"orig_fid":-1},"geometry":{"x":80.597509000000059,"y":6.9166060000000584}},{"attributes":{"objectid":353,"name":"WIMAL RESORT","address":"274/24,PARANGIYA WATTA,PEELLAGODA,UNAWATUNA","rooms":9.0,"grade":"A","district":"Galle","aga_division":"Habaraduwa","ps_mc_uc":"Habaraduwa Divisional Secretariat","logitiute":80.248947,"latitude":6.010034,"orig_fid":-1},"geometry":{"x":80.248947000000044,"y":6.0100340000000756}},{"attributes":{"objectid":354,"name":"NIL DIYA MANKADA SAFARI LODGE","address":"C.D.E.PLACE,WALAWEGAMA,UDAWALAWA","rooms":5.0,"grade":"A","district":"Ratnapura","aga_division":"Embilipitiya","ps_mc_uc":"Embilipitiya Divisional Secretariat","logitiute":80.840427,"latitude":6.417966,"orig_fid":-1},"geometry":{"x":80.840427000000034,"y":6.4179660000000354}},{"attributes":{"objectid":355,"name":"AMAL VILLA","address":"ROBOLGODA,BENTHOTA","rooms":7.0,"grade":"A","district":"Galle","aga_division":"Bentota Pradeshiya Sabha","ps_mc_uc":"Benthota Divisional Secretariat","logitiute":80.001058,"latitude":6.411774,"orig_fid":-1},"geometry":{"x":80.001058000000057,"y":6.4117740000000367}},{"attributes":{"objectid":356,"name":"PIGEON ISLAND VIEW GUEST HOUSE","address":"9TH MILE POST,NILAVELI","rooms":12.0,"grade":"A","district":"Trincomalee","aga_division":"Trincomalee","ps_mc_uc":"Trincomalee Divisional Secretariat","logitiute":81.197698,"latitude":8.686514,"orig_fid":-1},"geometry":{"x":81.197698000000059,"y":8.6865140000000451}},{"attributes":{"objectid":357,"name":"CEYLONICA BEACH","address":"NO 47,LEWIS PLACE,NEGOMBO","rooms":10.0,"grade":"B","district":"Gampaha","aga_division":"Negombo","ps_mc_uc":"Negombo Divisional Secretariat","logitiute":79.839985,"latitude":7.222095,"orig_fid":-1},"geometry":{"x":79.83998500000007,"y":7.2220950000000244}},{"attributes":{"objectid":358,"name":"CORAL SEAS BEACH RESORT","address":"N0.346, GALLE ROAD, HIKKADUWA","rooms":8.0,"grade":"A","district":"Galle","aga_division":"Hikkaduwa","ps_mc_uc":"Hikkaduwa Divisional Secretariat","logitiute":80.100077,"latitude":6.134225,"orig_fid":-1},"geometry":{"x":80.100077000000056,"y":6.1342250000000718}},{"attributes":{"objectid":359,"name":"AMANDA HILLS KANDY","address":"65, SARANANKARA ROAD, KANDY","rooms":12.0,"grade":"B","district":"Kandy","aga_division":"Kandy","ps_mc_uc":"Kandy Divisional Secretariat","logitiute":80.641838,"latitude":7.287181,"orig_fid":-1},"geometry":{"x":80.641838000000064,"y":7.2871810000000323}},{"attributes":{"objectid":360,"name":"GAMODH CITADEL RESORT","address":"LOLUWAGODA ,ELAYAPATHTHUWA,ANURADHAPURA","rooms":10.0,"grade":"A","district":"Anuradhapura","aga_division":"Anuradhapura","ps_mc_uc":"Anuradhapura East","logitiute":80.364711,"latitude":8.364036,"orig_fid":-1},"geometry":{"x":80.364711000000057,"y":8.3640360000000555}},{"attributes":{"objectid":361,"name":"YALA CARAVAN VILLAGE","address":"84,GURUGODA,PALATUPANA,KIRINDA,TISSAMAHARAMAYA","rooms":8.0,"grade":"A","district":"Hambantota","aga_division":"Thissamaharama","ps_mc_uc":"Thissamaharama Divisional Secretariat","logitiute":81.372383,"latitude":6.23996,"orig_fid":-1},"geometry":{"x":81.37238300000007,"y":6.2399600000000532}},{"attributes":{"objectid":362,"name":"MUTHUWELI BEACH RESORT","address":"7/1A,NEW GALLE ROAD,EGODAUYANA,MORATUWA","rooms":5.0,"grade":"B","district":"Colombo","aga_division":"Moratuwa","ps_mc_uc":"Moratuwa Divisional Secretariat","logitiute":79.894659,"latitude":6.73596,"orig_fid":-1},"geometry":{"x":79.894659000000047,"y":6.7359600000000341}},{"attributes":{"objectid":363,"name":"MIDKY HOTEL","address":"NO.405, KANDY ROAD, BAMBARAKELE, NUWARAELIYA","rooms":8.0,"grade":"A","district":"Nuwara Eliya","aga_division":"Nuwara Eliya","ps_mc_uc":"Nuwara Eliya Divisional Secretariat","logitiute":80.753551,"latitude":6.981969,"orig_fid":-1},"geometry":{"x":80.753551000000073,"y":6.9819690000000492}},{"attributes":{"objectid":364,"name":"NA SEVANA INN","address":"74,KANDY ROAD,WEWALDENIYA","rooms":10.0,"grade":"B","district":"Gampaha","aga_division":"Gampaha","ps_mc_uc":"Gampaha Divisional Secretariat","logitiute":80.154731,"latitude":7.198057,"orig_fid":-1},"geometry":{"x":80.154731000000083,"y":7.1980570000000625}},{"attributes":{"objectid":365,"name":"SILVER RING VILLAGE HOTEL","address":"NO:52/1,KIDAGAMMULLA,GAMPAHA","rooms":8.0,"grade":"B","district":"Gampaha","aga_division":"Gampaha","ps_mc_uc":"Gampaha Divisional Secretariat","logitiute":80.008895,"latitude":7.080992,"orig_fid":-1},"geometry":{"x":80.008895000000052,"y":7.0809920000000375}},{"attributes":{"objectid":366,"name":"HOTEL SUNHILL","address":"NO.18 UNIQUE VIEW ROAD,NUWARAELIYA","rooms":15.0,"grade":"A","district":"Nuwara Eliya","aga_division":"Nuwara Eliya","ps_mc_uc":"Nuwara Eliya Divisional Secretariat","logitiute":80.765423,"latitude":6.963377,"orig_fid":-1},"geometry":{"x":80.765423000000055,"y":6.9633770000000368}},{"attributes":{"objectid":367,"name":"ROYAL SEAWIND","address":"NO 26,BEACH ROOD POLHENA-MATARA.","rooms":11.0,"grade":"B","district":"Matara","aga_division":"Matara","ps_mc_uc":"Matara Divisional Secretariat","logitiute":80.527579,"latitude":5.936933,"orig_fid":-1},"geometry":{"x":80.52757900000006,"y":5.9369330000000673}},{"attributes":{"objectid":368,"name":"RIVI RAS HOTEL","address":"50/2 DE SANAM ROAD,MT LAVINIA.","rooms":25.0,"grade":"A","district":"Colombo","aga_division":"Dehiwala-Mount Lavinia","ps_mc_uc":"Ratmalana Divisional Secretariat","logitiute":79.86366,"latitude":6.836248,"orig_fid":-1},"geometry":{"x":79.863660000000039,"y":6.8362480000000687}},{"attributes":{"objectid":369,"name":"AYUBOWAN GUEST HOUSE","address":"47/55 SCHOOL LANE ETTUKALA,NEGOMBO","rooms":6.0,"grade":"A","district":"Gampaha","aga_division":"Negombo","ps_mc_uc":"Negombo Divisional Secretariat","logitiute":79.843597,"latitude":7.235167,"orig_fid":-1},"geometry":{"x":79.843597000000045,"y":7.2351670000000468}},{"attributes":{"objectid":370,"name":"SAMREN RESTAURANT","address":"NO.126, SIRIBOPURA, HAMBANTOTA","rooms":12.0,"grade":"B","district":"Hambantota","aga_division":"Hambantota","ps_mc_uc":"Hambantota Divisional Secretariat","logitiute":81.126983,"latitude":6.148158,"orig_fid":-1},"geometry":{"x":81.126983000000052,"y":6.1481580000000235}},{"attributes":{"objectid":371,"name":"BEVERLY HILLS HOTEL","address":"NO.27,DE SARAM ROAD,MOUNT LAVINIA","rooms":24.0,"grade":"B","district":"Colombo","aga_division":"Dehiwala-Mount Lavinia","ps_mc_uc":"Mount Lavinia","logitiute":79.86486,"latitude":6.839056,"orig_fid":-1},"geometry":{"x":79.864860000000078,"y":6.8390560000000278}},{"attributes":{"objectid":372,"name":"HILL HOUSE - KANDY","address":"NO:60/83,INNER CIRCULAR ROAD,ANIWATE,KANDY","rooms":11.0,"grade":"A","district":"Kandy","aga_division":"Kandy","ps_mc_uc":"Kandy Divisional Secretariat","logitiute":80.650322,"latitude":7.283531,"orig_fid":-1},"geometry":{"x":80.650322000000074,"y":7.2835310000000391}},{"attributes":{"objectid":373,"name":"ARALIYA INN","address":"NO:20/1B,SRI SUMANGALA MAWATHA,POLGAHAWELA","rooms":7.0,"grade":"B","district":"Kurunegala","aga_division":"Kurunegala","ps_mc_uc":"Kurunegala Divisional Secretariat","logitiute":80.62592,"latitude":7.291109,"orig_fid":-1},"geometry":{"x":80.625920000000065,"y":7.2911090000000627}},{"attributes":{"objectid":374,"name":"SERGEANT HOUSE","address":"NO:381,MATARA ROAD,GANAHENA,UNAWATUNA,GALLE","rooms":5.0,"grade":"A","district":"Galle","aga_division":"Galle","ps_mc_uc":"Galle Divisional Secretariat","logitiute":80.253185,"latitude":6.006796,"orig_fid":-1},"geometry":{"x":80.25318500000003,"y":6.0067960000000653}},{"attributes":{"objectid":375,"name":"OPULENT RIVER FACE HOTEL","address":"NO 166,KOSWATTA ROAD,NAWALA,RAJAGIRIYA","rooms":15.0,"grade":"A","district":"Colombo","aga_division":"Colombo","ps_mc_uc":"Colombo Divisional Secretariat","logitiute":79.901574,"latitude":6.901552,"orig_fid":-1},"geometry":{"x":79.901574000000039,"y":6.9015520000000379}},{"attributes":{"objectid":376,"name":"RAJANAWA HERITAGE RESORT","address":"HILBURN WATTA,MARAPANA,RATHNAPURA","rooms":10.0,"grade":"A","district":"Ratnapura","aga_division":"Ratnapura","ps_mc_uc":"Ratnapura Divisional Secretariat","logitiute":80.432552,"latitude":6.664646,"orig_fid":-1},"geometry":{"x":80.432552000000044,"y":6.6646460000000616}},{"attributes":{"objectid":377,"name":"SEVANA CITY HOTEL","address":"NO 84,PERADENIYA ROAD,KANDY","rooms":15.0,"grade":"A","district":"Kandy","aga_division":"Kandy","ps_mc_uc":"Kandy Divisional Secretariat","logitiute":80.63163,"latitude":7.291993,"orig_fid":-1},"geometry":{"x":80.63163000000003,"y":7.2919930000000477}},{"attributes":{"objectid":378,"name":"PALMYRAH HOUSE","address":"THALAIMANNARAMA ROAD, KARISAL, MANNAR","rooms":5.0,"grade":"A","district":"Mannar","aga_division":"Jaffna","ps_mc_uc":"Manmunai North Divisional Secretariat","logitiute":79.848231,"latitude":9.064469,"orig_fid":-1},"geometry":{"x":79.848231000000055,"y":9.064469000000031}},{"attributes":{"objectid":379,"name":"DIYAMBA BEACH RESORT","address":"KANDAKULIYA BEACH ROAD,KANDAKULIYA,KALPITIYA.","rooms":8.0,"grade":"B","district":"Puttalam","aga_division":"Kalpitiya Pradeshiya Sabha","ps_mc_uc":"Kalpitiya Divisional Secretariat","logitiute":79.713051,"latitude":8.215804,"orig_fid":-1},"geometry":{"x":79.713051000000064,"y":8.2158040000000483}},{"attributes":{"objectid":380,"name":"PURPLE SUN HOLIDAY RESORT","address":"NO 66/20,NEW RATHNAPURA ROAD,AVISSAWELLA","rooms":21.0,"grade":"A","district":"Colombo","aga_division":"Colombo","ps_mc_uc":"Hanwella","logitiute":80.211651,"latitude":6.947997,"orig_fid":-1},"geometry":{"x":80.211651000000074,"y":6.9479970000000435}},{"attributes":{"objectid":381,"name":"LIVING HERITAGE KOSLANDA","address":"EGODAWATTE ESTATE,NAULLA,KOSLANDA,UVA","rooms":5.0,"grade":"A","district":"Badulla","aga_division":"Badulla","ps_mc_uc":"Badulla Divisional Secretariat","logitiute":81.0215135,"latitude":6.7299126,"orig_fid":-1},"geometry":{"x":81.021513500000083,"y":6.7299126000000342}},{"attributes":{"objectid":382,"name":"COOP INN","address":"NO 350 TRINCOMALEE ROAD BATTICALOA","rooms":12.0,"grade":"B","district":"Batticaloa","aga_division":"Batticaloa","ps_mc_uc":"Batticaloa Divisional Secretariat","logitiute":81.690772,"latitude":7.725563,"orig_fid":-1},"geometry":{"x":81.690772000000038,"y":7.7255630000000224}},{"attributes":{"objectid":383,"name":"AMAGI BEACH","address":"BEACH ROAD,MARAWILA","rooms":10.0,"grade":"A","district":"Puttalam","aga_division":"Puttalam Pradeshiya Sabha","ps_mc_uc":"Puttalam Divisional Secretariat","logitiute":79.81656,"latitude":7.414444,"orig_fid":-1},"geometry":{"x":79.816560000000038,"y":7.41444400000006}},{"attributes":{"objectid":384,"name":"HOTEL SEE KANDY","address":"NO:38/14,RAJAPHILLA MAWATHA,KANDY","rooms":6.0,"grade":"A","district":"Kandy","aga_division":"Kandy","ps_mc_uc":"Kandy Divisional Secretariat","logitiute":80.64072,"latitude":7.287999,"orig_fid":-1},"geometry":{"x":80.640720000000044,"y":7.2879990000000703}},{"attributes":{"objectid":385,"name":"MOONSTONE VILLAS","address":"336, MATARA ROAD, TANGALLE","rooms":7.0,"grade":"B","district":"Hambantota","aga_division":"Hambantota","ps_mc_uc":"Hambantota Divisional Secretariat","logitiute":80.79178,"latitude":6.019395,"orig_fid":-1},"geometry":{"x":80.791780000000074,"y":6.0193950000000314}},{"attributes":{"objectid":386,"name":"MILTONS BEACH RESORT","address":"GANAHENA,UNAWATUNA","rooms":28.0,"grade":"B","district":"Galle","aga_division":"Galle","ps_mc_uc":"Habaraduwa Divisional Secretariat","logitiute":80.253973,"latitude":6.005965,"orig_fid":-1},"geometry":{"x":80.25397300000003,"y":6.0059650000000602}},{"attributes":{"objectid":387,"name":"PEARL OCEANIC RESORT","address":"10/1,WARD NO 03,SAMPALTHIVU,TRINCOMALEE","rooms":8.0,"grade":"A","district":"Trincomalee","aga_division":"Trincomalee","ps_mc_uc":"Trincomalee Divisional Secretariat","logitiute":81.222994,"latitude":8.636459,"orig_fid":-1},"geometry":{"x":81.222994000000085,"y":8.6364590000000589}},{"attributes":{"objectid":388,"name":"LOURDES INN HOTEL","address":"20/4,3RD LANE,MAGASTHOTHA,NUWARA ELIYA.","rooms":18.0,"grade":"A","district":"Nuwara Eliya","aga_division":"Nuwara Eliya","ps_mc_uc":"Nuwara Eliya Divisional Secretariat","logitiute":80.787634,"latitude":6.946254,"orig_fid":-1},"geometry":{"x":80.787634000000082,"y":6.9462540000000672}},{"attributes":{"objectid":389,"name":"HEAVEN SEVEN","address":"NO 24,HADON HILL ROAD,NUWARA ELIYA","rooms":11.0,"grade":"A","district":"Nuwara Eliya","aga_division":"Nuwara Eliya","ps_mc_uc":"Nuwara Eliya Divisional Secretariat","logitiute":80.765792,"latitude":6.962279,"orig_fid":-1},"geometry":{"x":80.765792000000033,"y":6.9622790000000236}},{"attributes":{"objectid":390,"name":"POLHENA REEF GARDEN HOTEL","address":"NO:30,BEACH ROAD,POLHENA,MATARA","rooms":18.0,"grade":"B","district":"Matara","aga_division":"Matara","ps_mc_uc":"Matara Divisional Secretariat","logitiute":80.527084,"latitude":5.937056,"orig_fid":-1},"geometry":{"x":80.527084000000059,"y":5.937056000000041}},{"attributes":{"objectid":391,"name":"SANCHARINA HOTEL","address":"156/41,WAJIRA ROAD,NAHENA,HUNUPITIYA,WATTALA","rooms":15.0,"grade":"A","district":"Gampaha","aga_division":"Kelaniya Pradeshiya Sabha","ps_mc_uc":"Kelaniya Divisional Secretariat","logitiute":79.915357,"latitude":6.984756,"orig_fid":-1},"geometry":{"x":79.915357000000085,"y":6.9847560000000612}},{"attributes":{"objectid":392,"name":"THE M G S HOTEL","address":"NO:283/A2,PUBUDU MAWATHA, ELPITIYA","rooms":6.0,"grade":"A","district":"Galle","aga_division":"Galle","ps_mc_uc":"Elpitiya Divisional Secretariat","logitiute":80.162979,"latitude":6.286796,"orig_fid":-1},"geometry":{"x":80.162979000000064,"y":6.286796000000038}},{"attributes":{"objectid":393,"name":"ICE AGE HOTEL AND RESTURANT","address":"359,GALLE ROAD,BALAPITIYA","rooms":6.0,"grade":"A","district":"Galle","aga_division":"balapitiya","ps_mc_uc":"Balapitiya Divisional Secretariat","logitiute":80.035357,"latitude":6.267228,"orig_fid":-1},"geometry":{"x":80.035357000000033,"y":6.2672280000000455}},{"attributes":{"objectid":394,"name":"HOTEL WEWALA BEACH","address":"NO. 380, GALLE ROAD, HIKKADUWA","rooms":20.0,"grade":"A","district":"Galle","aga_division":"Hikkaduwa","ps_mc_uc":"Hikkaduwa Divisional Secretariat","logitiute":80.101644,"latitude":6.130476,"orig_fid":-1},"geometry":{"x":80.101644000000078,"y":6.1304760000000442}},{"attributes":{"objectid":395,"name":"HOTEL SUNRAY","address":"NO:117/8,ANAGARIKA DHARMAPALA MAWATHA,KANDY","rooms":19.0,"grade":"A","district":"Kandy","aga_division":"Kandy","ps_mc_uc":"Kandy Divisional Secretariat","logitiute":80.648106,"latitude":7.293095,"orig_fid":-1},"geometry":{"x":80.648106000000041,"y":7.2930950000000507}},{"attributes":{"objectid":396,"name":"ROMAN BEACH","address":"777/2,THIRANAGAMA,HIKKADUWA","rooms":6.0,"grade":"A","district":"Galle","aga_division":"Hikkaduwa","ps_mc_uc":"Hikkaduwa Divisional Secretariat","logitiute":80.11307,"latitude":6.122217,"orig_fid":-1},"geometry":{"x":80.11307000000005,"y":6.1222170000000347}},{"attributes":{"objectid":397,"name":"ROMAN LAKE","address":"GODAGEDARA ROAD,PATHEGAMA,BALAPITIYA","rooms":8.0,"grade":"A","district":"Galle","aga_division":"Galle","ps_mc_uc":"Galle Divisional Secretariat","logitiute":80.047578,"latitude":6.296625,"orig_fid":-1},"geometry":{"x":80.047578000000044,"y":6.2966250000000628}},{"attributes":{"objectid":398,"name":"HOTEL WEDDING HOUSE HOLIDAY INN","address":"128/A , MAHABODI MAWATHA, KANDY ROAD, KADAWATHA","rooms":14.0,"grade":"B","district":"Gampaha","aga_division":"Mahara Pradeshiya Sabha","ps_mc_uc":"Gampaha Divisional Secretariat","logitiute":80.085438,"latitude":6.543719,"orig_fid":-1},"geometry":{"x":80.085438000000067,"y":6.5437190000000669}},{"attributes":{"objectid":399,"name":"BAY VISTA HOTEL","address":"NO:227,MAIN STREET,ARUGAMBAY,ULLA,POTTUVIL","rooms":31.0,"grade":"A","district":"Ampara","aga_division":"Pottuvil","ps_mc_uc":"Pottuvil Divisional Secretariat","logitiute":81.832278,"latitude":6.841696,"orig_fid":-1},"geometry":{"x":81.832278000000031,"y":6.8416960000000699}},{"attributes":{"objectid":400,"name":"MILANO GRAND NEW REST HOUSE","address":"50,KANDY ROAD,DAMBULLA","rooms":5.0,"grade":"A","district":"Matale","aga_division":"Chilaw Pradeshiya Sabha","ps_mc_uc":"Dambulla Divisional Secretariat","logitiute":80.653394,"latitude":7.886598,"orig_fid":-1},"geometry":{"x":80.653394000000048,"y":7.8865980000000491}},{"attributes":{"objectid":401,"name":"NEW RAMADHA GUEST HOUSE","address":"BATTICALOA ROAD, KADURUWELA.","rooms":18.0,"grade":"B","district":"Polonnaruwa","aga_division":"Tamankaduwa Pradeshiya Sabha","ps_mc_uc":"Thamankaduwa Divisional Secretariat","logitiute":81.02297,"latitude":7.938499,"orig_fid":-1},"geometry":{"x":81.022970000000043,"y":7.9384990000000357}},{"attributes":{"objectid":402,"name":"GAYA FAMILY RESORT","address":"NO 01,WALAW WATTA,MAWATHAGAMA","rooms":8.0,"grade":"B","district":"Kurunegala","aga_division":"Mawathagama Pradeshiya Sabha","ps_mc_uc":"Mawathagama Divisional Secretariat","logitiute":80.447656,"latitude":7.435825,"orig_fid":-1},"geometry":{"x":80.447656000000052,"y":7.4358250000000226}},{"attributes":{"objectid":403,"name":"GRINDLAYS REGENCY","address":"RANWALA ROAD,ALAWATTE,ALAWWA","rooms":16.0,"grade":"A","district":"Kegalle","aga_division":"WARAKAPOLA","ps_mc_uc":"Warakapola Divisional Secretariat","logitiute":80.243812,"latitude":7.291324,"orig_fid":-1},"geometry":{"x":80.243812000000048,"y":7.2913240000000314}},{"attributes":{"objectid":404,"name":"OMEEKA RESTAURANT AND HOTEL","address":"509/2A , SUSILARAMA ROAD, MALABE","rooms":5.0,"grade":"A","district":"Colombo","aga_division":"Colombo","ps_mc_uc":"Colombo Divisional Secretariat","logitiute":79.964911,"latitude":6.901956,"orig_fid":-1},"geometry":{"x":79.964911000000029,"y":6.9019560000000411}},{"attributes":{"objectid":405,"name":"SHINY LAKESIDE RESORT","address":"MARAGAHA HENA,PUNCHI PATHANA,HIKKADUWA","rooms":13.0,"grade":"A","district":"Galle","aga_division":"Hikkaduwa","ps_mc_uc":"Hikkaduwa Divisional Secretariat","logitiute":80.119331,"latitude":6.141849,"orig_fid":-1},"geometry":{"x":80.119331000000045,"y":6.1418490000000361}},{"attributes":{"objectid":406,"name":"SAMROSE HOTEL","address":"NO.83 POLHENA,MALLAWAGEDARA","rooms":5.0,"grade":"B","district":"Gampaha","aga_division":"Divulapitiya Pradeshiya Sabha","ps_mc_uc":"Divulapitiya Divisional Secretariat","logitiute":80.021706,"latitude":7.314503,"orig_fid":-1},"geometry":{"x":80.021706000000052,"y":7.3145030000000588}},{"attributes":{"objectid":407,"name":"KALUNDEWA RETREAT","address":"KALUNDEWA RETREAT, DAMBULU OYA, DAMBULLA","rooms":6.0,"grade":"A","district":"Matale","aga_division":"Dambulla Pradeshiya Sabha","ps_mc_uc":"Dambulla Divisional Secretariat","logitiute":80.678874,"latitude":7.798901,"orig_fid":-1},"geometry":{"x":80.678874000000064,"y":7.7989010000000576}},{"attributes":{"objectid":408,"name":"MELBOURNE TOURIST REST","address":"388/28, HARISCHANDRA MW, STAGE 1, ANURADHAPURA","rooms":10.0,"grade":"A","district":"Anuradhapura","aga_division":"Anuradhapura","ps_mc_uc":"Anuradhapura East","logitiute":80.41572,"latitude":8.331264,"orig_fid":-1},"geometry":{"x":80.415720000000078,"y":8.3312640000000329}},{"attributes":{"objectid":409,"name":"DICKMAN RESORT","address":"NO. 26/7, PORUTHOTA ROAD, NEGOMBO","rooms":10.0,"grade":"A","district":"Gampaha","aga_division":"Negombo","ps_mc_uc":"Negombo Divisional Secretariat","logitiute":79.843546,"latitude":7.240904,"orig_fid":-1},"geometry":{"x":79.84354600000006,"y":7.2409040000000573}},{"attributes":{"objectid":410,"name":"HOTEL LION NATURE","address":"DIMBULAMURAYA,ELLA ROAD,WELLAWAYA","rooms":7.0,"grade":"A","district":"Moneragala","aga_division":"Wellawaya","ps_mc_uc":"Moneragala Divisional Secretariat","logitiute":81.099745,"latitude":6.750513,"orig_fid":-1},"geometry":{"x":81.099745000000041,"y":6.750513000000069}},{"attributes":{"objectid":411,"name":"SERENE GRAND VILLA","address":"NO 38, RAJAPIHILLA MAWATHA, KANDY.","rooms":9.0,"grade":"A","district":"Kandy","aga_division":"Kandy","ps_mc_uc":"Kandy Divisional Secretariat","logitiute":80.641494,"latitude":7.286576,"orig_fid":-1},"geometry":{"x":80.64149400000008,"y":7.286576000000025}},{"attributes":{"objectid":412,"name":"ORIOLE VILLA","address":"324,WELLATOTA WATHTHA, KANAHINTOTA,BENTOTA","rooms":10.0,"grade":"A","district":"Galle","aga_division":"Galle","ps_mc_uc":"Benthota Divisional Secretariat","logitiute":80.047826,"latitude":6.388051,"orig_fid":-1},"geometry":{"x":80.047826000000043,"y":6.3880510000000754}},{"attributes":{"objectid":413,"name":"NORFOLK HERITAGE AIRPORT VILLA","address":"55, LION CITY, 5TH LANE, KATUNAYAKE.","rooms":5.0,"grade":"B","district":"Gampaha","aga_division":"Seeduwa","ps_mc_uc":"Katana Divisional Secretariat","logitiute":79.876476,"latitude":7.152263,"orig_fid":-1},"geometry":{"x":79.876476000000082,"y":7.1522630000000618}},{"attributes":{"objectid":414,"name":"THE SENARO HOLIDAY INN","address":"POLA PARA, 22 JUNCTION, JAYANTHIPURA, POLONNARUWA.","rooms":10.0,"grade":"A","district":"Polonnaruwa","aga_division":"Hingurakgoda Pradeshiya Sabha","ps_mc_uc":"Hingurakgoda Divisional Secretariat","logitiute":80.965229,"latitude":7.985676,"orig_fid":-1},"geometry":{"x":80.965229000000079,"y":7.9856760000000691}},{"attributes":{"objectid":415,"name":"ELEPHAS RESORT","address":"NO.47/B AUDANGAWA,KIMBISSA,SIGIRIYA.","rooms":16.0,"grade":"A","district":"Matale","aga_division":"Dambulla Pradeshiya Sabha","ps_mc_uc":"Dambulla Divisional Secretariat","logitiute":80.734719,"latitude":7.995286,"orig_fid":-1},"geometry":{"x":80.734719000000041,"y":7.9952860000000214}},{"attributes":{"objectid":416,"name":"U.S. HOTEL","address":"855,HOSPITAL ROAD,JAFFNA.","rooms":20.0,"grade":"A","district":"Jaffna","aga_division":"Jaffna","ps_mc_uc":"Jaffna Divisional Secretariat","logitiute":80.025328,"latitude":9.661277,"orig_fid":-1},"geometry":{"x":80.025328000000059,"y":9.661277000000041}},{"attributes":{"objectid":417,"name":"LANKA BEACH HOTEL","address":"NO.84/1, PALAGATHURE, KOCHCHIKADE.","rooms":15.0,"grade":"A","district":"Gampaha","aga_division":"Negombo","ps_mc_uc":"Negombo Divisional Secretariat","logitiute":79.842141,"latitude":7.2502,"orig_fid":-1},"geometry":{"x":79.842141000000083,"y":7.2502000000000635}},{"attributes":{"objectid":418,"name":"LAYA WAVES","address":"KALKUDAH,PASSIKUDAH.","rooms":8.0,"grade":"A","district":"Batticaloa","aga_division":"Batticaloa","ps_mc_uc":"Koralai Pattu Divisional Secretariat","logitiute":81.568172,"latitude":7.918173,"orig_fid":-1},"geometry":{"x":81.568172000000061,"y":7.9181730000000243}},{"attributes":{"objectid":419,"name":"SANOGA RESORT","address":"MORAGASWEWA, HABARANA","rooms":5.0,"grade":"B","district":"Polonnaruwa","aga_division":"Hingurakgoda Pradeshiya Sabha","ps_mc_uc":"Hingurakgoda Divisional Secretariat","logitiute":80.78126,"latitude":8.029151,"orig_fid":-1},"geometry":{"x":80.781260000000032,"y":8.0291510000000699}},{"attributes":{"objectid":420,"name":"KITE BEACH VILLAS","address":"KUDAWA,KANDAKULIYA,KALPITIYA.","rooms":8.0,"grade":"B","district":"Puttalam","aga_division":"Kalpitiya Pradeshiya Sabha","ps_mc_uc":"Kalpitiya Divisional Secretariat","logitiute":79.724361,"latitude":8.226058,"orig_fid":-1},"geometry":{"x":79.724361000000044,"y":8.2260580000000232}},{"attributes":{"objectid":421,"name":"MOUNT FIELD RESORT","address":"NO.166 KM POST, BADULLA ROAD, HALPE, BELIHULOYA.","rooms":21.0,"grade":"A","district":"Ratnapura","aga_division":"Balangoda","ps_mc_uc":"Imbulpe Divisional Secretariat","logitiute":80.825858,"latitude":6.737361,"orig_fid":-1},"geometry":{"x":80.825858000000039,"y":6.7373610000000212}},{"attributes":{"objectid":422,"name":"PEARL RICH HOTEL & BANQUET HALL","address":"NO.727,COLOMBO ROAD,KADUGANNAWA","rooms":5.0,"grade":"B","district":"Kandy","aga_division":"Yatinuwara Pradeshiya Sabha","ps_mc_uc":"Yatinuwara Divisional Secretariat","logitiute":80.535768,"latitude":7.261431,"orig_fid":-1},"geometry":{"x":80.535768000000076,"y":7.2614310000000728}},{"attributes":{"objectid":423,"name":"TRINCO BEACH HOTEL","address":"328, DYKE STREET, TRINCOMALEE","rooms":10.0,"grade":"A","district":"Trincomalee","aga_division":"Trincomalee","ps_mc_uc":"Trincomalee Divisional Secretariat","logitiute":81.238617,"latitude":8.567845,"orig_fid":-1},"geometry":{"x":81.238617000000033,"y":8.5678450000000339}},{"attributes":{"objectid":424,"name":"RG'S DAWN AND DUSK","address":"NO.35,37,JAYA ROAD,COLOMBO 04","rooms":9.0,"grade":"A","district":"Colombo","aga_division":"Colombo","ps_mc_uc":"Colombo Divisional Secretariat","logitiute":79.854959,"latitude":6.886227,"orig_fid":-1},"geometry":{"x":79.854959000000065,"y":6.8862270000000763}},{"attributes":{"objectid":425,"name":"SERENE KINGS VILLA","address":"NO.17,UDAPUSSELLA ROAD,NUWARAELIYA.","rooms":9.0,"grade":"A","district":"Nuwara Eliya","aga_division":"Nuwara Eliya","ps_mc_uc":"Nuwara Eliya Divisional Secretariat","logitiute":80.771035,"latitude":6.966501,"orig_fid":-1},"geometry":{"x":80.77103500000004,"y":6.9665010000000507}},{"attributes":{"objectid":426,"name":"SARAII","address":"RANDUNU KELLE WATTE,WEERAWILA,HAMBANTOTA.","rooms":14.0,"grade":"B","district":"Hambantota","aga_division":"Thissamaharama","ps_mc_uc":"Thissamaharama Divisional Secretariat","logitiute":81.228932,"latitude":6.267036,"orig_fid":-1},"geometry":{"x":81.228932000000043,"y":6.2670360000000755}},{"attributes":{"objectid":427,"name":"ZYLAN LUXURY VILLA.","address":"NO.115,ROSMEAD PLACE,COLOMBO 07.","rooms":8.0,"grade":"A","district":"Colombo","aga_division":"Colombo","ps_mc_uc":"Colombo Divisional Secretariat","logitiute":79.874004,"latitude":6.914302,"orig_fid":-1},"geometry":{"x":79.87400400000007,"y":6.9143020000000206}},{"attributes":{"objectid":428,"name":"THE NATURE TRAILS.","address":"NO.144 B,MATARA ROAD,UNAWATUNA.","rooms":7.0,"grade":"A","district":"Galle","aga_division":"Habaraduwa","ps_mc_uc":"Habaraduwa Divisional Secretariat","logitiute":80.248002,"latitude":6.018463,"orig_fid":-1},"geometry":{"x":80.248002000000042,"y":6.0184630000000539}},{"attributes":{"objectid":429,"name":"SKY PAVILION","address":"NO:102/123,HEVAHETA ROAD,KANDY","rooms":5.0,"grade":"A","district":"Kandy","aga_division":"Kandy","ps_mc_uc":"Kandy Divisional Secretariat","logitiute":80.654608,"latitude":7.289745,"orig_fid":-1},"geometry":{"x":80.654608000000053,"y":7.289745000000039}},{"attributes":{"objectid":430,"name":"MOSVOLD VILLA","address":"38,WALHENGODA,AHANGAMA","rooms":8.0,"grade":"A","district":"Galle","aga_division":"Galle","ps_mc_uc":"Galle Divisional Secretariat","logitiute":80.35341,"latitude":5.976347,"orig_fid":-1},"geometry":{"x":80.353410000000054,"y":5.9763470000000325}},{"attributes":{"objectid":431,"name":"GIMAN FREE BEACH RESORT","address":"KEERIKUDA,KAYANKERNI, NORTH PASSIKUDAH.","rooms":14.0,"grade":"A","district":"Batticaloa","aga_division":"Batticaloa","ps_mc_uc":"Koralai Pattu Divisional Secretariat","logitiute":81.54014,"latitude":7.986431,"orig_fid":-1},"geometry":{"x":81.540140000000065,"y":7.9864310000000387}},{"attributes":{"objectid":432,"name":"THE SPICE TRAIL","address":"69TH, MILE POST, ARUGAMBAY, POTTUWIL","rooms":5.0,"grade":"B","district":"Ampara","aga_division":"Pottuvil","ps_mc_uc":"Pottuvil Divisional Secretariat","logitiute":81.831108,"latitude":6.848832,"orig_fid":-1},"geometry":{"x":81.831108000000086,"y":6.8488320000000726}},{"attributes":{"objectid":433,"name":"BIRDS PARK","address":"WADAWA, WADAKADA, POLGAHAWELA","rooms":6.0,"grade":"B","district":"Kurunegala","aga_division":"Alawwa Pradeshiya Sabha","ps_mc_uc":"Alawwa Divisional Secretariat","logitiute":80.259805,"latitude":7.38372,"orig_fid":-1},"geometry":{"x":80.259805000000085,"y":7.3837200000000394}},{"attributes":{"objectid":434,"name":"THEJAN BEACH CABANAS","address":"GALLE ROAD, YALEGAHA, INDURUWA","rooms":5.0,"grade":"A","district":"Galle","aga_division":"Bentota Pradeshiya Sabha","ps_mc_uc":"Benthota Divisional Secretariat","logitiute":80.0096,"latitude":6.381882,"orig_fid":-1},"geometry":{"x":80.009600000000034,"y":6.3818820000000755}},{"attributes":{"objectid":435,"name":"SENMIL HOLIDAY INN","address":"NIWASA PEDESA, LAXAPANA","rooms":7.0,"grade":"B","district":"Nuwara Eliya","aga_division":"Ginigathhena","ps_mc_uc":"Ambagamuwa Divisional Secretariat","logitiute":80.489062,"latitude":6.925742,"orig_fid":-1},"geometry":{"x":80.489062000000047,"y":6.9257420000000707}},{"attributes":{"objectid":436,"name":"MUDUNA WALAWWA RESORT","address":"NO.451, SRIMATH KUDARATHWATTA MAWATHA, KANDY","rooms":10.0,"grade":"A","district":"Kandy","aga_division":"Kandy","ps_mc_uc":"GANGAWATA KORALAYA","logitiute":80.616018,"latitude":7.29102,"orig_fid":-1},"geometry":{"x":80.616018000000054,"y":7.29102000000006}},{"attributes":{"objectid":437,"name":"ATHULYA VILLAS","address":"PANABOKKE,GANHATA ROAD,WATTAPPOLA.","rooms":8.0,"grade":"A","district":"Kandy","aga_division":"Udunuwara Pradeshiya Sabha","ps_mc_uc":"Udunuwara Divisional Secretariat","logitiute":80.547491,"latitude":7.225436,"orig_fid":-1},"geometry":{"x":80.547491000000036,"y":7.2254360000000588}},{"attributes":{"objectid":438,"name":"MAYA HOUSE","address":"MAYA HOUSE. \"OLD HOUSE\",ARANWELA,BELIATTA.","rooms":5.0,"grade":"A","district":"Hambantota","aga_division":"Hambantota","ps_mc_uc":"Beliatta Divisional Secretariat","logitiute":80.7562,"latitude":6.04275,"orig_fid":-1},"geometry":{"x":80.756200000000035,"y":6.0427500000000691}},{"attributes":{"objectid":439,"name":"CEYLON TEA TRAILS","address":"DUNKELD BUNGALOW, DUNKELD ESTATE, DICKOYA","rooms":5.0,"grade":"A","district":"Nuwara Eliya","aga_division":"Ambagamuwa Pradeshiya Sabha","ps_mc_uc":"Ambagamuwa Divisional Secretariat","logitiute":80.604018,"latitude":6.834525,"orig_fid":-1},"geometry":{"x":80.604018000000053,"y":6.8345250000000419}},{"attributes":{"objectid":440,"name":"LEIJAY RESORT","address":"NO :43,NEW LANE,MADAWALAMULLA,GALLE.","rooms":14.0,"grade":"B","district":"Galle","aga_division":"Galle","ps_mc_uc":"Galle Divisional Secretariat","logitiute":80.214118,"latitude":6.060452,"orig_fid":-1},"geometry":{"x":80.214118000000042,"y":6.0604520000000548}},{"attributes":{"objectid":441,"name":"VILLA VIANA","address":"64 A/1,MODARAWELLA,MARAWILA.","rooms":8.0,"grade":"B","district":"Puttalam","aga_division":"Puttalam Pradeshiya Sabha","ps_mc_uc":"Puttalam Divisional Secretariat","logitiute":79.81374,"latitude":7.424294,"orig_fid":-1},"geometry":{"x":79.813740000000053,"y":7.4242940000000317}},{"attributes":{"objectid":442,"name":"HANGTIME","address":"540, WALIGAMA BYOASS ROAD, WELIGAMA","rooms":8.0,"grade":"B","district":"Matara","aga_division":"Matara","ps_mc_uc":"Matara Divisional Secretariat","logitiute":80.434862,"latitude":5.972947,"orig_fid":-1},"geometry":{"x":80.434862000000066,"y":5.9729470000000333}},{"attributes":{"objectid":443,"name":"RIDEE VILLA","address":"NO 321,PEELAGODA,UNAWATUNA.","rooms":14.0,"grade":"A","district":"Galle","aga_division":"Habaraduwa","ps_mc_uc":"Habaraduwa Divisional Secretariat","logitiute":80.2506822,"latitude":6.009911,"orig_fid":-1},"geometry":{"x":80.250682200000085,"y":6.0099110000000451}},{"attributes":{"objectid":444,"name":"VALLEE 69 ECO LEISURE","address":"237, WELIARAGODA, TISSAMAHARAMA","rooms":5.0,"grade":"A","district":"Hambantota","aga_division":"Thissamaharama","ps_mc_uc":"Thissamaharama Divisional Secretariat","logitiute":81.299924,"latitude":6.289983,"orig_fid":-1},"geometry":{"x":81.299924000000033,"y":6.2899830000000634}},{"attributes":{"objectid":445,"name":"ELLA FLOWER GARDEN AND RESORT","address":"THIRD MILE POST, PASSARA ROAD, ELLA","rooms":14.0,"grade":"B","district":"Badulla","aga_division":"Ella Pradeshiya Sabha","ps_mc_uc":"Ella Divisional Secretariat","logitiute":81.056488,"latitude":6.870921,"orig_fid":-1},"geometry":{"x":81.056488000000058,"y":6.8709210000000667}},{"attributes":{"objectid":446,"name":"HOTEL CHATHUNA","address":"167, BAR ROAD, BATTICALOA","rooms":12.0,"grade":"B","district":"Batticaloa","aga_division":"Batticaloa","ps_mc_uc":"Batticaloa Divisional Secretariat","logitiute":81.699582,"latitude":7.727078,"orig_fid":-1},"geometry":{"x":81.699582000000078,"y":7.7270780000000627}},{"attributes":{"objectid":447,"name":"ROCK SIDE CABANAS","address":"668, MATARA ROAD, MIHIRIPENNA, TALPE","rooms":9.0,"grade":"A","district":"Galle","aga_division":"Habaraduwa","ps_mc_uc":"Habaraduwa Divisional Secretariat","logitiute":80.2648795,"latitude":5.9997549,"orig_fid":-1},"geometry":{"x":80.264879500000063,"y":5.9997549000000276}},{"attributes":{"objectid":448,"name":"FOUR TEESS REST INN","address":"STATION ROAD,THODDAVELI,ERUKKALAMPITY,MANNAR.","rooms":12.0,"grade":"B","district":"Mannar","aga_division":"Mannar","ps_mc_uc":"Mannar Town","logitiute":79.866652,"latitude":9.025378,"orig_fid":-1},"geometry":{"x":79.866652000000045,"y":9.0253780000000461}},{"attributes":{"objectid":449,"name":"RESORT LIKE NO OTHER","address":"NO 410, LALITH KULASEKARA MAWATHA,UKGALBODA, GAMPAHA","rooms":9.0,"grade":"A","district":"Gampaha","aga_division":"Minuwangoda Pradeshiya Sabha","ps_mc_uc":"Minuwangoda Divisional Secretariat","logitiute":79.951184,"latitude":7.13904,"orig_fid":-1},"geometry":{"x":79.951184000000069,"y":7.1390400000000227}},{"attributes":{"objectid":450,"name":"HOSANNA KITE BEACH RESORT","address":"KUDAWA, KANDAKULIYA, KALPITIYA","rooms":9.0,"grade":"C","district":"Puttalam","aga_division":"Kalpitiya Pradeshiya Sabha","ps_mc_uc":"Kalpitiya Divisional Secretariat","logitiute":79.725885,"latitude":8.225591,"orig_fid":-1},"geometry":{"x":79.725885000000062,"y":8.2255910000000654}},{"attributes":{"objectid":451,"name":"GIMDULA HOTEL & RESTAURNT","address":"NO. 17/7, SAMIDHU MAWATHA, PAMUNUWILA, GONAWALA","rooms":23.0,"grade":"A","district":"Gampaha","aga_division":"Biyagama Pradeshiya Sabha","ps_mc_uc":"Biyagama Divisional Secretariat","logitiute":79.926401,"latitude":6.969543,"orig_fid":-1},"geometry":{"x":79.926401000000055,"y":6.9695430000000442}},{"attributes":{"objectid":452,"name":"THE PEARL GUEST HOUSE","address":"NO13,PORUTOTA ROAD,ETHTHUKALA,NEGAMBO.","rooms":6.0,"grade":"B","district":"Gampaha","aga_division":"Negombo","ps_mc_uc":"Katana Divisional Secretariat","logitiute":79.8684713,"latitude":7.159232,"orig_fid":-1},"geometry":{"x":79.868471300000067,"y":7.1592320000000313}},{"attributes":{"objectid":453,"name":"BLUE LOTUS GARDEN","address":"NO. 54 B, GORAKAPITIYA, PILIYANDALA","rooms":10.0,"grade":"B","district":"Colombo","aga_division":"Kesbewa","ps_mc_uc":"Kesbewa Divisional Secretariat","logitiute":79.949708,"latitude":6.817221,"orig_fid":-1},"geometry":{"x":79.949708000000044,"y":6.8172210000000746}},{"attributes":{"objectid":454,"name":"DREAM GARDEN","address":"WHISKEY POINT, KODDUKAL, URANI, POTTUVIL","rooms":10.0,"grade":"A","district":"Ampara","aga_division":"Pottuvil","ps_mc_uc":"Pottuvil Divisional Secretariat","logitiute":81.843111,"latitude":6.902049,"orig_fid":-1},"geometry":{"x":81.843111000000079,"y":6.9020490000000336}},{"attributes":{"objectid":455,"name":"VILLA MAHAKANDA","address":"428, MAHAKANDA, HINDAGALA, PERADENIYA","rooms":6.0,"grade":"A","district":"Kandy","aga_division":"Gagawata Koralya","ps_mc_uc":"Gagawata","logitiute":80.61347,"latitude":7.223908,"orig_fid":-1},"geometry":{"x":80.613470000000063,"y":7.2239080000000513}},{"attributes":{"objectid":456,"name":"WE ESCAPE","address":"637, GALLE MATARA ROAD, PELENA","rooms":11.0,"grade":"A","district":"Matara","aga_division":"Weligama Pradeshiya Sabha","ps_mc_uc":"Weligama Divisional Secretariat","logitiute":80.438673,"latitude":5.974177,"orig_fid":-1},"geometry":{"x":80.438673000000051,"y":5.9741770000000542}},{"attributes":{"objectid":457,"name":"DANADHEE JUNGLE REST","address":"PARAGALA, KURUWITA, THOPPIAHENA WATTA","rooms":12.0,"grade":"A","district":"Ratnapura","aga_division":"MC","ps_mc_uc":"Kuruvita Divisional Secretariat","logitiute":80.396707,"latitude":6.766477,"orig_fid":-1},"geometry":{"x":80.396707000000049,"y":6.7664770000000658}},{"attributes":{"objectid":458,"name":"BENTHOTA HIGHRICH RIVER VIEW RESORT","address":"NO 97, RIVERSIDE ROAD, ALUTHGAMA","rooms":6.0,"grade":"B","district":"Kalutara","aga_division":"Aluthgama","ps_mc_uc":"Beruwala Divisional Secretariat","logitiute":79.996745,"latitude":6.432034,"orig_fid":-1},"geometry":{"x":79.996745000000033,"y":6.4320340000000442}},{"attributes":{"objectid":459,"name":"MASTODON VALLEY SAFARI RESORT","address":"NO 16, KUMUDU, THANAMALVILA ROAD, UDAWALAWA","rooms":8.0,"grade":"B","district":"Ratnapura","aga_division":"Udawalawa","ps_mc_uc":"Embilipitiya Divisional Secretariat","logitiute":80.808748,"latitude":6.419872,"orig_fid":-1},"geometry":{"x":80.808748000000037,"y":6.4198720000000549}},{"attributes":{"objectid":460,"name":"PAPERMOON KUDILS","address":"KANAGAR VILLAGE, URANI, POTTUVIL 25","rooms":20.0,"grade":"B","district":"Ampara","aga_division":"Pottuvil","ps_mc_uc":"Pottuvil Divisional Secretariat","logitiute":81.843322,"latitude":6.908028,"orig_fid":-1},"geometry":{"x":81.843322000000057,"y":6.9080280000000585}},{"attributes":{"objectid":461,"name":"OSHADEE RIVER SIDE HOTEL","address":"BALAWINNA, PALLEBADDA","rooms":9.0,"grade":"B","district":"Ratnapura","aga_division":"Ratnapura","ps_mc_uc":"Godakawela Divisional Secretariat","logitiute":80.6910768,"latitude":6.4831592,"orig_fid":-1},"geometry":{"x":80.691076800000076,"y":6.4831592000000455}},{"attributes":{"objectid":462,"name":"SEA SIDE TERRACE","address":"22/2, HOLY CROSS AVENUE, MORATUWA","rooms":10.0,"grade":"B","district":"Colombo","aga_division":"Moratuwa","ps_mc_uc":"Moratuwa Divisional Secretariat","logitiute":79.878547,"latitude":6.77857,"orig_fid":-1},"geometry":{"x":79.878547000000083,"y":6.7785700000000588}},{"attributes":{"objectid":463,"name":"C NEGOMBO","address":"NO: 47, PORUTHOTA ROAD, KOCHCHIKADE","rooms":9.0,"grade":"B","district":"Gampaha","aga_division":"Negombo","ps_mc_uc":"Negombo Divisional Secretariat","logitiute":79.857377,"latitude":7.265322,"orig_fid":-1},"geometry":{"x":79.857377000000042,"y":7.265322000000026}},{"attributes":{"objectid":464,"name":"CULTURE RESORT","address":"24, BEACH ROAD, POLHENA, MATARA","rooms":8.0,"grade":"A","district":"Matara","aga_division":"Matara","ps_mc_uc":"Matara Divisional Secretariat","logitiute":80.52699,"latitude":5.936771,"orig_fid":-1},"geometry":{"x":80.526990000000069,"y":5.9367710000000216}},{"attributes":{"objectid":465,"name":"DUWS WHITE HOUSE","address":"37/4, BEACH ROAD, MOUNT LAVINIA","rooms":10.0,"grade":"A","district":"Colombo","aga_division":"Dehiwala-Mount Lavinia","ps_mc_uc":"Dehiwala Divisional Secretariat","logitiute":79.864697,"latitude":6.842611,"orig_fid":-1},"geometry":{"x":79.864697000000035,"y":6.8426110000000335}},{"attributes":{"objectid":466,"name":"HOTEL EURO LANKA","address":"29, MILAGIRIYA AVENUE, (MARINE DRIVE), COLOMBO 04","rooms":35.0,"grade":"A","district":"Colombo","aga_division":"Colombo","ps_mc_uc":"Colombo Divisional Secretariat","logitiute":79.854286,"latitude":6.888464,"orig_fid":-1},"geometry":{"x":79.854286000000059,"y":6.8884640000000559}},{"attributes":{"objectid":467,"name":"THE VILLA DREAM HOLIDAYS","address":"NO 121,GIRIULLA ROAD,KANDAWALA,KATANA","rooms":11.0,"grade":"A","district":"Gampaha","aga_division":"Katana Pradeshiya Sabha","ps_mc_uc":"Katana Divisional Secretariat","logitiute":79.894835,"latitude":7.243119,"orig_fid":-1},"geometry":{"x":79.894835000000057,"y":7.2431190000000356}},{"attributes":{"objectid":468,"name":"CEYBANK REST NUWARA-ELIYA","address":"BADULLA ROAD,NUWARA-ELIYA","rooms":19.0,"grade":"A","district":"Nuwara Eliya","aga_division":"Nuwara Eliya","ps_mc_uc":"Nuwara Eliya Divisional Secretariat","logitiute":80.766646,"latitude":6.965541,"orig_fid":-1},"geometry":{"x":80.766646000000037,"y":6.9655410000000302}},{"attributes":{"objectid":469,"name":"BOUGAINVILLEA RETREAT","address":"VICTORIA GOLF & COUNTRY RETREAT,RAJAWELLA,KANDY","rooms":19.0,"grade":"A","district":"Kandy","aga_division":"Kandy","ps_mc_uc":"Kandy Divisional Secretariat","logitiute":80.775652,"latitude":7.266985,"orig_fid":-1},"geometry":{"x":80.775652000000036,"y":7.2669850000000338}},{"attributes":{"objectid":470,"name":"SORABORA VILLAGE INN","address":"SORABORA WEWA ROAD,MAHIYANGANAYA","rooms":18.0,"grade":"B","district":"Badulla","aga_division":"Mahiyanganaya Pradeshiya Sabha","ps_mc_uc":"Badulla Divisional Secretariat","logitiute":80.996546,"latitude":7.346332,"orig_fid":-1},"geometry":{"x":80.99654600000008,"y":7.3463320000000749}},{"attributes":{"objectid":471,"name":"KIRINDA BEACH RESORT","address":"BEACH ROAD, NIDANGALAWELLA, KIRINDA, YALA","rooms":23.0,"grade":"A","district":"Hambantota","aga_division":"Hambantota","ps_mc_uc":"Thissamaharama Divisional Secretariat","logitiute":81.325393,"latitude":6.206688,"orig_fid":-1},"geometry":{"x":81.325393000000076,"y":6.2066880000000424}},{"attributes":{"objectid":472,"name":"KK BEACH","address":"MATARA ROAD, HABARADUWA, GALLE.","rooms":6.0,"grade":"A","district":"Galle","aga_division":"Habaraduwa","ps_mc_uc":"Habaraduwa Divisional Secretariat","logitiute":80.30158,"latitude":5.994056,"orig_fid":-1},"geometry":{"x":80.301580000000058,"y":5.9940560000000573}},{"attributes":{"objectid":473,"name":"TRIPLE O SIX","address":"P.O.BOX 0006,BANDARAMULLA,MIRISSA.","rooms":21.0,"grade":"A","district":"Matara","aga_division":"Weligama Pradeshiya Sabha","ps_mc_uc":"Weligama Divisional Secretariat","logitiute":80.469336,"latitude":5.941095,"orig_fid":-1},"geometry":{"x":80.469336000000055,"y":5.9410950000000753}},{"attributes":{"objectid":474,"name":"SEVEN ELEVEN HOTEL AND RESTAURANT","address":"154/1,,MININDU MAWATHA,,KESBEWA","rooms":14.0,"grade":"A","district":"Colombo","aga_division":"Kesbewa","ps_mc_uc":"Kesbewa Divisional Secretariat","logitiute":79.940843,"latitude":6.797702,"orig_fid":-1},"geometry":{"x":79.940843000000029,"y":6.7977020000000721}},{"attributes":{"objectid":475,"name":"CEYLON SEA HOTEL","address":"NO-26 , VIJAYA ROAD,MEDAKETIYA,TANGALLE","rooms":18.0,"grade":"A","district":"Hambantota","aga_division":"Tangalle Pradeshiya Sabha","ps_mc_uc":"Tangalle Divisional Secretariat","logitiute":80.799174,"latitude":6.032124,"orig_fid":-1},"geometry":{"x":80.79917400000005,"y":6.0321240000000671}},{"attributes":{"objectid":476,"name":"BALAJI OCEAN VIEW","address":"MAIN STREET,ARUGAMBAY,POTTUVIL.","rooms":20.0,"grade":"A","district":"Ampara","aga_division":"Pottuvil","ps_mc_uc":"Pottuvil Divisional Secretariat","logitiute":81.832381,"latitude":6.839237,"orig_fid":-1},"geometry":{"x":81.832381000000055,"y":6.8392370000000255}},{"attributes":{"objectid":477,"name":"BLUE WHALE BEACH RESORT","address":"KANDAKULIYA,KALPITIYA.","rooms":15.0,"grade":"A","district":"Puttalam","aga_division":"Kalpitiya Pradeshiya Sabha","ps_mc_uc":"Kalpitiya Divisional Secretariat","logitiute":79.7124594,"latitude":8.2150047,"orig_fid":-1},"geometry":{"x":79.712459400000057,"y":8.2150047000000654}},{"attributes":{"objectid":478,"name":"SAPPHIRE SEAS HOTEL","address":"SAPPHIRE SEAS HOTEL,GALLE ROAD, PATUWATHA, DODANDUWA,HIKKADUWA","rooms":11.0,"grade":"A","district":"Galle","aga_division":"Hikkaduwa","ps_mc_uc":"Hikkaduwa Divisional Secretariat","logitiute":80.121175,"latitude":6.116151,"orig_fid":-1},"geometry":{"x":80.121175000000051,"y":6.116151000000059}},{"attributes":{"objectid":479,"name":"SERENDIPITALY HOTEL","address":"37,GALLE ROAD,AKURALA, AMBALANGODA","rooms":5.0,"grade":"A","district":"Galle","aga_division":"Ambalangoda","ps_mc_uc":"Ambalangoda Divisional Secretariat","logitiute":80.0606851,"latitude":6.196545,"orig_fid":-1},"geometry":{"x":80.060685100000057,"y":6.1965450000000715}},{"attributes":{"objectid":480,"name":"RANDILI HOTEL","address":"8 TH CROSS STREET,BORUPANA,RATMALANA","rooms":26.0,"grade":"A","district":"Colombo","aga_division":"Colombo","ps_mc_uc":"Colombo Divisional Secretariat","logitiute":79.894521,"latitude":6.818073,"orig_fid":-1},"geometry":{"x":79.894521000000054,"y":6.8180730000000267}},{"attributes":{"objectid":481,"name":"THOTUPOLA WILD HOLIDAYS","address":"NO 70, DELTHARA, PILIYANDALA","rooms":11.0,"grade":"A","district":"Colombo","aga_division":"Kesbewa","ps_mc_uc":"Kesbewa Divisional Secretariat","logitiute":79.939545,"latitude":6.803543,"orig_fid":-1},"geometry":{"x":79.939545000000066,"y":6.8035430000000474}},{"attributes":{"objectid":482,"name":"SANTANI","address":"ARATENNA ESTATE,WERAPITIYA,THELDENIYA,KANDY.","rooms":20.0,"grade":"A","district":"Kandy","aga_division":"Kandy","ps_mc_uc":"Medadumbara Divisional Secretariat","logitiute":80.7381408,"latitude":7.3577013,"orig_fid":-1},"geometry":{"x":80.738140800000053,"y":7.3577013000000306}},{"attributes":{"objectid":483,"name":"AIRPORT CITY HUB HOTEL","address":"NO 3/C, GANGARAMA ROAD, KOVINNA, ADIAMBALAMA. KATUNAYAKE","rooms":22.0,"grade":"A","district":"Gampaha","aga_division":"Katana Pradeshiya Sabha","ps_mc_uc":"Katana Divisional Secretariat","logitiute":79.899317,"latitude":7.179248,"orig_fid":-1},"geometry":{"x":79.899317000000053,"y":7.1792480000000296}},{"attributes":{"objectid":484,"name":"OASEY HOTEL AND REATAURANT","address":"OASEY HOTEL RESTAURANT , GALBADA, INDURUWA.","rooms":18.0,"grade":"A","district":"Galle","aga_division":"Bentota Pradeshiya Sabha","ps_mc_uc":"Benthota Divisional Secretariat","logitiute":80.0057502,"latitude":6.3870994,"orig_fid":-1},"geometry":{"x":80.00575020000008,"y":6.3870994000000678}},{"attributes":{"objectid":485,"name":"TERRACE GREEN HOTEL","address":"11/A ST. JUDE MAWATHA,ETTUKALA,NEGOMBO","rooms":10.0,"grade":"A","district":"Gampaha","aga_division":"Negombo","ps_mc_uc":"Negombo Divisional Secretariat","logitiute":79.842909,"latitude":7.23766,"orig_fid":-1},"geometry":{"x":79.842909000000077,"y":7.2376600000000622}},{"attributes":{"objectid":486,"name":"SANDRIANA LAKE VIEW","address":"NO: 09,,KEERTHI SRI RAJASINGHA MAWATHA,KANDY","rooms":15.0,"grade":"A","district":"Kandy","aga_division":"Kandy","ps_mc_uc":"Kandy Divisional Secretariat","logitiute":80.6368268,"latitude":7.2881025,"orig_fid":-1},"geometry":{"x":80.636826800000051,"y":7.2881025000000363}},{"attributes":{"objectid":487,"name":"FROZEN VILLA","address":"FROZEN VILLA,RATHNAPURA ROAD,UDAGAMA, EMBILIPITIYA","rooms":12.0,"grade":"A","district":"Ratnapura","aga_division":"Embilipitiya","ps_mc_uc":"Embilipitiya Divisional Secretariat","logitiute":80.841212,"latitude":6.34133,"orig_fid":-1},"geometry":{"x":80.841212000000041,"y":6.3413300000000277}},{"attributes":{"objectid":488,"name":"HOTEL CLARION","address":"NO 103, KANDY ROAD, KIRIBATHGODA","rooms":31.0,"grade":"A","district":"Gampaha","aga_division":"Kelaniya Pradeshiya Sabha","ps_mc_uc":"Gampaha Divisional Secretariat","logitiute":79.9305473,"latitude":6.983531,"orig_fid":-1},"geometry":{"x":79.930547300000057,"y":6.9835310000000277}},{"attributes":{"objectid":489,"name":"LUSH LIFE VILLA","address":"TEMPLE ROAD,MEEPAWALA,PODDALA,GALLE.","rooms":11.0,"grade":"A","district":"Galle","aga_division":"Bope","ps_mc_uc":"Bope-Poddala Divisional Secretariat","logitiute":80.215636,"latitude":6.113541,"orig_fid":-1},"geometry":{"x":80.215636000000075,"y":6.1135410000000547}},{"attributes":{"objectid":490,"name":"MOUNT BREEZE HOTEL","address":"22/5A,OFF DE SERAM ROAD,MT.LAVINIYA","rooms":24.0,"grade":"A","district":"Colombo","aga_division":"Moratuwa","ps_mc_uc":"Moratuwa Divisional Secretariat","logitiute":79.8610934,"latitude":6.8405724,"orig_fid":-1},"geometry":{"x":79.861093400000073,"y":6.8405724000000419}},{"attributes":{"objectid":491,"name":"ARUGAMBAY ROCCOS","address":"MAIN SRTEET,ARUGAMBAY,POTTUVIL.","rooms":22.0,"grade":"B","district":"Ampara","aga_division":"Pottuvil","ps_mc_uc":"Pottuvil Divisional Secretariat","logitiute":81.8289763,"latitude":6.844204,"orig_fid":-1},"geometry":{"x":81.828976300000079,"y":6.8442040000000475}},{"attributes":{"objectid":492,"name":"MAOYA RETREAT HOTEL","address":"PINNAWALA RIVER RANGE(BANGALA WATHTHA),ANDIRIMADA,HIRIWADUNNA,KEGALLE","rooms":17.0,"grade":"A","district":"Kegalle","aga_division":"Rambukkana Pradeshiya Sabha","ps_mc_uc":"Rambukkana Divisional Secretariat","logitiute":80.3796686,"latitude":7.3013359,"orig_fid":-1},"geometry":{"x":80.379668600000059,"y":7.3013359000000264}},{"attributes":{"objectid":493,"name":"CEYLON CITY HOTEL","address":"NO. 11,UPATISSA ROAD,COLOMBO 04","rooms":37.0,"grade":"A","district":"Colombo","aga_division":"Colombo","ps_mc_uc":"Colombo Divisional Secretariat","logitiute":79.853899,"latitude":6.8897357,"orig_fid":-1},"geometry":{"x":79.853899000000069,"y":6.8897357000000738}},{"attributes":{"objectid":494,"name":"WEWA ADDARA","address":"NO.54, KAYANWALA, SIGIRIYA,,","rooms":28.0,"grade":"B","district":"Matale","aga_division":"Dambulla Pradeshiya Sabha","ps_mc_uc":"Dambulla Divisional Secretariat","logitiute":80.755848,"latitude":7.939453,"orig_fid":-1},"geometry":{"x":80.755848000000071,"y":7.9394530000000714}},{"attributes":{"objectid":495,"name":"KUMU BEACH","address":"670/5, DALLE ROAD, WELAGEDARA,BALAPITIYA, GALLE","rooms":10.0,"grade":"A","district":"Galle","aga_division":"balapitiya","ps_mc_uc":"Ambalangoda Divisional Secretariat","logitiute":80.04036,"latitude":6.278716,"orig_fid":-1},"geometry":{"x":80.040360000000078,"y":6.2787160000000313}},{"attributes":{"objectid":496,"name":"CAMELLIA HILLS","address":"WILLIAM BUNGALOW,DICKOYA,HATTON, NUWARA ELIYA","rooms":5.0,"grade":"A","district":"Nuwara Eliya","aga_division":"Ginigathhena","ps_mc_uc":"Nuwara Eliya Divisional Secretariat","logitiute":80.5693959,"latitude":6.8610278,"orig_fid":-1},"geometry":{"x":80.569395900000075,"y":6.8610278000000449}}]}