{"displayFieldName":"name","fieldAliases":{"objectid":"objectid","name":"name","address":"address","rooms":"rooms","grade":"grade","district":"district","aga_division":"AGA Division","ps_mc_uc":"PS/MC/UC","logitiute":"logitiute","latitude":"latitude","orig_fid":"orig_fid"},"geometryType":"esriGeometryPoint","spatialReference":{"wkid":4326,"latestWkid":4326},"fields":[{"name":"objectid","type":"esriFieldTypeOID","alias":"objectid"},{"name":"name","type":"esriFieldTypeString","alias":"name","length":255},{"name":"address","type":"esriFieldTypeString","alias":"address","length":255},{"name":"rooms","type":"esriFieldTypeDouble","alias":"rooms"},{"name":"grade","type":"esriFieldTypeString","alias":"grade","length":255},{"name":"district","type":"esriFieldTypeString","alias":"district","length":255},{"name":"aga_division","type":"esriFieldTypeString","alias":"AGA Division","length":255},{"name":"ps_mc_uc","type":"esriFieldTypeString","alias":"PS/MC/UC","length":255},{"name":"logitiute","type":"esriFieldTypeDouble","alias":"logitiute"},{"name":"latitude","type":"esriFieldTypeDouble","alias":"latitude"},{"name":"orig_fid","type":"esriFieldTypeInteger","alias":"orig_fid"}],"features":[{"attributes":{"objectid":1,"name":"HOLIDAY NEST","address":"20/1A, 3RD LANE,DALADAWATTA ROAD, THALPITIYA,WADDUWA","rooms":4.0,"grade":"SUPERIOR","district":"Kalutara","aga_division":"Panadura Pradeshiya Sabha","ps_mc_uc":"Panadura Divisional Secretariat","logitiute":79.926281,"latitude":6.675791,"orig_fid":-1},"geometry":{"x":79.926281000000074,"y":6.6757910000000606}},{"attributes":{"objectid":2,"name":"AURORA","address":"9/8, 1/1, DE SARAM ROAD, MOUNT LAVINIA.","rooms":7.0,"grade":"SUPERIOR","district":"Colombo","aga_division":"Dehiwala-Mount Lavinia","ps_mc_uc":"Ratmalana Divisional Secretariat","logitiute":79.8625913,"latitude":6.8418553,"orig_fid":-1},"geometry":{"x":79.862591300000076,"y":6.8418553000000202}},{"attributes":{"objectid":3,"name":"VILLA SHADE","address":"ARUNA MAWATHA, KATANA ROAD, THIMBIRIGASKATUWA, NEGAMBO.","rooms":4.0,"grade":"DELUXE","district":"Gampaha","aga_division":"Katana Pradeshiya Sabha","ps_mc_uc":"Katana Divisional Secretariat","logitiute":79.870338,"latitude":7.232815,"orig_fid":-1},"geometry":{"x":79.870338000000061,"y":7.2328150000000733}},{"attributes":{"objectid":4,"name":"JULIYAN VILLA","address":"127/8, SANDUN UYANA, PILIMATALAWA.","rooms":4.0,"grade":"SUPERIOR","district":"Kandy","aga_division":"Kandy","ps_mc_uc":"Yatinuwara Divisional Secretariat","logitiute":80.5507443,"latitude":7.2569323,"orig_fid":-1},"geometry":{"x":80.550744300000076,"y":7.2569323000000736}},{"attributes":{"objectid":5,"name":"MISTY VIEW COTTAGE HOME STAY EXPERIANCE","address":"509/11,SANASA HOLIDAY RESORT, TOP PASS,KANDY ROAD, NUWARA ELIYA.","rooms":2.0,"grade":"DELUXE","district":"Nuwara Eliya","aga_division":"Nuwara Eliya","ps_mc_uc":"Nuwara Eliya Divisional Secretariat","logitiute":80.747958,"latitude":6.9905755,"orig_fid":-1},"geometry":{"x":80.74795800000004,"y":6.990575500000034}},{"attributes":{"objectid":6,"name":"MIHISARA LAKE VIEW","address":"MIHISARA LAKE VIEW, DEBARAWEWA, TISSAMAHARAMA.","rooms":2.0,"grade":"STANDARD","district":"Hambantota","aga_division":"Thissamaharama","ps_mc_uc":"Thissamaharama Divisional Secretariat","logitiute":81.2669863,"latitude":6.2854503,"orig_fid":-1},"geometry":{"x":81.266986300000042,"y":6.2854503000000363}},{"attributes":{"objectid":7,"name":"DAN HOME","address":"909/10G, ADIKARAM MAWATHA, ETHUL KOTTE.","rooms":2.0,"grade":"SUPERIOR","district":"Colombo","aga_division":"Kotte Muncipal Council","ps_mc_uc":"Sri jayawadanapura","logitiute":79.9010913,"latitude":6.9033653,"orig_fid":-1},"geometry":{"x":79.901091300000076,"y":6.9033653000000754}},{"attributes":{"objectid":8,"name":"ALEX HOME STAY","address":"255/23C, DR. C.D.L.FERNANDO MW, KATUGASTOTA ROAD, KANDY.","rooms":1.0,"grade":"SUPERIOR","district":"Kandy","aga_division":"Kandy","ps_mc_uc":"Gagawata","logitiute":80.6291315,"latitude":7.31143,"orig_fid":-1},"geometry":{"x":80.629131500000085,"y":7.3114300000000298}},{"attributes":{"objectid":9,"name":"EESHANI GUEST INN","address":"22/3,POLICE STATION ROAD, ELLA.","rooms":5.0,"grade":"STANDARD","district":"Badulla","aga_division":"Ella Pradeshiya Sabha","ps_mc_uc":"Ella Divisional Secretariat","logitiute":81.046147,"latitude":6.8752783,"orig_fid":-1},"geometry":{"x":81.046147000000076,"y":6.8752783000000477}},{"attributes":{"objectid":10,"name":"SEMINI HOLIDAY RESORT","address":"2ND LANE,MATHALE JUNCTION, ANURADHAPURA.","rooms":5.0,"grade":"STANDARD","district":"Anuradhapura","aga_division":"Mihintale Pradeshiya Sabha","ps_mc_uc":"Mihintale","logitiute":80.4436319,"latitude":8.3517912,"orig_fid":-1},"geometry":{"x":80.443631900000071,"y":8.3517912000000365}},{"attributes":{"objectid":11,"name":"LAHIRU PLACE","address":"119,ARUGAMBAY,POTTUVIL ,P/18.","rooms":4.0,"grade":"STANDARD","district":"Ampara","aga_division":"Ampara","ps_mc_uc":"Ampara Divisional Secretariat","logitiute":81.833434,"latitude":6.838767,"orig_fid":-1},"geometry":{"x":81.833434000000068,"y":6.8387670000000753}},{"attributes":{"objectid":12,"name":"BEACH VIEW CABANA","address":"90,ARUGAMBAY,POTTUVIL,P/18.","rooms":5.0,"grade":"STANDARD","district":"Ampara","aga_division":"Ampara","ps_mc_uc":"Ampara Divisional Secretariat","logitiute":81.8283956,"latitude":6.8428152,"orig_fid":-1},"geometry":{"x":81.828395600000079,"y":6.842815200000075}},{"attributes":{"objectid":13,"name":"MID BAY GUEST HOUSE","address":"MEEZAN ROAD,ARUGAMBAY,POTTUVIL.","rooms":4.0,"grade":"STANDARD","district":"Ampara","aga_division":"Ampara","ps_mc_uc":"Pottuvil Divisional Secretariat","logitiute":81.828499,"latitude":6.8462378,"orig_fid":-1},"geometry":{"x":81.828499000000079,"y":6.8462378000000399}},{"attributes":{"objectid":14,"name":"NICE PLACE","address":"ARUGAMBAY,POTTUVIL.","rooms":3.0,"grade":"STANDARD","district":"Ampara","aga_division":"Ampara","ps_mc_uc":"Pottuvil Divisional Secretariat","logitiute":81.8291893,"latitude":6.8463593,"orig_fid":-1},"geometry":{"x":81.829189300000053,"y":6.8463593000000742}},{"attributes":{"objectid":15,"name":"MOON EYES BEACH HOTEL","address":"MAIN STREET,ARUGAMBAY,POTTUVIL.","rooms":8.0,"grade":"STANDARD","district":"Ampara","aga_division":"Ampara","ps_mc_uc":"Pottuvil Divisional Secretariat","logitiute":81.8391081,"latitude":6.8732789,"orig_fid":-1},"geometry":{"x":81.839108100000033,"y":6.8732789000000594}},{"attributes":{"objectid":16,"name":"FREEDOM BEACH GUEST HOUSE","address":"BEACH ROAD, ULLAI, POTTUVIL,ARUGAMBAY.","rooms":5.0,"grade":"STANDARD","district":"Ampara","aga_division":"Ampara","ps_mc_uc":"Pottuvil Divisional Secretariat","logitiute":81.834852,"latitude":6.839377,"orig_fid":-1},"geometry":{"x":81.834852000000069,"y":6.83937700000007}},{"attributes":{"objectid":17,"name":"ZIM BAY","address":"MAIN STREET,ARUGAMBAY,POTTUVIL-05","rooms":6.0,"grade":"STANDARD","district":"Ampara","aga_division":"Ampara","ps_mc_uc":"Pottuvil Divisional Secretariat","logitiute":81.8296849,"latitude":6.841629,"orig_fid":-1},"geometry":{"x":81.829684900000075,"y":6.8416290000000686}},{"attributes":{"objectid":18,"name":"HAPPY PANDA","address":"ARUGAMBAY,POTTUVIL 18.","rooms":3.0,"grade":"STANDARD","district":"Ampara","aga_division":"Ampara","ps_mc_uc":"Pottuvil Divisional Secretariat","logitiute":81.8312445,"latitude":6.84312,"orig_fid":-1},"geometry":{"x":81.831244500000082,"y":6.8431200000000558}},{"attributes":{"objectid":19,"name":"HARMONY BEACH HOTEL","address":"SIINA ULLAI,ARUGAMBAY,POTTUVIL-P/18","rooms":5.0,"grade":"STANDARD","district":"Ampara","aga_division":"Ampara","ps_mc_uc":"Pottuvil Divisional Secretariat","logitiute":81.8289143,"latitude":6.8499967,"orig_fid":-1},"geometry":{"x":81.828914300000065,"y":6.8499967000000765}},{"attributes":{"objectid":20,"name":"PEACE HEAVEN RESORT","address":"KADURUPOKUNE VILLAGE, GOYAMBOKKA,82200 TANGALLE.","rooms":4.0,"grade":"STANDARD","district":"Kandy","aga_division":"Kandy","ps_mc_uc":"Kandy Divisional Secretariat","logitiute":80.6457853,"latitude":7.3033077,"orig_fid":-1},"geometry":{"x":80.645785300000057,"y":7.3033077000000617}},{"attributes":{"objectid":21,"name":"DELMA BUNGALOW","address":"1009/6, NAGAHAMULLA ROAD, PELAWATTE, BATTARAMULLA.","rooms":4.0,"grade":"DELUXE","district":"Colombo","aga_division":"Colombo","ps_mc_uc":"kaduwela Divisional Secretariat","logitiute":79.922537,"latitude":6.8856282,"orig_fid":-1},"geometry":{"x":79.922537000000034,"y":6.8856282000000419}},{"attributes":{"objectid":22,"name":"STAR REST BEACH HOTEL","address":"02, NICE PLACE, ARUGAMBAY, POTTUVIL. P/18.","rooms":3.0,"grade":"STANDARD","district":"Ampara","aga_division":"Ampara","ps_mc_uc":"Pottuvil Divisional Secretariat","logitiute":81.8279482,"latitude":6.8504456,"orig_fid":-1},"geometry":{"x":81.827948200000037,"y":6.8504456000000573}},{"attributes":{"objectid":23,"name":"THISARA HOLIDAY BUNGALOW","address":"83, CONTINENTAL RESIDENSIES, ADNEWS ROAD, PERIYAMULLA,NEGOMBO.","rooms":4.0,"grade":"SUPERIOR","district":"Gampaha","aga_division":"Negombo","ps_mc_uc":"Negombo Divisional Secretariat","logitiute":79.8442876,"latitude":7.2239927,"orig_fid":-1},"geometry":{"x":79.84428760000003,"y":7.2239927000000534}},{"attributes":{"objectid":24,"name":"LILLY ROSA","address":"41/41/D, RICHMOND HILL, POLWATTE,SUDUHUMPOLA,KANDY","rooms":3.0,"grade":"SUPERIOR","district":"Kandy","aga_division":"Kandy","ps_mc_uc":"Kandy Divisional Secretariat","logitiute":80.6244403,"latitude":7.2800016,"orig_fid":-1},"geometry":{"x":80.62444030000006,"y":7.2800016000000483}},{"attributes":{"objectid":25,"name":"RAMPART VIEW GUEST HOUSE","address":"37, RAMPART STREET, FORT, GALLE.","rooms":4.0,"grade":"SUPERIOR","district":"Galle","aga_division":"Galle","ps_mc_uc":"Galle Divisional Secretariat","logitiute":80.217303,"latitude":6.024423,"orig_fid":-1},"geometry":{"x":80.217303000000072,"y":6.0244230000000698}},{"attributes":{"objectid":26,"name":"KANDYAN MANOR","address":"214/3, RAJASINGHARAMA MW, GALAGEDARA RD, YATIWAWALA,KATUGASTOTA.","rooms":3.0,"grade":"DELUXE","district":"Kandy","aga_division":"Kandy","ps_mc_uc":"Kandy Divisional Secretariat","logitiute":80.612166,"latitude":7.3260547,"orig_fid":-1},"geometry":{"x":80.612166000000059,"y":7.3260547000000429}},{"attributes":{"objectid":27,"name":"FRANGIPANI","address":"24/2F-2/1, HILL STREET,DEHIWALA","rooms":3.0,"grade":"DELUXE","district":"Colombo","aga_division":"Colombo","ps_mc_uc":"Colombo Divisional Secretariat","logitiute":79.8656393,"latitude":6.8506373,"orig_fid":-1},"geometry":{"x":79.865639300000055,"y":6.8506373000000735}},{"attributes":{"objectid":28,"name":"ROCK CASCADE HOME STAY","address":"CIRCULER ROAD, POLONNARUWA.","rooms":3.0,"grade":"STANDARD","district":"Polonnaruwa","aga_division":"Polonnaruwa","ps_mc_uc":"Polonnaruwa Divisional Secretariat","logitiute":81.0010761,"latitude":7.9397167,"orig_fid":-1},"geometry":{"x":81.001076100000034,"y":7.9397167000000763}},{"attributes":{"objectid":29,"name":"AMPERSAND","address":"WELIHELAGAMA ROAD, ELLAGAMA,DIYATALAWA","rooms":6.0,"grade":"DELUXE","district":"Badulla","aga_division":"Badulla","ps_mc_uc":"Badulla Divisional Secretariat","logitiute":80.942862,"latitude":6.8200009,"orig_fid":-1},"geometry":{"x":80.942862000000048,"y":6.820000900000025}},{"attributes":{"objectid":30,"name":"BREEZE OF PARADISE","address":"35/8A, MEEGAHAWATTA RD, GANGODAWILA ,NUGEGODA.","rooms":2.0,"grade":"SUPERIOR","district":"Colombo","aga_division":"Colombo","ps_mc_uc":"Colombo Divisional Secretariat","logitiute":79.9006381,"latitude":6.8602118,"orig_fid":-1},"geometry":{"x":79.900638100000037,"y":6.8602118000000587}},{"attributes":{"objectid":31,"name":"MOUNT LAVINIA HOME STAY","address":"17/7 OFF DE SARAM RD,MOUNT LAVINIA","rooms":3.0,"grade":"STANDARD","district":"Colombo","aga_division":"Colombo","ps_mc_uc":"Colombo Divisional Secretariat","logitiute":79.8641777,"latitude":6.8409658,"orig_fid":-1},"geometry":{"x":79.864177700000084,"y":6.8409658000000491}},{"attributes":{"objectid":32,"name":"THE WHITE NEST","address":"48A,HOTEL ROAD,MOUNT LAVINIA","rooms":3.0,"grade":"SUPERIOR","district":"Colombo","aga_division":"Dehiwala-Mount Lavinia","ps_mc_uc":"Mount Lavinia","logitiute":79.8625653,"latitude":6.8340033,"orig_fid":-1},"geometry":{"x":79.862565300000085,"y":6.8340033000000631}},{"attributes":{"objectid":33,"name":"SUN FLOWER INN","address":"SUN FLOWER INN,TEMPLE JUNCTION,DAMBULLA","rooms":3.0,"grade":"STANDARD","district":"Matale","aga_division":"Dambulla Pradeshiya Sabha","ps_mc_uc":"Dambulla Divisional Secretariat","logitiute":80.6522441,"latitude":7.8523923,"orig_fid":-1},"geometry":{"x":80.652244100000075,"y":7.8523923000000764}},{"attributes":{"objectid":34,"name":"BALAPOKUNA VILLA","address":"NO. 12/8, BALAPOKUNA, PURANA VIHARA ROAD, COLOMBO 06","rooms":1.0,"grade":"SUPERIOR","district":"Colombo","aga_division":"Colombo","ps_mc_uc":"Colombo Divisional Secretariat","logitiute":79.8757808,"latitude":6.8715737,"orig_fid":-1},"geometry":{"x":79.87578080000003,"y":6.8715737000000559}},{"attributes":{"objectid":35,"name":"VILLA 49","address":"NO.49,LOUIS PEIRIS MAWATHA,KANDY","rooms":3.0,"grade":"DELUXE","district":"Kandy","aga_division":"Kandy","ps_mc_uc":"Gagawata","logitiute":80.6463231,"latitude":7.2876327,"orig_fid":-1},"geometry":{"x":80.646323100000075,"y":7.2876327000000742}},{"attributes":{"objectid":36,"name":"THE VILLA BALAPITIYA BEACH","address":"\"THE VILLA BALAPITIYA BEACH\",NO.517,GALLE ROAD,WALAGEDARA,BALAPITIYA","rooms":2.0,"grade":"SUPERIOR","district":"Galle","aga_division":"Galle","ps_mc_uc":"Balapitiya Divisional Secretariat","logitiute":80.038683,"latitude":6.257703,"orig_fid":-1},"geometry":{"x":80.038683000000049,"y":6.2577030000000491}},{"attributes":{"objectid":37,"name":"IRUWI","address":"220, GALLE ROAD, MORAGALLA, BERUWALA.","rooms":1.0,"grade":"SUPERIOR","district":"Kalutara","aga_division":"Beruwala Pradeshiya Sabha","ps_mc_uc":"Beruwala Divisional Secretariat","logitiute":79.983049,"latitude":6.451463,"orig_fid":-1},"geometry":{"x":79.983049000000051,"y":6.4514630000000466}},{"attributes":{"objectid":38,"name":"RUWINI","address":"5/327 ,PORUTHOTA RD, PORUTHOTA, KOCHCHIKADE","rooms":1.0,"grade":"STANDARD","district":"Gampaha","aga_division":"Negombo","ps_mc_uc":"Negombo Divisional Secretariat","logitiute":79.841011,"latitude":7.228957,"orig_fid":-1},"geometry":{"x":79.841011000000037,"y":7.2289570000000367}},{"attributes":{"objectid":39,"name":"SKYDALE","address":"352-G, DHARMARAJA ROAD, KANDY","rooms":4.0,"grade":"DELUXE","district":"Kandy","aga_division":"Kandy","ps_mc_uc":"Kandy Divisional Secretariat","logitiute":80.6527456,"latitude":7.2878343,"orig_fid":-1},"geometry":{"x":80.65274560000006,"y":7.2878343000000427}},{"attributes":{"objectid":40,"name":"WHITE VILLA","address":"160/1, SOORIYAGODA, BENTOTA.","rooms":4.0,"grade":"SUPERIOR","district":"Galle","aga_division":"Bentota Pradeshiya Sabha","ps_mc_uc":"Benthota Divisional Secretariat","logitiute":79.996374,"latitude":6.4160207,"orig_fid":-1},"geometry":{"x":79.99637400000006,"y":6.4160207000000469}},{"attributes":{"objectid":41,"name":"GARDEN GUEST HOUSE","address":"7, KARLSHRUE GARDENS, COLOMBO 8.","rooms":3.0,"grade":"SUPERIOR","district":"Colombo","aga_division":"Colombo","ps_mc_uc":"Colombo Divisional Secretariat","logitiute":79.876722,"latitude":6.921816,"orig_fid":-1},"geometry":{"x":79.876722000000029,"y":6.9218160000000353}},{"attributes":{"objectid":42,"name":"SANDUL VILLA","address":"NO 510/41, 11TH LANE, HETTEMULA, BERUWALA.","rooms":5.0,"grade":"DELUXE","district":"Kalutara","aga_division":"Beruwala Pradeshiya Sabha","ps_mc_uc":"Beruwala Divisional Secretariat","logitiute":79.9855867,"latitude":6.4616673,"orig_fid":-1},"geometry":{"x":79.985586700000056,"y":6.4616673000000446}},{"attributes":{"objectid":43,"name":"ROCKWELL COLOMBO","address":"NO 14, BORELLA CROSS ROAD, COLOMBO 8.","rooms":3.0,"grade":"DELUXE","district":"Colombo","aga_division":"Colombo","ps_mc_uc":"Colombo Divisional Secretariat","logitiute":79.8728623,"latitude":6.9159013,"orig_fid":-1},"geometry":{"x":79.872862300000065,"y":6.91590130000003}},{"attributes":{"objectid":44,"name":"RANTARUWA","address":"44, GALABADEHENAWATTA, PEHEMBIYA, DICKWELLA.","rooms":3.0,"grade":"DELUXE","district":"Matara","aga_division":"Matara","ps_mc_uc":"Matara Divisional Secretariat","logitiute":80.6999321,"latitude":5.9599154,"orig_fid":-1},"geometry":{"x":80.699932100000069,"y":5.9599154000000567}},{"attributes":{"objectid":45,"name":"AWINCO REST","address":"122, BADULLA ROAD, HAPUTALE","rooms":4.0,"grade":"STANDARD","district":"Badulla","aga_division":"Haputale","ps_mc_uc":"Haputale Divisional Secretariat","logitiute":80.9608823,"latitude":6.7743487,"orig_fid":-1},"geometry":{"x":80.960882300000037,"y":6.7743487000000755}},{"attributes":{"objectid":46,"name":"PALM GROVE","address":"07,SIRINIWASA MW,KALUTARA NORTH","rooms":4.0,"grade":"DELUXE","district":"Kalutara","aga_division":"Kalutara Pradeshiya Sabha","ps_mc_uc":"Kalutara Divisional Secretariat","logitiute":79.953393,"latitude":6.597506,"orig_fid":-1},"geometry":{"x":79.953393000000062,"y":6.5975060000000667}},{"attributes":{"objectid":47,"name":"PLANTATION RETREAT","address":"PLANTATION RETREAT ELLEPOLA ESTATE,PATANPAHA,WATTEGAMA","rooms":4.0,"grade":"STANDARD","district":"Kandy","aga_division":"Kandy","ps_mc_uc":"Pathadumbara Divisional Secretariat","logitiute":80.6798547,"latitude":7.3493442,"orig_fid":-1},"geometry":{"x":80.679854700000078,"y":7.3493442000000755}},{"attributes":{"objectid":48,"name":"LITTLE VILLA","address":"234 MAHA VIHARA ROAD,MOLLIGODA","rooms":5.0,"grade":"SUPERIOR","district":"Kalutara","aga_division":"Panadura","ps_mc_uc":"Panadura Divisional Secretariat","logitiute":79.9367766,"latitude":6.6626348,"orig_fid":-1},"geometry":{"x":79.93677660000003,"y":6.6626348000000348}},{"attributes":{"objectid":49,"name":"PENT HOUSE ON THE ROCK","address":"JAKOTUWA, YADDEHIMULLA RD, UNAWATUNA","rooms":4.0,"grade":"DELUXE","district":"Galle","aga_division":"Habaraduwa","ps_mc_uc":"Habaraduwa Divisional Secretariat","logitiute":80.2429685,"latitude":6.0104782,"orig_fid":-1},"geometry":{"x":80.242968500000075,"y":6.0104782000000228}},{"attributes":{"objectid":50,"name":"HEVENLY HOME","address":"NO 14/16,UPPER LAKE ROAD,NUWARA ELIYA","rooms":2.0,"grade":"SUPERIOR","district":"Nuwara Eliya","aga_division":"Nuwara Eliya","ps_mc_uc":"Nuwara Eliya Divisional Secretariat","logitiute":80.7711223,"latitude":6.9633029,"orig_fid":-1},"geometry":{"x":80.771122300000059,"y":6.9633029000000306}},{"attributes":{"objectid":51,"name":"PLEASURE ISLAND HOME STAY","address":"HOTEL PLEASURE ISLAND,RESERVEIR ROAD,DAMBULLA.","rooms":5.0,"grade":"STANDARD","district":"Matale","aga_division":"Dambulla Pradeshiya Sabha","ps_mc_uc":"Dambulla Divisional Secretariat","logitiute":80.6301933,"latitude":7.8723783,"orig_fid":-1},"geometry":{"x":80.63019330000003,"y":7.8723783000000367}},{"attributes":{"objectid":52,"name":"IVY COTTAGE","address":"F & G CONTINENTAL RESIDENCIES, HOUSE NO 59, 41/104, ADNIVES ROAD, PERIYAMULLA, NEGOMBO","rooms":2.0,"grade":"SUPERIOR","district":"Gampaha","aga_division":"Negombo","ps_mc_uc":"Negombo Divisional Secretariat","logitiute":79.844978,"latitude":7.223092,"orig_fid":-1},"geometry":{"x":79.844978000000083,"y":7.2230920000000651}},{"attributes":{"objectid":53,"name":"COMFY STAY","address":"27/2, O.P.PERERA MAWATHA, LAKE ROAD, BORALASGAMUWA","rooms":3.0,"grade":"SUPERIOR","district":"Colombo","aga_division":"Boralesgamuwa","ps_mc_uc":"Kesbewa Divisional Secretariat","logitiute":79.9044952,"latitude":6.8429832,"orig_fid":-1},"geometry":{"x":79.904495200000042,"y":6.8429832000000488}},{"attributes":{"objectid":54,"name":"SERENE SK HOME","address":"48, JAYA ROAD, UDAHAMULLA, NUGEGODA","rooms":3.0,"grade":"SUPERIOR","district":"Colombo","aga_division":"Maharagama","ps_mc_uc":"Maharagama Divisional Secretariat","logitiute":79.9153943,"latitude":6.8634233,"orig_fid":-1},"geometry":{"x":79.91539430000006,"y":6.8634233000000222}},{"attributes":{"objectid":55,"name":"GREEN VIEW HOME STAY","address":"631/1, SRI SUNANDA MAWATHA, UTHUWANKANDA, MAWANELLA","rooms":2.0,"grade":"SUPERIOR","district":"Kegalle","aga_division":"Kegalle","ps_mc_uc":"Mawanella Divisional Secretariat","logitiute":80.425477,"latitude":7.2502954,"orig_fid":-1},"geometry":{"x":80.425477000000058,"y":7.2502954000000273}},{"attributes":{"objectid":56,"name":"HANTANA RANGE VIEW","address":"47, GEORGE DE SILVA MAWATHA, KANDY","rooms":3.0,"grade":"DELUXE","district":"Kandy","aga_division":"Kandy","ps_mc_uc":"Ganga Ihala Korale Divisional Secretariat","logitiute":80.6179058,"latitude":7.284343,"orig_fid":-1},"geometry":{"x":80.617905800000074,"y":7.2843430000000353}},{"attributes":{"objectid":57,"name":"PAVILION RESIDENCE","address":"170/6 & 170/7, ROBERT GUNAWARDENA MAWATHA, BATTARAMULLA","rooms":5.0,"grade":"SUPERIOR","district":"Colombo","aga_division":"Colombo","ps_mc_uc":"Battaramulla","logitiute":79.9285037,"latitude":6.9004455,"orig_fid":-1},"geometry":{"x":79.928503700000078,"y":6.9004455000000462}},{"attributes":{"objectid":58,"name":"EAGLE'S REST HOMESTAY HANTHANA","address":"14B/2/35/3, 8TH LANE, HANTANA HS, HANTANA, KANDY","rooms":2.0,"grade":"SUPERIOR","district":"Kandy","aga_division":"Gagawata Koralya","ps_mc_uc":"Kandy Divisional Secretariat","logitiute":80.6348843,"latitude":7.2749563,"orig_fid":-1},"geometry":{"x":80.634884300000067,"y":7.2749563000000421}},{"attributes":{"objectid":59,"name":"NIRVEGA","address":"30 A/1, 6TH LANE, MORAGALLA, BERUWALA","rooms":5.0,"grade":"SUPERIOR","district":"Kalutara","aga_division":"Kalutara Pradeshiya Sabha","ps_mc_uc":"Beruwala Divisional Secretariat","logitiute":79.9823643,"latitude":6.4531363,"orig_fid":-1},"geometry":{"x":79.982364300000029,"y":6.4531363000000397}},{"attributes":{"objectid":60,"name":"VISTA HOUSE","address":"431/1, HEERASSAGALA ROAD, BOWALAWATTE, KANDY","rooms":3.0,"grade":"DELUXE","district":"Kandy","aga_division":"Kandy","ps_mc_uc":"Gagawata","logitiute":80.6163333,"latitude":7.2633726,"orig_fid":-1},"geometry":{"x":80.616333300000065,"y":7.2633726000000252}},{"attributes":{"objectid":61,"name":"SHALOM VILLA","address":"262, MAHAWELA ROAD, TANGALLE","rooms":3.0,"grade":"STANDARD","district":"Hambantota","aga_division":"Tangalle Pradeshiya Sabha","ps_mc_uc":"Tangalle Divisional Secretariat","logitiute":80.7936503,"latitude":6.0212043,"orig_fid":-1},"geometry":{"x":80.793650300000081,"y":6.0212043000000222}},{"attributes":{"objectid":62,"name":"HOME AWAY FROM HOME","address":"154/8, ERIYAGAMA, PERADENIYA","rooms":2.0,"grade":"SUPERIOR","district":"Kandy","aga_division":"Kandy","ps_mc_uc":"Yatinuwara Divisional Secretariat","logitiute":80.5880387,"latitude":7.265275,"orig_fid":-1},"geometry":{"x":80.588038700000084,"y":7.265275000000031}},{"attributes":{"objectid":63,"name":"STREAMY VIEW","address":"9/D/9, NELLIGASGODA, KIRIBATHKUMBURA","rooms":2.0,"grade":"SUPERIOR","district":"Kandy","aga_division":"Kandy","ps_mc_uc":"Yatinuwara Divisional Secretariat","logitiute":80.5764288,"latitude":7.2584743,"orig_fid":-1},"geometry":{"x":80.576428800000031,"y":7.2584743000000458}},{"attributes":{"objectid":64,"name":"HOME STAY STRAND","address":"218, YADDEHIMULLA ROAD, UNAWATUNA","rooms":5.0,"grade":"STANDARD","district":"Galle","aga_division":"Habaraduwa","ps_mc_uc":"Habaraduwa Divisional Secretariat","logitiute":80.2419195,"latitude":6.0095014,"orig_fid":-1},"geometry":{"x":80.241919500000051,"y":6.0095014000000333}},{"attributes":{"objectid":65,"name":"FEEL HOMESTAY","address":"11A, ST .PHILIP NARY'S CHURCH ROAD, KATUKURUNDA, KALUTARA","rooms":1.0,"grade":"STANDARD","district":"Kalutara","aga_division":"Kalutara Pradeshiya Sabha","ps_mc_uc":"Kalutara Divisional Secretariat","logitiute":79.9652113,"latitude":6.5610293,"orig_fid":-1},"geometry":{"x":79.965211300000078,"y":6.5610293000000297}},{"attributes":{"objectid":66,"name":"NATURAL HOLIDAY INN","address":"NO 6, MODARA ROAD, MEDAKATIYA, TANGALE","rooms":3.0,"grade":"STANDARD","district":"Hambantota","aga_division":"Tangalle Pradeshiya Sabha","ps_mc_uc":"Tangalle Divisional Secretariat","logitiute":80.7909616,"latitude":6.0293222,"orig_fid":-1},"geometry":{"x":80.79096160000006,"y":6.0293222000000242}},{"attributes":{"objectid":67,"name":"SRI V.O.C","address":"88, DHAMMARATHANA NAHIMI MAWATHA, KATUNAYAKE, NITTABUWA ROAD, NAIWALA, WEYANGODA","rooms":1.0,"grade":"DELUXE","district":"Gampaha","aga_division":"Gampaha","ps_mc_uc":"Minuwangoda Divisional Secretariat","logitiute":80.0305597,"latitude":7.1578858,"orig_fid":-1},"geometry":{"x":80.030559700000083,"y":7.1578858000000309}},{"attributes":{"objectid":68,"name":"THE VIEWS","address":"72/31, A.B DAMUNUPOLA MAWATHA, KANDY","rooms":2.0,"grade":"DELUXE","district":"Kandy","aga_division":"Kandy","ps_mc_uc":"Kandy Divisional Secretariat","logitiute":80.6259093,"latitude":7.2930855,"orig_fid":-1},"geometry":{"x":80.625909300000046,"y":7.2930855000000747}},{"attributes":{"objectid":69,"name":"DSM HOME STAY","address":"8/1, PITAKANDA ROAD, KANDY","rooms":3.0,"grade":"STANDARD","district":"Kandy","aga_division":"Kandy","ps_mc_uc":"Gagawata","logitiute":80.6357216,"latitude":7.310338,"orig_fid":-1},"geometry":{"x":80.635721600000068,"y":7.3103380000000584}},{"attributes":{"objectid":70,"name":"HANTHANA HOUSE","address":"108, THAPODARAMA ROOAD, HANTHANA, KANDY","rooms":4.0,"grade":"DELUXE","district":"Kandy","aga_division":"Gagawata Koralya","ps_mc_uc":"Kandy Divisional Secretariat","logitiute":80.6247712,"latitude":7.2750592,"orig_fid":-1},"geometry":{"x":80.624771200000055,"y":7.2750592000000438}},{"attributes":{"objectid":71,"name":"SHEEN HOME STAY","address":"18/5, MOHOTTI WATTE, BALAPITIYA","rooms":1.0,"grade":"STANDARD","district":"Galle","aga_division":"balapitiya","ps_mc_uc":"Balapitiya Divisional Secretariat","logitiute":80.033748,"latitude":6.268667,"orig_fid":-1},"geometry":{"x":80.03374800000006,"y":6.2686670000000504}},{"attributes":{"objectid":72,"name":"PALMS VILLA","address":"425/10/B, MINUWANGODA ROAD, KADIRANA, NEGOMBO","rooms":3.0,"grade":"DELUXE","district":"Gampaha","aga_division":"Katana Pradeshiya Sabha","ps_mc_uc":"Katana Divisional Secretariat","logitiute":79.8688523,"latitude":7.1945973,"orig_fid":-1},"geometry":{"x":79.868852300000071,"y":7.1945973000000549}},{"attributes":{"objectid":73,"name":"NATURAL HOUSE","address":"NO 102, THAPODARAMA ROAD, RICHMOND HILL, HANTANA, KANDY","rooms":1.0,"grade":"STANDARD","district":"Kandy","aga_division":"Gagawata Koralya","ps_mc_uc":"Gagawata","logitiute":80.6252851,"latitude":7.2752736,"orig_fid":-1},"geometry":{"x":80.625285100000042,"y":7.2752736000000482}},{"attributes":{"objectid":74,"name":"NOOK IN KANDY","address":"220/2, KURUNEGALA ROAD, KATUGASTOTA","rooms":2.0,"grade":"SUPERIOR","district":"Kandy","aga_division":"Kandy","ps_mc_uc":"Harispattuwa Divisional Secretariat","logitiute":80.6440763,"latitude":7.2900773,"orig_fid":-1},"geometry":{"x":80.644076300000052,"y":7.290077300000064}},{"attributes":{"objectid":75,"name":"HANTANA HOME STAY","address":"11 B3/1A/2, UPPER WATER TANK ROAD, HANTANA HOUSING SCHEME, HANTANA, KANDY","rooms":2.0,"grade":"STANDARD","district":"Kandy","aga_division":"Kandy","ps_mc_uc":"GANGAWATA KORALAYA","logitiute":80.6342906,"latitude":7.2756388,"orig_fid":-1},"geometry":{"x":80.634290600000043,"y":7.2756388000000243}},{"attributes":{"objectid":76,"name":"BLUE RIBBON","address":"3/339, KANDUWELA ESTATE, GURUDENIYA","rooms":5.0,"grade":"STANDARD","district":"Kandy","aga_division":"Gagawata Koralya","ps_mc_uc":"Kandy Divisional Secretariat","logitiute":80.6892666,"latitude":7.2655464,"orig_fid":-1},"geometry":{"x":80.689266600000053,"y":7.265546400000062}},{"attributes":{"objectid":77,"name":"VILLU VILLA","address":"601/45B, JAYA MAWATHA, AIRPORT ROAD, ANURADHAPURA","rooms":4.0,"grade":"SUPERIOR","district":"Anuradhapura","aga_division":"Anuradhapura","ps_mc_uc":"Anuradhapura East","logitiute":80.4219063,"latitude":8.31536,"orig_fid":-1},"geometry":{"x":80.421906300000046,"y":8.3153600000000552}},{"attributes":{"objectid":78,"name":"SARA HOMES","address":"NO 141, 4TH LANE, VISHAKA WATTHA, EKALA","rooms":3.0,"grade":"SUPERIOR","district":"Gampaha","aga_division":"Ja-Ela Pradeshiya Sabha","ps_mc_uc":"Ja-Ela Divisional Secretariat","logitiute":79.9066758,"latitude":7.0959788,"orig_fid":-1},"geometry":{"x":79.906675800000073,"y":7.0959788000000685}},{"attributes":{"objectid":79,"name":"THOTUPOLA RESIDENCE","address":"NO 162/1, HALLOLUWA, KANDY","rooms":4.0,"grade":"DELUXE","district":"Kandy","aga_division":"Harispattuwa Pradeshiya Sabha","ps_mc_uc":"Harispattuwa Divisional Secretariat","logitiute":80.606204,"latitude":7.2906944,"orig_fid":-1},"geometry":{"x":80.606204000000048,"y":7.2906944000000635}},{"attributes":{"objectid":80,"name":"HOLIDAY STAY INN","address":"NO. 100/7B, GEORGE E DE SILVA MAWATHA, KANDY VIEW GARDEN, KANDY","rooms":3.0,"grade":"SUPERIOR","district":"Kandy","aga_division":"Gagawata Koralya","ps_mc_uc":"Gagawata","logitiute":80.6196331,"latitude":7.2874246,"orig_fid":-1},"geometry":{"x":80.619633100000044,"y":7.2874246000000653}},{"attributes":{"objectid":81,"name":"HANTAHANA HOLIDAY ROOMS","address":"NO. 13/B/15/1, N. H. S. HANTANA, KANDY","rooms":5.0,"grade":"DELUXE","district":"Kandy","aga_division":"Gagawata Koralya","ps_mc_uc":"Kandy Divisional Secretariat","logitiute":80.6366113,"latitude":7.2749143,"orig_fid":-1},"geometry":{"x":80.636611300000084,"y":7.2749143000000345}},{"attributes":{"objectid":82,"name":"OPEN HILL","address":"86/45 KANDY VIEW GARDEN,GEORGE.E.DE SILVA MAWATHA, KANDY","rooms":2.0,"grade":"STANDARD","district":"Kandy","aga_division":"Kandy","ps_mc_uc":"Kandy Divisional Secretariat","logitiute":80.6194594,"latitude":7.2869723,"orig_fid":-1},"geometry":{"x":80.619459400000039,"y":7.286972300000059}},{"attributes":{"objectid":83,"name":"GARDEN REST-KANDY","address":"3/30,30/3/1/2,VIHARA MW.,SUDUHUMPOLA,KANDY","rooms":3.0,"grade":"SUPERIOR","district":"Kandy","aga_division":"MC","ps_mc_uc":"GANGAWATA KORALAYA","logitiute":80.6246844,"latitude":7.2832395,"orig_fid":-1},"geometry":{"x":80.624684400000035,"y":7.2832395000000361}},{"attributes":{"objectid":84,"name":"RENUKA INN","address":"29/261/K, AMPITIYA ROAD, KANDY.","rooms":3.0,"grade":"SUPERIOR","district":"Kandy","aga_division":"Kandy","ps_mc_uc":"Gagawata","logitiute":80.6483964,"latitude":7.2849469,"orig_fid":-1},"geometry":{"x":80.648396400000081,"y":7.2849469000000227}},{"attributes":{"objectid":85,"name":"VILLA AVIKSHA","address":"88 PUBUDU MAWATHA , MADIHA , MATARA","rooms":3.0,"grade":"STANDARD","district":"Matara","aga_division":"Matara","ps_mc_uc":"Matara Divisional Secretariat","logitiute":80.512295,"latitude":5.937323,"orig_fid":-1},"geometry":{"x":80.512295000000051,"y":5.937323000000049}},{"attributes":{"objectid":86,"name":"MISTY HILLS","address":"37, UDA PERADENIYA, PERADENIYA","rooms":1.0,"grade":"SUPERIOR","district":"Kandy","aga_division":"Kandy","ps_mc_uc":"Kandy Divisional Secretariat","logitiute":80.6049198,"latitude":7.2657901,"orig_fid":-1},"geometry":{"x":80.604919800000062,"y":7.2657901000000606}},{"attributes":{"objectid":87,"name":"DAMMIKA HOME","address":"19 (27/7) SANGAMITTA AVENVE, OFF SRI DHARMPALA ROAD, MOUNT LAVINIA","rooms":3.0,"grade":"STANDARD","district":"Colombo","aga_division":"Colombo","ps_mc_uc":"Colombo Divisional Secretariat","logitiute":79.8641082,"latitude":6.8435879,"orig_fid":-1},"geometry":{"x":79.864108200000032,"y":6.8435879000000455}},{"attributes":{"objectid":88,"name":"DREAM STAY","address":"25/8, GLASSAUGH ROAD, NANU OYA, NUWARA ELIYA","rooms":3.0,"grade":"STANDARD","district":"Nuwara Eliya","aga_division":"Nuwara Eliya","ps_mc_uc":"Mahaoya Divisional Secretariat","logitiute":80.7431439,"latitude":6.9428324,"orig_fid":-1},"geometry":{"x":80.743143900000064,"y":6.942832400000043}},{"attributes":{"objectid":89,"name":"SHERENES HOME STAY","address":"87/5, DAMMA DASSI MAWATHA, KANDY.","rooms":2.0,"grade":"SUPERIOR","district":"Kandy","aga_division":"Kandy","ps_mc_uc":"Kandy Divisional Secretariat","logitiute":80.6359503,"latitude":7.305467,"orig_fid":-1},"geometry":{"x":80.635950300000047,"y":7.3054670000000215}},{"attributes":{"objectid":90,"name":"KANDY RIVER BREEZE","address":"324A, HEWAHETA ROAD, THALWATTA, KANDY.","rooms":3.0,"grade":"SUPERIOR","district":"Kandy","aga_division":"Gagawata Koralya","ps_mc_uc":"Gagawata","logitiute":80.6523487,"latitude":7.2915244,"orig_fid":-1},"geometry":{"x":80.652348700000061,"y":7.2915244000000712}},{"attributes":{"objectid":91,"name":"JUNGLE VIEW","address":"NO.55,CIRCULAR ROAD,HANTHANA HOUSING SCHEME,HANTHANA,KANDY.","rooms":3.0,"grade":"SUPERIOR","district":"Kandy","aga_division":"Kandy","ps_mc_uc":"Kandy Divisional Secretariat","logitiute":80.635864,"latitude":7.281025,"orig_fid":-1},"geometry":{"x":80.635864000000083,"y":7.2810250000000565}},{"attributes":{"objectid":92,"name":"SUWANI PINNAWALA HOME STAY.","address":"PINNA LANDA WATTA,BATHABURAYA,RAMBUKKANA.","rooms":3.0,"grade":"STANDARD","district":"Kegalle","aga_division":"Rambukkana Pradeshiya Sabha","ps_mc_uc":"Rambukkana Divisional Secretariat","logitiute":80.383586,"latitude":7.3007563,"orig_fid":-1},"geometry":{"x":80.383586000000037,"y":7.3007563000000459}},{"attributes":{"objectid":93,"name":"SOPHIE HOUSE","address":"567/3, DEWANIYAGAHA WATTA, NARIGAMA, HIKKADUWA.","rooms":5.0,"grade":"SUPERIOR","district":"Galle","aga_division":"Hikkaduwa","ps_mc_uc":"Hikkaduwa Divisional Secretariat","logitiute":80.1063005,"latitude":6.1257824,"orig_fid":-1},"geometry":{"x":80.106300500000032,"y":6.1257824000000483}},{"attributes":{"objectid":94,"name":"DAMITH HOME STAY","address":"NO.06, 'SAMAGIYA', MADAKETIYA ROAD, TANGALLE.","rooms":2.0,"grade":"SUPERIOR","district":"Hambantota","aga_division":"Tangalle Pradeshiya Sabha","ps_mc_uc":"Tangalle Divisional Secretariat","logitiute":80.793972,"latitude":6.029473,"orig_fid":-1},"geometry":{"x":80.793972000000053,"y":6.0294730000000527}},{"attributes":{"objectid":95,"name":"AMRITA","address":"36, POLWATTHA, AMPITIYA, KANDY.","rooms":3.0,"grade":"SUPERIOR","district":"Kandy","aga_division":"Kandy","ps_mc_uc":"Ganga Ihala Korale Divisional Secretariat","logitiute":80.661261,"latitude":7.268781,"orig_fid":-1},"geometry":{"x":80.661261000000081,"y":7.2687810000000468}},{"attributes":{"objectid":96,"name":"MOUNT REPUBLIC","address":"NO.06, LILIAN AVENUE, MOUNT LAVINIA.","rooms":5.0,"grade":"SUPERIOR","district":"Colombo","aga_division":"Dehiwala-Mount Lavinia","ps_mc_uc":"Ratmalana Divisional Secretariat","logitiute":79.8641105,"latitude":6.8330424,"orig_fid":-1},"geometry":{"x":79.864110500000038,"y":6.8330424000000676}},{"attributes":{"objectid":97,"name":"NATURE","address":"NO.138/A,WELIGAMPITIYA, POKUNUWITA.","rooms":3.0,"grade":"SUPERIOR","district":"Kalutara","aga_division":"Horana Pradeshiya Sabha","ps_mc_uc":"Horana Divisional Secretariat","logitiute":80.030032,"latitude":6.732221,"orig_fid":-1},"geometry":{"x":80.030032000000062,"y":6.7322210000000382}},{"attributes":{"objectid":98,"name":"KANDY HOLIDAY RESIDENCE","address":"NO.19/5,P.L.P.ALWIS MAWATHA,LEWELLA ROAD,KANDY.","rooms":3.0,"grade":"SUPERIOR","district":"Kandy","aga_division":"Kandy","ps_mc_uc":"Kandy Divisional Secretariat","logitiute":80.6471513,"latitude":7.2960543,"orig_fid":-1},"geometry":{"x":80.647151300000075,"y":7.2960543000000371}},{"attributes":{"objectid":99,"name":"AMUURA BEACH HOUSE","address":"NO.36, MARADANA ROAD, BANDARAWATTA, BERUWALA.","rooms":5.0,"grade":"SUPERIOR","district":"Kalutara","aga_division":"Beruwala Pradeshiya Sabha","ps_mc_uc":"Beruwala Divisional Secretariat","logitiute":79.974822,"latitude":6.469276,"orig_fid":-1},"geometry":{"x":79.974822000000074,"y":6.4692760000000362}},{"attributes":{"objectid":100,"name":"FALCY ESTATE","address":"FALCY ESTATE, AGALLIYA, BADDEGAMA.","rooms":3.0,"grade":"STANDARD","district":"Galle","aga_division":"Galle","ps_mc_uc":"Galle Divisional Secretariat","logitiute":80.1849071,"latitude":6.1990765,"orig_fid":-1},"geometry":{"x":80.184907100000032,"y":6.1990765000000465}},{"attributes":{"objectid":101,"name":"OPEN SKY","address":"NO.34,SAMARAWEERA PLACE,WELIGAMA","rooms":3.0,"grade":"STANDARD","district":"Matara","aga_division":"Weligama Pradeshiya Sabha","ps_mc_uc":"Weligama Divisional Secretariat","logitiute":80.4276126,"latitude":5.9757616,"orig_fid":-1},"geometry":{"x":80.427612600000032,"y":5.9757616000000553}},{"attributes":{"objectid":102,"name":"EMEL BOUTIQUE HOTEL","address":"NO.15,LURDU MAWATHA,KOCHCHIKADE.","rooms":5.0,"grade":"DELUXE","district":"Gampaha","aga_division":"Negombo","ps_mc_uc":"Negombo Divisional Secretariat","logitiute":79.8543727,"latitude":7.2667943,"orig_fid":-1},"geometry":{"x":79.854372700000056,"y":7.2667943000000719}},{"attributes":{"objectid":103,"name":"TRANQUILITY NEST.","address":"NO.405/E/1,MORAGAHAKELE WATTA,ERIYAGAMA,PERADENIYA.","rooms":2.0,"grade":"SUPERIOR","district":"Kandy","aga_division":"Gagawata Koralya","ps_mc_uc":"Gagawata","logitiute":80.5880353,"latitude":7.2635801,"orig_fid":-1},"geometry":{"x":80.588035300000058,"y":7.2635801000000697}},{"attributes":{"objectid":104,"name":"TRANQUIL HILLS KANDY.","address":"NO.35/73,C.D.L.FERNANDO MAWATHA,KATUGASTOTA ROAD,KANDY.","rooms":3.0,"grade":"SUPERIOR","district":"Kandy","aga_division":"Kandy","ps_mc_uc":"Kandy Divisional Secretariat","logitiute":80.631075,"latitude":7.3103134,"orig_fid":-1},"geometry":{"x":80.631075000000067,"y":7.3103134000000409}},{"attributes":{"objectid":105,"name":"KANDY HILL","address":"NO.195/9,RICHMOND HILL LANE,HEERSAGALA ROAD,KANDY.","rooms":1.0,"grade":"STANDARD","district":"Kandy","aga_division":"Kandy","ps_mc_uc":"Kandy Divisional Secretariat","logitiute":80.6200442,"latitude":7.2721647,"orig_fid":-1},"geometry":{"x":80.620044200000052,"y":7.2721647000000758}},{"attributes":{"objectid":106,"name":"MALA'S HOMESTAY","address":"NO:37/5 TETHNICAL COLLEGE ROAD,MANJANTHODUWAI-BATICALOA","rooms":1.0,"grade":"STANDARD","district":"Batticaloa","aga_division":"Batticaloa","ps_mc_uc":"Manmunai North Divisional Secretariat","logitiute":81.67473,"latitude":7.730997,"orig_fid":-1},"geometry":{"x":81.674730000000068,"y":7.730997000000059}},{"attributes":{"objectid":107,"name":"SWEET LANKA NEGOMBO","address":"108/8 ST.JOSEPH MAWATHA,ETHULKOTTE,NEGOMBO","rooms":2.0,"grade":"DELUXE","district":"Gampaha","aga_division":"Negombo","ps_mc_uc":"Negombo Divisional Secretariat","logitiute":79.8419293,"latitude":7.2463852,"orig_fid":-1},"geometry":{"x":79.841929300000061,"y":7.2463852000000202}},{"attributes":{"objectid":108,"name":"HERIN GREEN HOUSE","address":"NO.33/1A,SEMANARYA ROAD, KITHULAMPITIYA,GALLE","rooms":2.0,"grade":"STANDARD","district":"Galle","aga_division":"Bope","ps_mc_uc":"Bope-Poddala Divisional Secretariat","logitiute":80.2028775,"latitude":6.0608002,"orig_fid":-1},"geometry":{"x":80.202877500000056,"y":6.0608002000000738}},{"attributes":{"objectid":109,"name":"RESORT BEEM","address":"NO:36,GEMUNU MAWATHA,HANTHANA PLACE,KANDY","rooms":3.0,"grade":"DELUXE","district":"Kandy","aga_division":"Kandy","ps_mc_uc":"Kandy Divisional Secretariat","logitiute":80.6332638,"latitude":7.283758,"orig_fid":-1},"geometry":{"x":80.633263800000066,"y":7.2837580000000344}},{"attributes":{"objectid":110,"name":"MOUNT HAVEN","address":"NO.97/7, SRI DAMMASIDDI MAWATHA, ASGIRIYA, KANDY, SRI LANKA","rooms":4.0,"grade":"SUPERIOR","district":"Kandy","aga_division":"Kandy","ps_mc_uc":"GANGAWATA KORALAYA","logitiute":80.631058,"latitude":7.304799,"orig_fid":-1},"geometry":{"x":80.631058000000053,"y":7.3047990000000596}},{"attributes":{"objectid":111,"name":"KANDY ROYAL RESORT","address":"NO.229/16, ROYAL WAY, THALWATTA, THANNAKUBURA ROAD, KANDY","rooms":5.0,"grade":"STANDARD","district":"Kandy","aga_division":"Gagawata Koralya","ps_mc_uc":"Gagawata","logitiute":80.6551408,"latitude":7.2838115,"orig_fid":-1},"geometry":{"x":80.655140800000083,"y":7.2838115000000698}},{"attributes":{"objectid":112,"name":"SEVEN SCENIC","address":"NO.7, KUMUDU MAWATHA, PRIMROSE GARDENS, KANDY","rooms":2.0,"grade":"DELUXE","district":"Kandy","aga_division":"Kandy","ps_mc_uc":"GANGAWATA KORALAYA","logitiute":80.6105692,"latitude":7.280184,"orig_fid":-1},"geometry":{"x":80.610569200000043,"y":7.2801840000000766}},{"attributes":{"objectid":113,"name":"LAL HOME STAY (SIGIRIYA)","address":"NO 209, AHELAGALA, SIGIRIYA","rooms":4.0,"grade":"STANDARD","district":"Matale","aga_division":"Dambulla Pradeshiya Sabha","ps_mc_uc":"Dambulla Divisional Secretariat","logitiute":80.7420766,"latitude":7.949786,"orig_fid":-1},"geometry":{"x":80.742076600000075,"y":7.9497860000000742}},{"attributes":{"objectid":114,"name":"WELCOME HOUSE","address":"NO 65 D/01,PANAMA.","rooms":1.0,"grade":"STANDARD","district":"Ampara","aga_division":"Ampara","ps_mc_uc":"Lahugala Divisional Secretariat","logitiute":81.808772,"latitude":6.758059,"orig_fid":-1},"geometry":{"x":81.808772000000033,"y":6.7580590000000598}},{"attributes":{"objectid":115,"name":"YASINDU HOMES","address":"PANAMA SOUTH, PANAMA","rooms":1.0,"grade":"STANDARD","district":"Ampara","aga_division":"Ampara","ps_mc_uc":"Lahugala Divisional Secretariat","logitiute":81.80218,"latitude":6.759676,"orig_fid":-1},"geometry":{"x":81.802180000000078,"y":6.75967600000007}},{"attributes":{"objectid":116,"name":"RIVER SIDE","address":"133/5, HEWAGAMA, KADUWELA","rooms":4.0,"grade":"DELUXE","district":"Colombo","aga_division":"Kaduwela Pradeshiya Sabha","ps_mc_uc":"kaduwela Divisional Secretariat","logitiute":79.9686038,"latitude":6.9024153,"orig_fid":-1},"geometry":{"x":79.968603800000039,"y":6.9024153000000297}},{"attributes":{"objectid":117,"name":"MOCKINGBIRD RESIDENCE","address":"1/7, UNIQUE VIEW ROAD, NUWARAELIYA","rooms":3.0,"grade":"STANDARD","district":"Nuwara Eliya","aga_division":"Nuwara Eliya","ps_mc_uc":"Nuwara Eliya Divisional Secretariat","logitiute":80.766106,"latitude":6.963297,"orig_fid":-1},"geometry":{"x":80.766106000000036,"y":6.9632970000000682}},{"attributes":{"objectid":118,"name":"JUNGLE BREEZE","address":"13B2/17B2, UPPER TANK ROAD, HANTHANA H.S, KANDY","rooms":3.0,"grade":"DELUXE","district":"Kandy","aga_division":"Kandy","ps_mc_uc":"Kandy Divisional Secretariat","logitiute":80.638769,"latitude":7.274439,"orig_fid":-1},"geometry":{"x":80.638769000000082,"y":7.2744390000000294}},{"attributes":{"objectid":119,"name":"DEWLEE HOMESTAY","address":"\"VIJAYA\" .HELLA HALPE, BANDARAWELA","rooms":2.0,"grade":"STANDARD","district":"Badulla","aga_division":"Ella Pradeshiya Sabha","ps_mc_uc":"Ella Divisional Secretariat","logitiute":81.044611,"latitude":6.888443,"orig_fid":-1},"geometry":{"x":81.044611000000032,"y":6.8884430000000521}},{"attributes":{"objectid":120,"name":"34/1/1, SUMANARAMA","address":"34/1/1, SUMANARAMA ROAD, MOUNT LAVINIA","rooms":5.0,"grade":"STANDARD","district":"Colombo","aga_division":"Dehiwala-Mount Lavinia","ps_mc_uc":"Dehiwala Divisional Secretariat","logitiute":79.869376,"latitude":6.840153,"orig_fid":-1},"geometry":{"x":79.869376000000045,"y":6.8401530000000434}},{"attributes":{"objectid":121,"name":"LAKEVILLA' RAJAGIRIYA","address":"LAKEVILLA'- RAJAGIYA,289/2, GEMUNU MAWATHA, KOTUWEGODA, RAJAGIRIYA","rooms":1.0,"grade":"SUPERIOR","district":"Colombo","aga_division":"Kaduwela Pradeshiya Sabha","ps_mc_uc":"kaduwela Divisional Secretariat","logitiute":79.920363,"latitude":6.908145,"orig_fid":-1},"geometry":{"x":79.920363000000066,"y":6.9081450000000473}},{"attributes":{"objectid":122,"name":"DREAM VILLA","address":"7/3, BRAHMANA WATTA ROAD, BALAPITIYA.","rooms":3.0,"grade":"SUPERIOR","district":"Galle","aga_division":"balapitiya","ps_mc_uc":"Balapitiya Divisional Secretariat","logitiute":80.04004,"latitude":6.28557,"orig_fid":-1},"geometry":{"x":80.040040000000033,"y":6.2855700000000638}},{"attributes":{"objectid":123,"name":"ANGEL VILLA","address":"17/10,MARAKKALAWATTE, 12070, BERUWALA","rooms":2.0,"grade":"SUPERIOR","district":"Kalutara","aga_division":"Beruwala Pradeshiya Sabha","ps_mc_uc":"Beruwala Divisional Secretariat","logitiute":79.992,"latitude":6.473838,"orig_fid":-1},"geometry":{"x":79.992000000000075,"y":6.4738380000000575}},{"attributes":{"objectid":124,"name":"VEGA HOLIDAY REST","address":"21/14/P3, ISURUPURA, ANURADHAPURA","rooms":2.0,"grade":"STANDARD","district":"Anuradhapura","aga_division":"Anuradhapura","ps_mc_uc":"Anuradhapura East","logitiute":80.426447,"latitude":8.315667,"orig_fid":-1},"geometry":{"x":80.426447000000053,"y":8.3156670000000759}},{"attributes":{"objectid":125,"name":"SERENE HOME STAY","address":"NO 917, MUDUNMANKADA ROAD, UDAWALAWE","rooms":2.0,"grade":"SUPERIOR","district":"Ratnapura","aga_division":"Embilipitiya","ps_mc_uc":"Embilipitiya Divisional Secretariat","logitiute":80.824239,"latitude":6.416555,"orig_fid":-1},"geometry":{"x":80.824239000000034,"y":6.4165550000000735}},{"attributes":{"objectid":126,"name":"YENRICH TOURIST INN","address":"86/G/1, TIVERTON ESTATE, PERADENIYA","rooms":5.0,"grade":"STANDARD","district":"Kandy","aga_division":"Yatinuwara Pradeshiya Sabha","ps_mc_uc":"Yatinuwara Divisional Secretariat","logitiute":80.580898,"latitude":7.268693,"orig_fid":-1},"geometry":{"x":80.580898000000047,"y":7.2686930000000416}},{"attributes":{"objectid":127,"name":"RANAWARA HOME STAY","address":"NO 11, PARADISE PARK, THAPODARAMA MAWATHA, HANTHANA , KANDY","rooms":3.0,"grade":"SUPERIOR","district":"Kandy","aga_division":"Gagawata Koralya","ps_mc_uc":"Gagawata","logitiute":80.628192,"latitude":7.278034,"orig_fid":-1},"geometry":{"x":80.62819200000007,"y":7.2780340000000479}},{"attributes":{"objectid":128,"name":"COLOMBO AIRPORT HOMESTAY","address":"NO 17, ZONE 1, MILLENNIUM CITY, KOTUGODA, JA-ELA","rooms":5.0,"grade":"SUPERIOR","district":"Gampaha","aga_division":"Ja-Ela Pradeshiya Sabha","ps_mc_uc":"Ja-Ela Divisional Secretariat","logitiute":79.9106305,"latitude":7.1206712,"orig_fid":-1},"geometry":{"x":79.910630500000082,"y":7.1206712000000607}},{"attributes":{"objectid":129,"name":"DIYAWARA HOME STAY","address":"NO-77/03,JAFFNA JUCTION,JAFFNA ROAD,ANURADHAPURA.","rooms":2.0,"grade":"STANDARD","district":"Anuradhapura","aga_division":"Anuradhapura","ps_mc_uc":"Anuradhapura East","logitiute":80.417293,"latitude":8.359991,"orig_fid":-1},"geometry":{"x":80.417293000000029,"y":8.3599910000000364}},{"attributes":{"objectid":130,"name":"RIVER VALLEY RESIDENCE","address":"4/A/2,GANGA ADDARA ROAD,LEWELLAGAMA,GUNNEPANA,20270","rooms":3.0,"grade":"DELUXE","district":"Kandy","aga_division":"Kandy","ps_mc_uc":"Kundasale Divisional Secretariat","logitiute":80.657749,"latitude":7.298416,"orig_fid":-1},"geometry":{"x":80.657749000000081,"y":7.2984160000000315}},{"attributes":{"objectid":131,"name":"SOUTHERN COMFORTS","address":"62 A/2, LIGHT HOUSE STREET, FORT, GALLE","rooms":4.0,"grade":"SUPERIOR","district":"Galle","aga_division":"Galle","ps_mc_uc":"Galle Divisional Secretariat","logitiute":80.218535,"latitude":6.025603,"orig_fid":-1},"geometry":{"x":80.218535000000031,"y":6.0256030000000464}},{"attributes":{"objectid":132,"name":"GALLE FACE COVE","address":"97, GALLE ROAD, COLOMBO 03","rooms":3.0,"grade":"DELUXE","district":"Colombo","aga_division":"Colombo","ps_mc_uc":"Colombo Divisional Secretariat","logitiute":79.847956,"latitude":6.920627,"orig_fid":-1},"geometry":{"x":79.847956000000067,"y":6.9206270000000245}},{"attributes":{"objectid":133,"name":"VILLA34","address":"NO34,SHADY GROVE AVENUE,COLOMBO 08","rooms":4.0,"grade":"DELUXE","district":"Colombo","aga_division":"Colombo","ps_mc_uc":"Colombo Divisional Secretariat","logitiute":79.881507,"latitude":6.911338,"orig_fid":-1},"geometry":{"x":79.881507000000056,"y":6.9113380000000575}},{"attributes":{"objectid":134,"name":"SERENE RESIDENCE","address":"NO. 60, SRI DHARMARAMA ROAD, KATUKURUNDA, KALUTARA SOUTH","rooms":3.0,"grade":"STANDARD","district":"Kalutara","aga_division":"Kalutara Pradeshiya Sabha","ps_mc_uc":"Kalutara Divisional Secretariat","logitiute":79.98293,"latitude":6.565803,"orig_fid":-1},"geometry":{"x":79.982930000000067,"y":6.5658030000000736}},{"attributes":{"objectid":135,"name":"ELEGANT HAMLETS HOME STAY","address":"NO.48, KACHCHAKADUWA,WEERAKODIYANA","rooms":1.0,"grade":"DELUXE","district":"Kurunegala","aga_division":"Udubaddawa Pradeshiya Sabha","ps_mc_uc":"Udubaddawa Divisional Secretariat","logitiute":79.890546,"latitude":7.501223,"orig_fid":-1},"geometry":{"x":79.890546000000029,"y":7.5012230000000386}},{"attributes":{"objectid":136,"name":"SANASUMA VILLA","address":"SANASUMA, BODHIYA ROAD, SOORIYAGODA, BENTOTA.","rooms":1.0,"grade":"STANDARD","district":"Galle","aga_division":"Bentota Pradeshiya Sabha","ps_mc_uc":"Benthota Divisional Secretariat","logitiute":79.997446,"latitude":6.417567,"orig_fid":-1},"geometry":{"x":79.997446000000082,"y":6.4175670000000764}},{"attributes":{"objectid":137,"name":"ELLA HIDE VIEW","address":"ETHIMALE,KITHAL-ELLA,ELLA","rooms":4.0,"grade":"STANDARD","district":"Badulla","aga_division":"Ella Pradeshiya Sabha","ps_mc_uc":"Ella Divisional Secretariat","logitiute":81.0417434,"latitude":6.869702,"orig_fid":-1},"geometry":{"x":81.04174340000003,"y":6.8697020000000748}},{"attributes":{"objectid":138,"name":"MONARCH ELLA","address":"ETHULGASHINNA,KITHAL-ELLA,ELLA","rooms":3.0,"grade":"STANDARD","district":"Badulla","aga_division":"Ella Pradeshiya Sabha","ps_mc_uc":"Ella Divisional Secretariat","logitiute":81.045554,"latitude":6.871848,"orig_fid":-1},"geometry":{"x":81.045554000000038,"y":6.8718480000000568}},{"attributes":{"objectid":139,"name":"ROYAL VANTAGE","address":"ETHULGASHINNA,KITHAL-ELLA,ELLA","rooms":3.0,"grade":"STANDARD","district":"Badulla","aga_division":"Ella Pradeshiya Sabha","ps_mc_uc":"Ella Divisional Secretariat","logitiute":81.045511,"latitude":6.873144,"orig_fid":-1},"geometry":{"x":81.045511000000033,"y":6.8731440000000248}},{"attributes":{"objectid":140,"name":"COZY HOME STAY","address":"WATERFALL ROAD,WATAGODA WATTA,KITHAL-ELLA,ELLA","rooms":1.0,"grade":"STANDARD","district":"Badulla","aga_division":"Ella Pradeshiya Sabha","ps_mc_uc":"Ella Divisional Secretariat","logitiute":81.043735,"latitude":6.868075,"orig_fid":-1},"geometry":{"x":81.043735000000083,"y":6.868075000000033}},{"attributes":{"objectid":141,"name":"LAURA","address":"SIRISEWANA,KITHAL-ELLA,ELLA","rooms":5.0,"grade":"SUPERIOR","district":"Badulla","aga_division":"Ella Pradeshiya Sabha","ps_mc_uc":"Ella Divisional Secretariat","logitiute":81.045358,"latitude":6.871415,"orig_fid":-1},"geometry":{"x":81.045358000000078,"y":6.87141500000007}},{"attributes":{"objectid":142,"name":"NAMAL'S GREAT VIEW HOME STAY","address":"KITHAL-ELLA,ELLA","rooms":3.0,"grade":"STANDARD","district":"Badulla","aga_division":"Ella Pradeshiya Sabha","ps_mc_uc":"Ella Divisional Secretariat","logitiute":81.042817,"latitude":6.870018,"orig_fid":-1},"geometry":{"x":81.04281700000007,"y":6.8700180000000728}},{"attributes":{"objectid":143,"name":"DIMUTHU HOME STAY","address":"TEMPLE ROAD,ETHIMALE,KITHAL-ELLA,ELLA","rooms":1.0,"grade":"STANDARD","district":"Badulla","aga_division":"Ella Pradeshiya Sabha","ps_mc_uc":"Ella Divisional Secretariat","logitiute":81.0426123,"latitude":6.869209,"orig_fid":-1},"geometry":{"x":81.04261230000003,"y":6.869209000000069}},{"attributes":{"objectid":144,"name":"PARAISO HOME STAY","address":"TEMPLE ROAD,KITHAL-ELLA,ELLA","rooms":1.0,"grade":"STANDARD","district":"Badulla","aga_division":"Ella Pradeshiya Sabha","ps_mc_uc":"Ella Divisional Secretariat","logitiute":80.730977,"latitude":7.863201,"orig_fid":-1},"geometry":{"x":80.730977000000053,"y":7.8632010000000605}},{"attributes":{"objectid":145,"name":"BLOOMING ROSE","address":"ETHIMALE,KITHAL-ELLA,ELLA","rooms":2.0,"grade":"STANDARD","district":"Badulla","aga_division":"Ella Pradeshiya Sabha","ps_mc_uc":"Ella Divisional Secretariat","logitiute":81.042174,"latitude":6.869789,"orig_fid":-1},"geometry":{"x":81.042174000000045,"y":6.8697890000000257}},{"attributes":{"objectid":146,"name":"ROMANCE IN ELLA","address":"MEDAPATHANA,KITHAL-ELLA,ELLA","rooms":1.0,"grade":"STANDARD","district":"Badulla","aga_division":"Ella Pradeshiya Sabha","ps_mc_uc":"Ella Divisional Secretariat","logitiute":81.042083,"latitude":6.86868,"orig_fid":-1},"geometry":{"x":81.042083000000048,"y":6.8686800000000403}},{"attributes":{"objectid":147,"name":"WATERFALL VIEW","address":"NO,226,WATAGODAWATTA,KITHAL-ELLA,ELLA","rooms":4.0,"grade":"STANDARD","district":"Badulla","aga_division":"Ella Pradeshiya Sabha","ps_mc_uc":"Ella Divisional Secretariat","logitiute":81.043556,"latitude":6.868938,"orig_fid":-1},"geometry":{"x":81.043556000000081,"y":6.868938000000071}},{"attributes":{"objectid":148,"name":"NICEVIEW HOMESTAY","address":"KUDUGAL PATHANA,KITHAL-ELLA,ELLA","rooms":3.0,"grade":"STANDARD","district":"Badulla","aga_division":"Ella Pradeshiya Sabha","ps_mc_uc":"Ella Divisional Secretariat","logitiute":81.036464,"latitude":6.866145,"orig_fid":-1},"geometry":{"x":81.03646400000008,"y":6.8661450000000741}},{"attributes":{"objectid":149,"name":"GOLDEN VIEW GUEST","address":"MEDAPATHANA,KITHAL-ELLA,ELLA","rooms":4.0,"grade":"STANDARD","district":"Badulla","aga_division":"Ella Pradeshiya Sabha","ps_mc_uc":"Ella Divisional Secretariat","logitiute":81.035746,"latitude":6.869177,"orig_fid":-1},"geometry":{"x":81.035746000000074,"y":6.8691770000000361}},{"attributes":{"objectid":150,"name":"WILL GUEST HOMESTAY","address":"\"SANIRU\"KIRIWETIYA,KITHAL-ELLA,ELLA","rooms":2.0,"grade":"STANDARD","district":"Badulla","aga_division":"Ella Pradeshiya Sabha","ps_mc_uc":"Ella Divisional Secretariat","logitiute":81.038657,"latitude":6.867416,"orig_fid":-1},"geometry":{"x":81.038657000000057,"y":6.8674160000000484}},{"attributes":{"objectid":151,"name":"OWIN HILL HOMESTAY","address":"\"SUCHITHRA\",KUDUGAL PATHANA,KITHAL-ELLA,ELLA","rooms":1.0,"grade":"STANDARD","district":"Badulla","aga_division":"Ella Pradeshiya Sabha","ps_mc_uc":"Ella Divisional Secretariat","logitiute":81.038417,"latitude":6.867171,"orig_fid":-1},"geometry":{"x":81.038417000000038,"y":6.8671710000000417}},{"attributes":{"objectid":152,"name":"DABAN HOMESTAY","address":"\"SEWWANDI\",KITHAL-ELLA,ELLA","rooms":2.0,"grade":"STANDARD","district":"Badulla","aga_division":"Ella Pradeshiya Sabha","ps_mc_uc":"Ella Divisional Secretariat","logitiute":81.03779,"latitude":6.866365,"orig_fid":-1},"geometry":{"x":81.03779000000003,"y":6.8663650000000302}},{"attributes":{"objectid":153,"name":"LUCKY STAR","address":"\"LUCKY STAR\" KITHAL-ELLA,ELLA","rooms":4.0,"grade":"STANDARD","district":"Badulla","aga_division":"Ella Pradeshiya Sabha","ps_mc_uc":"Ella Divisional Secretariat","logitiute":81.040488,"latitude":6.870025,"orig_fid":-1},"geometry":{"x":81.040488000000039,"y":6.8700250000000551}},{"attributes":{"objectid":154,"name":"THE LOVER STAY","address":"AMBAGAHAWATTA,MEDAPATHANA,KITHAL-ELLA,ELLA","rooms":3.0,"grade":"STANDARD","district":"Badulla","aga_division":"Ella Pradeshiya Sabha","ps_mc_uc":"Ella Divisional Secretariat","logitiute":81.041244,"latitude":6.870241,"orig_fid":-1},"geometry":{"x":81.041244000000063,"y":6.8702410000000214}},{"attributes":{"objectid":155,"name":"BLUE RIBBON HOMESTAY","address":"WATERFALL ROAD,KITHAL-ELLA,ELLA","rooms":3.0,"grade":"STANDARD","district":"Badulla","aga_division":"Ella Pradeshiya Sabha","ps_mc_uc":"Ella Divisional Secretariat","logitiute":81.0444555,"latitude":6.8702405,"orig_fid":-1},"geometry":{"x":81.044455500000083,"y":6.8702405000000226}},{"attributes":{"objectid":156,"name":"ELLA RIVER FRONT","address":"\"SISILA\" WELLAWAYA ROAD,ELLA","rooms":2.0,"grade":"STANDARD","district":"Badulla","aga_division":"Ella Pradeshiya Sabha","ps_mc_uc":"Ella Divisional Secretariat","logitiute":81.0453657,"latitude":6.8694274,"orig_fid":-1},"geometry":{"x":81.045365700000048,"y":6.8694274000000632}},{"attributes":{"objectid":157,"name":"SILENT NEST","address":"WATAGODAWATTA,KITHAL-ELLA,ELLA","rooms":1.0,"grade":"STANDARD","district":"Badulla","aga_division":"Ella Pradeshiya Sabha","ps_mc_uc":"Ella Divisional Secretariat","logitiute":81.043371,"latitude":6.867291,"orig_fid":-1},"geometry":{"x":81.043371000000036,"y":6.8672910000000229}},{"attributes":{"objectid":158,"name":"BRILLIANT VIEW","address":"WATERFALL HOMESTAY ROAD,KITHAL-ELLA,ELLA","rooms":4.0,"grade":"STANDARD","district":"Badulla","aga_division":"Ella Pradeshiya Sabha","ps_mc_uc":"Ella Divisional Secretariat","logitiute":81.045041,"latitude":6.870346,"orig_fid":-1},"geometry":{"x":81.045041000000083,"y":6.8703460000000405}},{"attributes":{"objectid":159,"name":"ELLA MOUNT VIEW GUEST INN","address":"WATAGODA WATTA ROAD,KITHAL-ELLA,ELLA","rooms":3.0,"grade":"STANDARD","district":"Badulla","aga_division":"Ella Pradeshiya Sabha","ps_mc_uc":"Ella Divisional Secretariat","logitiute":81.045952,"latitude":6.870878,"orig_fid":-1},"geometry":{"x":81.045952000000057,"y":6.8708780000000615}},{"attributes":{"objectid":160,"name":"MAPLE HOMESTAY","address":"\"DARHANA\" KITHAL-ELLA,ELLA","rooms":2.0,"grade":"STANDARD","district":"Badulla","aga_division":"Ella Pradeshiya Sabha","ps_mc_uc":"Ella Divisional Secretariat","logitiute":80.626737,"latitude":7.288128,"orig_fid":-1},"geometry":{"x":80.626737000000048,"y":7.2881280000000288}},{"attributes":{"objectid":161,"name":"RIVER SPLENDOR HOMESTAY","address":"16 MILE POST,WELLAWAYA ROAD,ELLA","rooms":2.0,"grade":"STANDARD","district":"Badulla","aga_division":"Ella Pradeshiya Sabha","ps_mc_uc":"Ella Divisional Secretariat","logitiute":81.04668,"latitude":6.868413,"orig_fid":-1},"geometry":{"x":81.046680000000038,"y":6.8684130000000323}},{"attributes":{"objectid":162,"name":"LEISURE DREAM INN","address":"WELLAWAYA ROAD,ELLA","rooms":2.0,"grade":"STANDARD","district":"Badulla","aga_division":"Ella Pradeshiya Sabha","ps_mc_uc":"Ella Divisional Secretariat","logitiute":81.046772,"latitude":6.870086,"orig_fid":-1},"geometry":{"x":81.046772000000033,"y":6.8700860000000716}},{"attributes":{"objectid":163,"name":"RAWANA FALL VIEW","address":"\"SISILA\" WELLAWAYA ROAD,ELLA","rooms":4.0,"grade":"STANDARD","district":"Badulla","aga_division":"Ella Pradeshiya Sabha","ps_mc_uc":"Ella Divisional Secretariat","logitiute":81.046314,"latitude":6.870231,"orig_fid":-1},"geometry":{"x":81.046314000000052,"y":6.8702310000000466}},{"attributes":{"objectid":164,"name":"WELCOME INN","address":"\"HEMAMALEE\" KITHAL-ELLA,ELLA","rooms":2.0,"grade":"STANDARD","district":"Badulla","aga_division":"Ella Pradeshiya Sabha","ps_mc_uc":"Ella Divisional Secretariat","logitiute":81.045965,"latitude":6.869021,"orig_fid":-1},"geometry":{"x":81.045965000000081,"y":6.869021000000032}},{"attributes":{"objectid":165,"name":"SERENITY HOMESTAY","address":"WATERFALL ROAD,WATAGODAWATTA,KITHAL-ELLA,ELLA","rooms":2.0,"grade":"STANDARD","district":"Badulla","aga_division":"Ella Pradeshiya Sabha","ps_mc_uc":"Ella Divisional Secretariat","logitiute":81.044441,"latitude":6.86814,"orig_fid":-1},"geometry":{"x":81.044441000000063,"y":6.8681400000000394}},{"attributes":{"objectid":166,"name":"IDYLL HOMESTAY","address":"WATAGODAWATTA, KITHALAELLA, ELLA","rooms":4.0,"grade":"STANDARD","district":"Badulla","aga_division":"Ella Pradeshiya Sabha","ps_mc_uc":"Ella Divisional Secretariat","logitiute":81.0436273,"latitude":6.8691837,"orig_fid":-1},"geometry":{"x":81.043627300000082,"y":6.8691837000000646}},{"attributes":{"objectid":167,"name":"AMBA VILLA","address":"26/A, NITHULEMADU, RAJAWELLA, DIGANA, KANDY","rooms":2.0,"grade":"DELUXE","district":"Kandy","aga_division":"Kandy","ps_mc_uc":"Kandy Divisional Secretariat","logitiute":80.7823734,"latitude":7.255355,"orig_fid":-1},"geometry":{"x":80.78237340000004,"y":7.2553550000000655}},{"attributes":{"objectid":168,"name":"MANGO VILLA","address":"NO-13/129, 3RD LANE, CHANDRA WETTASINGHE MAWATHA, NAWALA, KOSWATTA.","rooms":3.0,"grade":"DELUXE","district":"Colombo","aga_division":"Colombo","ps_mc_uc":"Colombo Divisional Secretariat","logitiute":79.897213,"latitude":6.896087,"orig_fid":-1},"geometry":{"x":79.897213000000079,"y":6.8960870000000227}},{"attributes":{"objectid":169,"name":"NATURE PARADISE","address":"ETHULGASHINNA,KITHAL-ELLA,ELLA","rooms":2.0,"grade":"STANDARD","district":"Badulla","aga_division":"Ella Pradeshiya Sabha","ps_mc_uc":"Ella Divisional Secretariat","logitiute":81.083528,"latitude":6.861187,"orig_fid":-1},"geometry":{"x":81.083528000000058,"y":6.8611870000000295}},{"attributes":{"objectid":170,"name":"PADDY FIELD VIEW","address":"\"SAMAN\",WELLAWAYA ROAD,ELLA","rooms":5.0,"grade":"STANDARD","district":"Badulla","aga_division":"Ella Pradeshiya Sabha","ps_mc_uc":"Ella Divisional Secretariat","logitiute":81.095229,"latitude":6.867295,"orig_fid":-1},"geometry":{"x":81.095229000000074,"y":6.8672950000000696}},{"attributes":{"objectid":171,"name":"THE ONE STAR HOME STAY","address":"ETHIMALE GEDARA,KITHAL-ELLA,ELLA","rooms":1.0,"grade":"STANDARD","district":"Badulla","aga_division":"Ella Pradeshiya Sabha","ps_mc_uc":"Ella Divisional Secretariat","logitiute":81.042423,"latitude":6.870513,"orig_fid":-1},"geometry":{"x":81.042423000000042,"y":6.8705130000000736}},{"attributes":{"objectid":172,"name":"7TH HILL","address":"KIRIMETIYA GEDARA,KITHAL-ELLA,ELLA","rooms":3.0,"grade":"STANDARD","district":"Badulla","aga_division":"Ella Pradeshiya Sabha","ps_mc_uc":"Ella Divisional Secretariat","logitiute":81.04003,"latitude":6.868833,"orig_fid":-1},"geometry":{"x":81.040030000000058,"y":6.8688330000000519}},{"attributes":{"objectid":173,"name":"VILLAGE VIEW HOME STAY","address":"ETHULGASHINNA,KITHAL-ELLA,ELLA","rooms":3.0,"grade":"STANDARD","district":"Badulla","aga_division":"Ella Pradeshiya Sabha","ps_mc_uc":"Ella Divisional Secretariat","logitiute":81.04545,"latitude":6.871314,"orig_fid":-1},"geometry":{"x":81.045450000000073,"y":6.8713140000000408}},{"attributes":{"objectid":174,"name":"SUNRAY HOME STAY","address":"\"SAMAN\" WELLAWAYA ROAD,ELLA","rooms":2.0,"grade":"STANDARD","district":"Badulla","aga_division":"Ella Pradeshiya Sabha","ps_mc_uc":"Ella Divisional Secretariat","logitiute":81.046012,"latitude":6.870202,"orig_fid":-1},"geometry":{"x":81.046012000000076,"y":6.870202000000063}},{"attributes":{"objectid":175,"name":"AVINKA VILLA","address":"WALPOLAWATHTHA, TALPE NORTH, UNAWATUNA","rooms":3.0,"grade":"STANDARD","district":"Galle","aga_division":"Akmeemana","ps_mc_uc":"Akmeemana Divisional Secretariat","logitiute":80.278126,"latitude":6.000995,"orig_fid":-1},"geometry":{"x":80.278126000000043,"y":6.0009950000000458}},{"attributes":{"objectid":176,"name":"MORNING LIGHT","address":"WATAGODAWATTA,KITHAL-ELLA,ELLA","rooms":1.0,"grade":"STANDARD","district":"Badulla","aga_division":"Ella Pradeshiya Sabha","ps_mc_uc":"Ella Divisional Secretariat","logitiute":81.044952,"latitude":6.869198,"orig_fid":-1},"geometry":{"x":81.04495200000008,"y":6.8691980000000399}},{"attributes":{"objectid":177,"name":"REVERIE HILL BUNGALOW","address":"40/8D, HILPANKADURA MAWATHA, KANDY","rooms":2.0,"grade":"SUPERIOR","district":"Kandy","aga_division":"Kandy","ps_mc_uc":"Gagawata","logitiute":80.654138,"latitude":7.277513,"orig_fid":-1},"geometry":{"x":80.654138000000046,"y":7.2775130000000559}},{"attributes":{"objectid":178,"name":"EAGLE LODGE","address":"EAGLE LODGE, VICTORIA GOLF RESORT, DIGANA","rooms":4.0,"grade":"DELUXE","district":"Kandy","aga_division":"Kandy","ps_mc_uc":"Kandy Divisional Secretariat","logitiute":80.7742644,"latitude":7.2650791,"orig_fid":-1},"geometry":{"x":80.77426440000005,"y":7.2650791000000368}},{"attributes":{"objectid":179,"name":"TRAVELLERS HOME","address":"538 (67/11), GOHAGODA ROAD, KATUGASTOTA","rooms":2.0,"grade":"STANDARD","district":"Kandy","aga_division":"Harispattuwa Pradeshiya Sabha","ps_mc_uc":"Harispattuwa Divisional Secretariat","logitiute":80.623502,"latitude":7.315674,"orig_fid":-1},"geometry":{"x":80.62350200000003,"y":7.3156740000000582}},{"attributes":{"objectid":180,"name":"THE CITY HIDEOUT","address":"NO 475/19, LAKE CRESCENT, RAJAGIRIYA","rooms":5.0,"grade":"STANDARD","district":"Colombo","aga_division":"Kotte Muncipal Council","ps_mc_uc":"Kotte Divisional Secretariat","logitiute":79.888422,"latitude":6.909424,"orig_fid":-1},"geometry":{"x":79.888422000000048,"y":6.9094240000000582}},{"attributes":{"objectid":181,"name":"HARITHA COTTAGE","address":"60/Q/3 LUMBINI GARDENS LUMBINI MAWATHA,DALUGAMA,KELANIYA","rooms":2.0,"grade":"SUPERIOR","district":"Gampaha","aga_division":"Kelaniya Pradeshiya Sabha","ps_mc_uc":"Mahara Divisional Secretariat","logitiute":79.919137,"latitude":6.975736,"orig_fid":-1},"geometry":{"x":79.919137000000035,"y":6.9757360000000403}},{"attributes":{"objectid":182,"name":"LOVE IS SWEET COTTAGE","address":"\"SAMANSIRI\" ETHIMALE,KITHAL-ELLA,ELLA","rooms":1.0,"grade":"STANDARD","district":"Badulla","aga_division":"Ella Pradeshiya Sabha","ps_mc_uc":"Ella Divisional Secretariat","logitiute":81.044138,"latitude":6.86269,"orig_fid":-1},"geometry":{"x":81.044138000000032,"y":6.8626900000000433}},{"attributes":{"objectid":183,"name":"DAWN VIEW HOMESTAY","address":"ELLA WATERFALL ROAD,ELLA","rooms":2.0,"grade":"STANDARD","district":"Badulla","aga_division":"Ella Pradeshiya Sabha","ps_mc_uc":"Ella Divisional Secretariat","logitiute":81.052249,"latitude":6.881556,"orig_fid":-1},"geometry":{"x":81.052249000000074,"y":6.881556000000046}},{"attributes":{"objectid":184,"name":"MY INN GUEST HOUSE","address":"NO:60, KUDUGALPATHANA, KITHALELLA, ELLA","rooms":2.0,"grade":"STANDARD","district":"Badulla","aga_division":"Ella Pradeshiya Sabha","ps_mc_uc":"Ella Divisional Secretariat","logitiute":81.044138,"latitude":6.86269,"orig_fid":-1},"geometry":{"x":81.044138000000032,"y":6.8626900000000433}},{"attributes":{"objectid":185,"name":"CINNAMON APARTMENT","address":"NO 12/B/2/1,WATTALPOLA ROAD, WALANA, PANADURA","rooms":2.0,"grade":"STANDARD","district":"Kalutara","aga_division":"Panadura","ps_mc_uc":"Panadura Divisional Secretariat","logitiute":79.9067978,"latitude":6.7287176,"orig_fid":-1},"geometry":{"x":79.906797800000049,"y":6.7287176000000386}},{"attributes":{"objectid":186,"name":"SKYLINE MOUNT BUNGALOW","address":"236/29,SUMMER FIELD SUMMIT, ANGUNAWELA, PERADENIYA","rooms":4.0,"grade":"DELUXE","district":"Kandy","aga_division":"Udunuwara Pradeshiya Sabha","ps_mc_uc":"Udunuwara Divisional Secretariat","logitiute":80.591459,"latitude":7.243702,"orig_fid":-1},"geometry":{"x":80.591459000000043,"y":7.2437020000000416}},{"attributes":{"objectid":187,"name":"HEAVEN UPON RICE FIELDS","address":"3/3 A NUWARAVEWA WATHTHA, MIHINTHALA ROAD, JAFFNA JUNCTION, ANURADAPURA.","rooms":3.0,"grade":"SUPERIOR","district":"Anuradhapura","aga_division":"Anuradhapura","ps_mc_uc":"Anuradhapura East","logitiute":80.5,"latitude":8.35,"orig_fid":-1},"geometry":{"x":80.500000000000057,"y":8.3500000000000227}},{"attributes":{"objectid":188,"name":"NATURE VIEW RESORT","address":"NO:83/B PAHALA MADAMPALA,KATULANDA,AKARAGAMA","rooms":3.0,"grade":"STANDARD","district":"Gampaha","aga_division":"Negombo","ps_mc_uc":"Divulapitiya Divisional Secretariat","logitiute":79.957041,"latitude":7.27348,"orig_fid":-1},"geometry":{"x":79.957041000000061,"y":7.2734800000000632}},{"attributes":{"objectid":189,"name":"THE CASTLE OF KANDY","address":"NO:147/22, DHARMASHOKA MW, LEWELLA, KANDY","rooms":4.0,"grade":"DELUXE","district":"Kandy","aga_division":"Kandy","ps_mc_uc":"Kandy Divisional Secretariat","logitiute":80.647176,"latitude":7.301356,"orig_fid":-1},"geometry":{"x":80.647176000000059,"y":7.3013560000000552}},{"attributes":{"objectid":190,"name":"CAMBELS LANE FOREST VIEW","address":"20/17A, 1ST LANE, SIYAMBALAGASTENNA ROAD, KANDY","rooms":2.0,"grade":"STANDARD","district":"Kandy","aga_division":"Kandy","ps_mc_uc":"Kandy Divisional Secretariat","logitiute":80.630684,"latitude":7.322684,"orig_fid":-1},"geometry":{"x":80.630684000000031,"y":7.3226840000000379}},{"attributes":{"objectid":191,"name":"SUGAR VILLA","address":"NO/18F,PETER MEDIS ROAD,NEGAMBO","rooms":5.0,"grade":"SUPERIOR","district":"Gampaha","aga_division":"Negombo","ps_mc_uc":"Negombo Divisional Secretariat","logitiute":79.842796,"latitude":7.227029,"orig_fid":-1},"geometry":{"x":79.842796000000078,"y":7.2270290000000728}},{"attributes":{"objectid":192,"name":"JAYAVIMANA","address":"NO.147/20, DHARMASHOKA MAWATHA, LEWELLA, KANDY","rooms":1.0,"grade":"STANDARD","district":"Kandy","aga_division":"Kandy","ps_mc_uc":"GANGAWATA KORALAYA","logitiute":80.649138,"latitude":7.299508,"orig_fid":-1},"geometry":{"x":80.64913800000005,"y":7.2995080000000598}},{"attributes":{"objectid":193,"name":"THIAGI INN","address":"20/B, ATAPATTU ROAD, DEHIWALA","rooms":1.0,"grade":"SUPERIOR","district":"Colombo","aga_division":"Dehiwala-Mount Lavinia","ps_mc_uc":"Dehiwala Divisional Secretariat","logitiute":79.880083,"latitude":6.830118,"orig_fid":-1},"geometry":{"x":79.88008300000007,"y":6.8301180000000272}},{"attributes":{"objectid":194,"name":"DILU'S HOMESTAY","address":"14/21, 1ST CROSS,THIRUCHENDUR, BATTICALOA","rooms":2.0,"grade":"STANDARD","district":"Batticaloa","aga_division":"Batticaloa","ps_mc_uc":"Manmunai North Divisional Secretariat","logitiute":81.67473,"latitude":7.730997,"orig_fid":-1},"geometry":{"x":81.674730000000068,"y":7.730997000000059}},{"attributes":{"objectid":195,"name":"GLORIA GUEST ROOMS","address":"78 MAIN ROAD,KALPITIYA.","rooms":3.0,"grade":"STANDARD","district":"Puttalam","aga_division":"Kalpitiya Pradeshiya Sabha","ps_mc_uc":"Puttalam Divisional Secretariat","logitiute":79.759614,"latitude":8.229528,"orig_fid":-1},"geometry":{"x":79.759614000000056,"y":8.229528000000073}},{"attributes":{"objectid":196,"name":"SANUPA VILLA KANDY","address":"NO. 09 MAHAWELI BREEZE,,MALIGATHENNA GURUDENIYA,,KANDY.","rooms":2.0,"grade":"SUPERIOR","district":"Kandy","aga_division":"Gagawata Koralya","ps_mc_uc":"Kandy Divisional Secretariat","logitiute":80.703184,"latitude":7.265038,"orig_fid":-1},"geometry":{"x":80.703184000000078,"y":7.2650380000000609}},{"attributes":{"objectid":197,"name":"THAL SEWANA","address":"37/B, PIDURANGALA TEMPLE ROAD,SIGIRIYA,","rooms":4.0,"grade":"SUPERIOR","district":"Matale","aga_division":"Dambulla Pradeshiya Sabha","ps_mc_uc":"Dambulla Divisional Secretariat","logitiute":80.76218,"latitude":7.965655,"orig_fid":-1},"geometry":{"x":80.762180000000058,"y":7.9656550000000266}},{"attributes":{"objectid":198,"name":"GRANARY HOME STAY","address":"NO 80,,PAMUNUWA,,PILIMATALAWA.","rooms":4.0,"grade":"SUPERIOR","district":"Kandy","aga_division":"Udunuwara Pradeshiya Sabha","ps_mc_uc":"Udunuwara Divisional Secretariat","logitiute":80.572178,"latitude":7.240107,"orig_fid":-1},"geometry":{"x":80.572178000000065,"y":7.2401070000000232}},{"attributes":{"objectid":199,"name":"JUNGLE VILLAGE HOMESTAY","address":"A-92,,GALPOLA,,MOLAGODA,","rooms":1.0,"grade":"STANDARD","district":"Kegalle","aga_division":"Rambukkana Pradeshiya Sabha","ps_mc_uc":"Rambukkana Divisional Secretariat","logitiute":80.389404,"latitude":7.277056,"orig_fid":-1},"geometry":{"x":80.38940400000007,"y":7.2770560000000728}},{"attributes":{"objectid":200,"name":"GREAT HOSPITALITY IN HILL COUNTRY","address":"NO 8/4 A ,,MADDEPATANA,AMPIYIYA","rooms":3.0,"grade":"STANDARD","district":"Kandy","aga_division":"Kandy","ps_mc_uc":"Ganga Ihala Korale Divisional Secretariat","logitiute":80.66321,"latitude":7.268636,"orig_fid":-1},"geometry":{"x":80.663210000000049,"y":7.2686360000000718}},{"attributes":{"objectid":201,"name":"PARISARE","address":"97/3,ROSMEAD PLACE,COLOMBO 7","rooms":1.0,"grade":"STANDARD","district":"Colombo","aga_division":"Colombo","ps_mc_uc":"Colombo Divisional Secretariat","logitiute":79.866084,"latitude":6.906528,"orig_fid":-1},"geometry":{"x":79.866084000000058,"y":6.9065280000000371}},{"attributes":{"objectid":202,"name":"KEVINS VILLA","address":"36/12,SANGARAJA MAWATHA,KANDY","rooms":4.0,"grade":"STANDARD","district":"Kandy","aga_division":"Kandy","ps_mc_uc":"Kandy Divisional Secretariat","logitiute":80.643254,"latitude":7.289666,"orig_fid":-1},"geometry":{"x":80.64325400000007,"y":7.2896660000000679}},{"attributes":{"objectid":203,"name":"EVERGREEN HOMESTAY","address":"NO..33,MABLE COORAY MAVATHA,PRIMROSEGARDEN,KANDY","rooms":2.0,"grade":"SUPERIOR","district":"Kandy","aga_division":"Kandy","ps_mc_uc":"GANGAWATA KORALAYA","logitiute":80.614567,"latitude":7.281205,"orig_fid":-1},"geometry":{"x":80.614567000000079,"y":7.2812050000000568}},{"attributes":{"objectid":204,"name":"RIVORICH RESIDENCE","address":"NO 8/6, RIVERSIDE GARDEN, SIRIMALWATTA,,GUNNEPANA,KANDY","rooms":7.0,"grade":"DELUXE","district":"Kandy","aga_division":"Kundasle","ps_mc_uc":"Kundasale Divisional Secretariat","logitiute":80.669273,"latitude":7.315507,"orig_fid":-1},"geometry":{"x":80.669273000000032,"y":7.3155070000000251}},{"attributes":{"objectid":205,"name":"LUMBINI INN","address":"NO 7,L,PARADISE GARDEN, LEWKE MAWATHA,WAHUGAPITIYA.,,PUSSELLAWA","rooms":4.0,"grade":"STANDARD","district":"Kandy","aga_division":"Udapalatha","ps_mc_uc":"Udapalatha Divisional Secretariat","logitiute":80.638241,"latitude":7.110983,"orig_fid":-1},"geometry":{"x":80.63824100000005,"y":7.1109830000000329}},{"attributes":{"objectid":206,"name":"KANDY HILL VIEW HOME STAY","address":"50/10,,UPLANDS,,KANDY.","rooms":1.0,"grade":"STANDARD","district":"Kandy","aga_division":"Kandy","ps_mc_uc":"Kandy Divisional Secretariat","logitiute":80.633726,"latitude":7.290572,"orig_fid":-1},"geometry":{"x":80.633726000000081,"y":7.2905720000000542}},{"attributes":{"objectid":207,"name":"AVAANA BY SPRINGHILLS","address":"103/2, DOOLWALA,,HALLOLUWA,KANDY","rooms":2.0,"grade":"STANDARD","district":"Kandy","aga_division":"Harispattuwa Pradeshiya Sabha","ps_mc_uc":"Harispattuwa Divisional Secretariat","logitiute":80.595915,"latitude":7.311916,"orig_fid":-1},"geometry":{"x":80.595915000000048,"y":7.3119160000000534}},{"attributes":{"objectid":208,"name":"OCEAN PEBBLES","address":"24A,,HILL STREET,,DEHIWELA","rooms":3.0,"grade":"SUPERIOR","district":"Colombo","aga_division":"Dehiwala-Mount Lavinia","ps_mc_uc":"Dehiwala Divisional Secretariat","logitiute":79.8665,"latitude":6.851297,"orig_fid":-1},"geometry":{"x":79.86650000000003,"y":6.851297000000045}},{"attributes":{"objectid":209,"name":"LAKESIDE LODGE KANDY","address":"36/1,SANGARAJA MAWATHE,KANDY","rooms":2.0,"grade":"STANDARD","district":"Kandy","aga_division":"Kandy","ps_mc_uc":"Kandy Divisional Secretariat","logitiute":80.643209,"latitude":7.28971,"orig_fid":-1},"geometry":{"x":80.64320900000007,"y":7.2897100000000705}},{"attributes":{"objectid":210,"name":"CHAMALKAS HOMESTAY","address":"67A,CHURCH STREET,FORT GALLE","rooms":4.0,"grade":"DELUXE","district":"Galle","aga_division":"Galle","ps_mc_uc":"Galle Divisional Secretariat","logitiute":80.216964,"latitude":6.029135,"orig_fid":-1},"geometry":{"x":80.216964000000075,"y":6.0291350000000534}},{"attributes":{"objectid":211,"name":"VILLA ARUNALU KANDY","address":"NO 383/D ILLUKMODARA ESTATE,THENNEKUMBURA,KANDY","rooms":4.0,"grade":"DELUXE","district":"Kandy","aga_division":"Gagawata Koralya","ps_mc_uc":"Kandy Divisional Secretariat","logitiute":80.633726,"latitude":7.290572,"orig_fid":-1},"geometry":{"x":80.633726000000081,"y":7.2905720000000542}}]}