{"type":"FeatureCollection","features":[{"type":"Feature","id":343,"geometry":{"type":"Point","coordinates":[80.833800000000053,6.991100000000074]},"properties":{"objectid":343,"hotel_category":"4","hotel_name":"HERITANCE TEA FACTORY","no_of_floors":null,"gfcode":null,"description":"www.heritancehotels.com","latitude":6.9911000000000003,"longitude":80.833799999999997,"district":null,"no_of_rooms":57,"registration_number":null}},{"type":"Feature","id":344,"geometry":{"type":"Point","coordinates":[79.920200000000079,6.6781700000000228]},"properties":{"objectid":344,"hotel_category":"5","hotel_name":"THE BLUE WATER","no_of_floors":null,"gfcode":null,"description":"www.bluewatersrilanka.com","latitude":6.6781699999999997,"longitude":79.920199999999994,"district":null,"no_of_rooms":100,"registration_number":null}},{"type":"Feature","id":345,"geometry":{"type":"Point","coordinates":[80.764700000000062,6.9683400000000688]},"properties":{"objectid":345,"hotel_category":"4","hotel_name":"GRAND HOTEL","no_of_floors":null,"gfcode":null,"description":"www.tangerinehotels.com","latitude":6.9683400000000004,"longitude":80.764700000000005,"district":null,"no_of_rooms":155,"registration_number":null}},{"type":"Feature","id":346,"geometry":{"type":"Point","coordinates":[80.698600000000056,7.8915300000000457]},"properties":{"objectid":346,"hotel_category":"4","hotel_name":"AMAYA LAKE","no_of_floors":null,"gfcode":null,"description":"www.amayaresorts.com","latitude":7.8915299999999995,"longitude":80.698599999999999,"district":null,"no_of_rooms":92,"registration_number":null}},{"type":"Feature","id":347,"geometry":{"type":"Point","coordinates":[80.619200000000035,7.2590100000000461]},"properties":{"objectid":347,"hotel_category":"4","hotel_name":"AMAYA HILLS","no_of_floors":null,"gfcode":null,"description":"www.amayaresorts.com","latitude":7.25901,"longitude":80.619200000000006,"district":null,"no_of_rooms":100,"registration_number":null}},{"type":"Feature","id":348,"geometry":{"type":"Point","coordinates":[79.856100000000083,6.9203900000000544]},"properties":{"objectid":348,"hotel_category":"4","hotel_name":"HILTON COLOMBO RESIDENCE","no_of_floors":null,"gfcode":null,"description":"www1.hilton.com/en_US/hi/hotel/COLJTTW-Hilton-Colo","latitude":6.9203900000000003,"longitude":79.856099999999998,"district":null,"no_of_rooms":176,"registration_number":null}},{"type":"Feature","id":349,"geometry":{"type":"Point","coordinates":[81.326400000000035,6.4012000000000739]},"properties":{"objectid":349,"hotel_category":"4","hotel_name":"MANDARA ROSEN HOTEL","no_of_floors":null,"gfcode":null,"description":"www.mandarahotels.com","latitude":6.4012000000000002,"longitude":81.326400000000007,"district":null,"no_of_rooms":58,"registration_number":null}},{"type":"Feature","id":350,"geometry":{"type":"Point","coordinates":[79.847800000000063,6.9212600000000748]},"properties":{"objectid":350,"hotel_category":"3","hotel_name":"RAMADA - COLOMBO","no_of_floors":null,"gfcode":null,"description":"www.ramadacolombo.com","latitude":6.9212600000000002,"longitude":79.847800000000007,"district":null,"no_of_rooms":94,"registration_number":null}},{"type":"Feature","id":351,"geometry":{"type":"Point","coordinates":[79.868900000000053,6.9998900000000503]},"properties":{"objectid":351,"hotel_category":"4","hotel_name":"PEGASUS REEF HOTEL","no_of_floors":null,"gfcode":null,"description":"www.pegasusreefhotel.com","latitude":6.9998900000000006,"longitude":79.868899999999996,"district":null,"no_of_rooms":140,"registration_number":null}},{"type":"Feature","id":352,"geometry":{"type":"Point","coordinates":[79.86200000000008,6.833150000000046]},"properties":{"objectid":352,"hotel_category":"4","hotel_name":"MOUNT LAVINIA HOTEL","no_of_floors":null,"gfcode":null,"description":"www.mountlaviniahotel.com","latitude":6.8331499999999998,"longitude":79.861999999999995,"district":null,"no_of_rooms":204,"registration_number":null}},{"type":"Feature","id":353,"geometry":{"type":"Point","coordinates":[79.812600000000032,7.4341900000000578]},"properties":{"objectid":353,"hotel_category":"3","hotel_name":"CLUB PALM BAY","no_of_floors":null,"gfcode":null,"description":null,"latitude":7.4341900000000001,"longitude":79.812600000000003,"district":null,"no_of_rooms":162,"registration_number":null}},{"type":"Feature","id":354,"geometry":{"type":"Point","coordinates":[79.839600000000075,7.2937900000000582]},"properties":{"objectid":354,"hotel_category":"4","hotel_name":"CLUB HOTEL DOLPHIN","no_of_floors":null,"gfcode":null,"description":"www.serendibleisure.com","latitude":7.2937900000000004,"longitude":79.839600000000004,"district":null,"no_of_rooms":151,"registration_number":null}},{"type":"Feature","id":355,"geometry":{"type":"Point","coordinates":[79.841800000000035,7.2416200000000686]},"properties":{"objectid":355,"hotel_category":"5","hotel_name":"JETWING BLUE","no_of_floors":null,"gfcode":null,"description":"www.jetwinghotels.com","latitude":7.2416200000000002,"longitude":79.841800000000006,"district":null,"no_of_rooms":108,"registration_number":null}},{"type":"Feature","id":356,"geometry":{"type":"Point","coordinates":[80.921800000000076,7.9891500000000519]},"properties":{"objectid":356,"hotel_category":"4","hotel_name":"THE DEER PARK HOTEL","no_of_floors":null,"gfcode":null,"description":"http://www.deerparksrilanka.com/","latitude":7.9891500000000004,"longitude":80.921800000000005,"district":null,"no_of_rooms":85,"registration_number":null}},{"type":"Feature","id":357,"geometry":{"type":"Point","coordinates":[81.189400000000035,8.7062700000000746]},"properties":{"objectid":357,"hotel_category":"2","hotel_name":"NILAVELI BEACH HOTEL","no_of_floors":null,"gfcode":null,"description":"www. tangerinehotels.com","latitude":8.70627,"longitude":81.189400000000006,"district":null,"no_of_rooms":53,"registration_number":null}},{"type":"Feature","id":358,"geometry":{"type":"Point","coordinates":[80.750900000000058,8.0405600000000277]},"properties":{"objectid":358,"hotel_category":"3","hotel_name":"SOROWWA RESORT AND SPA","no_of_floors":null,"gfcode":null,"description":"www.sorowwa.com","latitude":8.0405599999999993,"longitude":80.750900000000001,"district":null,"no_of_rooms":23,"registration_number":null}},{"type":"Feature","id":359,"geometry":{"type":"Point","coordinates":[79.864900000000034,6.8362400000000321]},"properties":{"objectid":359,"hotel_category":"1","hotel_name":"PALM BEACH HOTEL","no_of_floors":null,"gfcode":null,"description":"www.palmbeach.lk","latitude":6.8362400000000001,"longitude":79.864900000000006,"district":null,"no_of_rooms":43,"registration_number":null}},{"type":"Feature","id":360,"geometry":{"type":"Point","coordinates":[80.770000000000039,6.980000000000075]},"properties":{"objectid":360,"hotel_category":"3","hotel_name":"GALWAY HEIGHTS HOTEL","no_of_floors":null,"gfcode":null,"description":"www.galwayforest.com","latitude":6.9800000000000004,"longitude":80.769999999999996,"district":null,"no_of_rooms":52,"registration_number":null}},{"type":"Feature","id":361,"geometry":{"type":"Point","coordinates":[80.643400000000042,7.285220000000038]},"properties":{"objectid":361,"hotel_category":"1","hotel_name":"SENANI RESTAURANT","no_of_floors":null,"gfcode":null,"description":"http://www.senanihotel.com/","latitude":7.2852199999999998,"longitude":80.6434,"district":null,"no_of_rooms":27,"registration_number":null}},{"type":"Feature","id":362,"geometry":{"type":"Point","coordinates":[79.857200000000034,6.8775200000000609]},"properties":{"objectid":362,"hotel_category":"3","hotel_name":"GLOBAL TOWERS HOTEL","no_of_floors":null,"gfcode":null,"description":"http://www.globallanka.com/","latitude":6.8775200000000005,"longitude":79.857200000000006,"district":null,"no_of_rooms":54,"registration_number":null}},{"type":"Feature","id":363,"geometry":{"type":"Point","coordinates":[80.690600000000074,7.4010200000000737]},"properties":{"objectid":363,"hotel_category":"3","hotel_name":"HUNNAS FALLS HOTEL","no_of_floors":null,"gfcode":null,"description":"www.hunasfallskandy.com","latitude":7.4010199999999999,"longitude":80.690600000000003,"district":null,"no_of_rooms":31,"registration_number":null}},{"type":"Feature","id":364,"geometry":{"type":"Point","coordinates":[79.845100000000059,6.9374700000000757]},"properties":{"objectid":364,"hotel_category":"2","hotel_name":"GRAND ORIENTAL HOTEL","no_of_floors":null,"gfcode":null,"description":"www.grandoriental.com","latitude":6.9374700000000002,"longitude":79.845100000000002,"district":null,"no_of_rooms":72,"registration_number":null}},{"type":"Feature","id":365,"geometry":{"type":"Point","coordinates":[80.763400000000047,7.949890000000039]},"properties":{"objectid":365,"hotel_category":"1","hotel_name":"HOTEL SIGIRIYA","no_of_floors":null,"gfcode":null,"description":"www.serendibleisure.com","latitude":7.9498899999999999,"longitude":80.763400000000004,"district":null,"no_of_rooms":80,"registration_number":null}},{"type":"Feature","id":366,"geometry":{"type":"Point","coordinates":[81.123000000000047,6.1220000000000709]},"properties":{"objectid":366,"hotel_category":"3","hotel_name":"THE OASIS HOTEL","no_of_floors":null,"gfcode":null,"description":"http://www.oasis-ayurveda.de/","latitude":6.1219999999999999,"longitude":81.123000000000005,"district":null,"no_of_rooms":50,"registration_number":null}},{"type":"Feature","id":367,"geometry":{"type":"Point","coordinates":[80.763900000000035,6.9795900000000302]},"properties":{"objectid":367,"hotel_category":"3","hotel_name":"ST.ANDREWS HOTEL","no_of_floors":null,"gfcode":null,"description":"http://www.jetwinghotels.com/","latitude":6.97959,"longitude":80.763900000000007,"district":null,"no_of_rooms":52,"registration_number":null}},{"type":"Feature","id":368,"geometry":{"type":"Point","coordinates":[79.991600000000062,6.4373600000000692]},"properties":{"objectid":368,"hotel_category":"2","hotel_name":"CLUB BENTOTA","no_of_floors":null,"gfcode":null,"description":null,"latitude":6.4373600000000009,"longitude":79.991600000000005,"district":null,"no_of_rooms":68,"registration_number":null}},{"type":"Feature","id":369,"geometry":{"type":"Point","coordinates":[79.842100000000073,7.2517700000000218]},"properties":{"objectid":369,"hotel_category":"4","hotel_name":"JETWING SEA","no_of_floors":null,"gfcode":null,"description":"www.jetwinghotels.com","latitude":7.2517699999999996,"longitude":79.842100000000002,"district":null,"no_of_rooms":72,"registration_number":null}},{"type":"Feature","id":370,"geometry":{"type":"Point","coordinates":[79.840700000000083,7.2826900000000592]},"properties":{"objectid":370,"hotel_category":"2","hotel_name":"RANWELI HOLIDAY VILLAGE","no_of_floors":null,"gfcode":null,"description":"www.ranweli.com","latitude":7.2826900000000006,"longitude":79.840699999999998,"district":null,"no_of_rooms":84,"registration_number":null}},{"type":"Feature","id":371,"geometry":{"type":"Point","coordinates":[79.898600000000044,7.0332400000000348]},"properties":{"objectid":371,"hotel_category":"1","hotel_name":"MISUKI PLAZA HOTEL","no_of_floors":null,"gfcode":null,"description":null,"latitude":7.0332400000000002,"longitude":79.898600000000002,"district":null,"no_of_rooms":26,"registration_number":null}},{"type":"Feature","id":372,"geometry":{"type":"Point","coordinates":[79.996100000000069,6.4202700000000732]},"properties":{"objectid":372,"hotel_category":"2","hotel_name":"THE SURF","no_of_floors":null,"gfcode":null,"description":null,"latitude":6.4202700000000004,"longitude":79.996099999999998,"district":null,"no_of_rooms":86,"registration_number":null}},{"type":"Feature","id":373,"geometry":{"type":"Point","coordinates":[79.996400000000051,6.417160000000024]},"properties":{"objectid":373,"hotel_category":"5","hotel_name":"TAJ BENTOTA RESORT AND SPA","no_of_floors":null,"gfcode":null,"description":"www.vivantabytaj.com","latitude":6.41716,"longitude":79.996399999999994,"district":null,"no_of_rooms":162,"registration_number":null}},{"type":"Feature","id":374,"geometry":{"type":"Point","coordinates":[79.84170000000006,7.2454200000000242]},"properties":{"objectid":374,"hotel_category":"2","hotel_name":"GOLDI SANDS HOTEL","no_of_floors":null,"gfcode":null,"description":"www.goldisands.com","latitude":7.2454200000000002,"longitude":79.841700000000003,"district":null,"no_of_rooms":70,"registration_number":null}},{"type":"Feature","id":375,"geometry":{"type":"Point","coordinates":[79.862100000000055,6.870960000000025]},"properties":{"objectid":375,"hotel_category":"2","hotel_name":"HOTEL SAPPHIRE","no_of_floors":null,"gfcode":null,"description":null,"latitude":6.8709600000000002,"longitude":79.862099999999998,"district":null,"no_of_rooms":40,"registration_number":null}},{"type":"Feature","id":376,"geometry":{"type":"Point","coordinates":[79.994400000000041,6.4309100000000399]},"properties":{"objectid":376,"hotel_category":"2","hotel_name":"CENTARA CEYSANDS RESORT & SPA","no_of_floors":null,"gfcode":null,"description":"http://www.centarahotelsresorts.com/centara/ccs/","latitude":6.4309099999999999,"longitude":79.994399999999999,"district":null,"no_of_rooms":84,"registration_number":null}},{"type":"Feature","id":377,"geometry":{"type":"Point","coordinates":[79.787800000000061,7.5626600000000508]},"properties":{"objectid":377,"hotel_category":"2","hotel_name":"CAROLINA BEACH HOTEL","no_of_floors":null,"gfcode":null,"description":"www.carolinabeachhotel.lk","latitude":7.5626600000000002,"longitude":79.787800000000004,"district":null,"no_of_rooms":45,"registration_number":null}},{"type":"Feature","id":378,"geometry":{"type":"Point","coordinates":[80.650000000000034,7.2845100000000684]},"properties":{"objectid":378,"hotel_category":"2","hotel_name":"DEVON HOTEL","no_of_floors":null,"gfcode":null,"description":"www.devonsrilanka.com","latitude":7.28451,"longitude":80.650000000000006,"district":null,"no_of_rooms":25,"registration_number":null}},{"type":"Feature","id":379,"geometry":{"type":"Point","coordinates":[79.846500000000049,6.9201300000000288]},"properties":{"objectid":379,"hotel_category":"3","hotel_name":"GALLE FACE HOTEL","no_of_floors":null,"gfcode":null,"description":"www.gallefacehotel.com","latitude":6.9201299999999994,"longitude":79.846500000000006,"district":null,"no_of_rooms":145,"registration_number":null}},{"type":"Feature","id":380,"geometry":{"type":"Point","coordinates":[79.850400000000036,6.9085400000000732]},"properties":{"objectid":380,"hotel_category":"3","hotel_name":"RENUKA HOTEL","no_of_floors":null,"gfcode":null,"description":"www.renukahotel.com","latitude":6.9085400000000003,"longitude":79.850399999999993,"district":null,"no_of_rooms":81,"registration_number":null}},{"type":"Feature","id":381,"geometry":{"type":"Point","coordinates":[80.345300000000066,8.3147300000000541]},"properties":{"objectid":381,"hotel_category":"3","hotel_name":"PALM GARDEN VILLAGE HOTEL","no_of_floors":null,"gfcode":null,"description":"www.palmgardenvillage.com","latitude":8.3147300000000008,"longitude":80.345299999999995,"district":null,"no_of_rooms":50,"registration_number":null}},{"type":"Feature","id":382,"geometry":{"type":"Point","coordinates":[80.761100000000056,7.9495800000000258]},"properties":{"objectid":382,"hotel_category":"3","hotel_name":"SIGIRIYA VILLAGE HOTEL","no_of_floors":null,"gfcode":null,"description":"http://www.forthotels.lk/sigiriyavillage/home.htm","latitude":7.9495800000000001,"longitude":80.761099999999999,"district":null,"no_of_rooms":120,"registration_number":null}},{"type":"Feature","id":383,"geometry":{"type":"Point","coordinates":[79.981200000000058,6.4496400000000449]},"properties":{"objectid":383,"hotel_category":"3","hotel_name":"THE PALMS","no_of_floors":null,"gfcode":null,"description":"http://www.forthotels.lk/palms/home.htm","latitude":6.4496400000000005,"longitude":79.981200000000001,"district":null,"no_of_rooms":100,"registration_number":null}},{"type":"Feature","id":384,"geometry":{"type":"Point","coordinates":[79.944900000000075,6.6172800000000507]},"properties":{"objectid":384,"hotel_category":"2","hotel_name":"MERMAID HOTEL & CLUB","no_of_floors":null,"gfcode":null,"description":"http://www.mermaidhotelkalutara.com/ppc/?gclid=CIj","latitude":6.6172800000000001,"longitude":79.944900000000004,"district":null,"no_of_rooms":72,"registration_number":null}},{"type":"Feature","id":385,"geometry":{"type":"Point","coordinates":[80.625200000000063,7.2905600000000277]},"properties":{"objectid":385,"hotel_category":"2","hotel_name":"HOTEL TOPAZ","no_of_floors":null,"gfcode":null,"description":"www.mclarenshotels.lk","latitude":7.2905600000000002,"longitude":80.625200000000007,"district":null,"no_of_rooms":75,"registration_number":null}},{"type":"Feature","id":386,"geometry":{"type":"Point","coordinates":[79.841000000000065,7.2332400000000234]},"properties":{"objectid":386,"hotel_category":"1","hotel_name":"CAMELOT BEACH HOTEL","no_of_floors":null,"gfcode":null,"description":null,"latitude":7.2332400000000003,"longitude":79.840999999999994,"district":null,"no_of_rooms":81,"registration_number":null}},{"type":"Feature","id":387,"geometry":{"type":"Point","coordinates":[80.993100000000084,7.9247600000000489]},"properties":{"objectid":387,"hotel_category":"1","hotel_name":"THE VILLAGE","no_of_floors":null,"gfcode":null,"description":"www.vilapol.com","latitude":7.92476,"longitude":80.993099999999998,"district":null,"no_of_rooms":36,"registration_number":null}},{"type":"Feature","id":388,"geometry":{"type":"Point","coordinates":[80.856100000000083,6.3201800000000503]},"properties":{"objectid":388,"hotel_category":"1","hotel_name":"CENTAURIA LAKE","no_of_floors":null,"gfcode":null,"description":"http://centauriahotel.com/lake/","latitude":6.3201799999999997,"longitude":80.856099999999998,"district":null,"no_of_rooms":52,"registration_number":null}},{"type":"Feature","id":389,"geometry":{"type":"Point","coordinates":[80.727300000000071,7.9796800000000303]},"properties":{"objectid":389,"hotel_category":"2","hotel_name":"KASSAPA LIONS ROCK","no_of_floors":null,"gfcode":null,"description":"http://www.kassapalionsrock.com","latitude":7.9796799999999992,"longitude":80.7273,"district":null,"no_of_rooms":31,"registration_number":null}},{"type":"Feature","id":390,"geometry":{"type":"Point","coordinates":[79.838000000000079,7.2088000000000534]},"properties":{"objectid":390,"hotel_category":"5","hotel_name":"HERITANCE NEGOMBO","no_of_floors":null,"gfcode":null,"description":null,"latitude":7.2088000000000001,"longitude":79.837999999999994,"district":null,"no_of_rooms":140,"registration_number":null}},{"type":"Feature","id":391,"geometry":{"type":"Point","coordinates":[79.946700000000078,6.6152100000000473]},"properties":{"objectid":391,"hotel_category":"1","hotel_name":"HIBISCUS BEACH HOTEL","no_of_floors":null,"gfcode":null,"description":"www.hibiscusbeachhotel.com","latitude":6.6152099999999994,"longitude":79.946700000000007,"district":null,"no_of_rooms":51,"registration_number":null}},{"type":"Feature","id":392,"geometry":{"type":"Point","coordinates":[80.004700000000071,6.4068200000000388]},"properties":{"objectid":392,"hotel_category":"2","hotel_name":"HOTEL BENTOTA VILLAGE","no_of_floors":null,"gfcode":null,"description":"www.hotelbentotavillage.com","latitude":6.4068199999999997,"longitude":80.0047,"district":null,"no_of_rooms":14,"registration_number":null}},{"type":"Feature","id":393,"geometry":{"type":"Point","coordinates":[79.844200000000058,6.933330000000069]},"properties":{"objectid":393,"hotel_category":"1","hotel_name":"COLOMBO CITY HOTEL","no_of_floors":null,"gfcode":null,"description":"www.colombocityhotels.com","latitude":6.9333299999999998,"longitude":79.844200000000001,"district":null,"no_of_rooms":48,"registration_number":null}},{"type":"Feature","id":394,"geometry":{"type":"Point","coordinates":[79.897800000000075,6.7636100000000283]},"properties":{"objectid":394,"hotel_category":"1","hotel_name":"RANMAL HOLIDAY RESORT","no_of_floors":null,"gfcode":null,"description":"http://www.ranmalholidayresort.com/","latitude":6.7636099999999999,"longitude":79.897800000000004,"district":null,"no_of_rooms":25,"registration_number":null}},{"type":"Feature","id":395,"geometry":{"type":"Point","coordinates":[81.333000000000084,6.41700000000003]},"properties":{"objectid":395,"hotel_category":"1","hotel_name":"HOTEL CHAMILA","no_of_floors":null,"gfcode":null,"description":"http://www.hotelchamila.com/","latitude":6.4169999999999998,"longitude":81.332999999999998,"district":null,"no_of_rooms":50,"registration_number":null}},{"type":"Feature","id":396,"geometry":{"type":"Point","coordinates":[79.997000000000071,6.4217800000000693]},"properties":{"objectid":396,"hotel_category":"1","hotel_name":"HOTEL SUSANTHAS","no_of_floors":null,"gfcode":null,"description":"www.hotelsusanthagarden.com","latitude":6.42178,"longitude":79.997,"district":null,"no_of_rooms":18,"registration_number":null}},{"type":"Feature","id":397,"geometry":{"type":"Point","coordinates":[79.864000000000033,6.8386600000000612]},"properties":{"objectid":397,"hotel_category":"2","hotel_name":"BERJAYA MOUNT ROYAL BEACH HOTEL","no_of_floors":null,"gfcode":null,"description":"www.berjayahotel.com/colombo/en","latitude":6.83866,"longitude":79.864000000000004,"district":null,"no_of_rooms":90,"registration_number":null}},{"type":"Feature","id":398,"geometry":{"type":"Point","coordinates":[79.993700000000047,6.439860000000067]},"properties":{"objectid":398,"hotel_category":"1","hotel_name":"NILWALA HOTEL","no_of_floors":null,"gfcode":null,"description":null,"latitude":6.4398600000000004,"longitude":79.993700000000004,"district":null,"no_of_rooms":10,"registration_number":null}},{"type":"Feature","id":399,"geometry":{"type":"Point","coordinates":[81.183600000000069,8.7122200000000589]},"properties":{"objectid":399,"hotel_category":"2","hotel_name":"PIGEON ISLAND BEACH HOTEL","no_of_floors":null,"gfcode":null,"description":"www.pigeonislandresort.com","latitude":8.7122199999999985,"longitude":81.183599999999998,"district":null,"no_of_rooms":38,"registration_number":null}},{"type":"Feature","id":400,"geometry":{"type":"Point","coordinates":[80.766400000000033,6.9675200000000359]},"properties":{"objectid":400,"hotel_category":"1","hotel_name":"GLENDOWER HOTEL","no_of_floors":null,"gfcode":null,"description":"http://www.hotelglendower.com/","latitude":6.9675200000000004,"longitude":80.766400000000004,"district":null,"no_of_rooms":20,"registration_number":null}},{"type":"Feature","id":401,"geometry":{"type":"Point","coordinates":[79.893400000000042,6.7504800000000387]},"properties":{"objectid":401,"hotel_category":"1","hotel_name":"RANDIYA HOTEL","no_of_floors":null,"gfcode":null,"description":"www.randiyahotels.com","latitude":6.7504799999999996,"longitude":79.8934,"district":null,"no_of_rooms":10,"registration_number":null}},{"type":"Feature","id":402,"geometry":{"type":"Point","coordinates":[80.008800000000065,6.38575000000003]},"properties":{"objectid":402,"hotel_category":"2","hotel_name":"TEMPLE TREE RESORT AND SPA","no_of_floors":null,"gfcode":null,"description":"www.templetreeresortandspa.com","latitude":6.3857499999999998,"longitude":80.008799999999994,"district":null,"no_of_rooms":10,"registration_number":null}},{"type":"Feature","id":403,"geometry":{"type":"Point","coordinates":[79.874500000000069,7.1542000000000598]},"properties":{"objectid":403,"hotel_category":"1","hotel_name":"FULL MOON GARDEN HOTEL","no_of_floors":null,"gfcode":null,"description":"www.fullmoongardenhotel.com","latitude":7.1542000000000003,"longitude":79.874499999999998,"district":null,"no_of_rooms":30,"registration_number":null}},{"type":"Feature","id":404,"geometry":{"type":"Point","coordinates":[79.979900000000043,6.4500000000000455]},"properties":{"objectid":404,"hotel_category":"1","hotel_name":"BARBERYN REEF AYURVEDA RESORT","no_of_floors":null,"gfcode":null,"description":"www.barberyn.com","latitude":6.4500000000000002,"longitude":79.979900000000001,"district":null,"no_of_rooms":75,"registration_number":null}},{"type":"Feature","id":405,"geometry":{"type":"Point","coordinates":[80.650600000000054,7.8799500000000648]},"properties":{"objectid":405,"hotel_category":"2","hotel_name":"GIMANHALA HOTEL","no_of_floors":null,"gfcode":null,"description":null,"latitude":7.87995,"longitude":80.650599999999997,"district":null,"no_of_rooms":17,"registration_number":null}},{"type":"Feature","id":406,"geometry":{"type":"Point","coordinates":[80.352300000000071,6.7627900000000523]},"properties":{"objectid":406,"hotel_category":"2","hotel_name":"LAKE SERENITY","no_of_floors":null,"gfcode":null,"description":"http://www.lakeserenity.lk/","latitude":6.7627899999999999,"longitude":80.3523,"district":null,"no_of_rooms":14,"registration_number":null}},{"type":"Feature","id":407,"geometry":{"type":"Point","coordinates":[80.321800000000053,5.989210000000071]},"properties":{"objectid":407,"hotel_category":"1","hotel_name":"KOGGALA BEACH HOTEL","no_of_floors":null,"gfcode":null,"description":"http://www.koggalabeachhotel.com/","latitude":5.9892099999999999,"longitude":80.321799999999996,"district":null,"no_of_rooms":189,"registration_number":null}},{"type":"Feature","id":408,"geometry":{"type":"Point","coordinates":[80.628800000000069,7.2893400000000383]},"properties":{"objectid":408,"hotel_category":"2","hotel_name":"HOTEL HILL TOP","no_of_floors":null,"gfcode":null,"description":null,"latitude":7.2893400000000002,"longitude":80.628799999999998,"district":null,"no_of_rooms":81,"registration_number":null}},{"type":"Feature","id":409,"geometry":{"type":"Point","coordinates":[79.996300000000076,6.4236700000000724]},"properties":{"objectid":409,"hotel_category":"2","hotel_name":"AVANI BENTOTA RESORT & SPA","no_of_floors":null,"gfcode":null,"description":"www.serendibleisure.com","latitude":6.4236700000000004,"longitude":79.996300000000005,"district":null,"no_of_rooms":90,"registration_number":null}},{"type":"Feature","id":410,"geometry":{"type":"Point","coordinates":[80.722000000000037,5.978460000000041]},"properties":{"objectid":410,"hotel_category":"1","hotel_name":"AUSTRIAN BEACH RESORT","no_of_floors":null,"gfcode":null,"description":"http://www.austrianbeach.com/","latitude":5.9784600000000001,"longitude":80.721999999999994,"district":null,"no_of_rooms":10,"registration_number":null}},{"type":"Feature","id":411,"geometry":{"type":"Point","coordinates":[80.621600000000058,7.2897200000000453]},"properties":{"objectid":411,"hotel_category":"2","hotel_name":"RIVERDALE HOTEL","no_of_floors":null,"gfcode":null,"description":null,"latitude":7.28972,"longitude":80.621600000000001,"district":null,"no_of_rooms":29,"registration_number":null}},{"type":"Feature","id":412,"geometry":{"type":"Point","coordinates":[79.842200000000048,7.2467700000000264]},"properties":{"objectid":412,"hotel_category":"1","hotel_name":"PARADISE HOLIDAY VILLAGE","no_of_floors":null,"gfcode":null,"description":"www.paradiseholidayvillage.com","latitude":7.2467699999999997,"longitude":79.842200000000005,"district":null,"no_of_rooms":33,"registration_number":null}},{"type":"Feature","id":413,"geometry":{"type":"Point","coordinates":[81.297400000000039,6.2924600000000623]},"properties":{"objectid":413,"hotel_category":"2","hotel_name":"KITHALA RESORT","no_of_floors":null,"gfcode":null,"description":"www.priyankarahotel.com","latitude":6.2924600000000002,"longitude":81.297399999999996,"district":null,"no_of_rooms":40,"registration_number":null}},{"type":"Feature","id":414,"geometry":{"type":"Point","coordinates":[80.525200000000041,5.9442700000000741]},"properties":{"objectid":414,"hotel_category":"2","hotel_name":"LALITHA HOTEL","no_of_floors":null,"gfcode":null,"description":null,"latitude":5.9442700000000004,"longitude":80.525199999999998,"district":null,"no_of_rooms":27,"registration_number":null}},{"type":"Feature","id":415,"geometry":{"type":"Point","coordinates":[80.637200000000064,7.2933700000000385]},"properties":{"objectid":415,"hotel_category":"2","hotel_name":"HOTEL CASAMARA","no_of_floors":null,"gfcode":null,"description":"www.casamara.com","latitude":7.2933700000000004,"longitude":80.637200000000007,"district":null,"no_of_rooms":33,"registration_number":null}},{"type":"Feature","id":416,"geometry":{"type":"Point","coordinates":[80.305900000000065,7.8290100000000393]},"properties":{"objectid":416,"hotel_category":"2","hotel_name":"HOTEL YAPAHUWA PARADISE","no_of_floors":null,"gfcode":null,"description":"http://www.hotelyapahuwaparadise.com/","latitude":7.8290099999999994,"longitude":80.305899999999994,"district":null,"no_of_rooms":20,"registration_number":null}},{"type":"Feature","id":417,"geometry":{"type":"Point","coordinates":[80.616900000000044,7.2631400000000212]},"properties":{"objectid":417,"hotel_category":"1","hotel_name":"RANDHOLEE RESORTS","no_of_floors":null,"gfcode":null,"description":"www.randholeeresorts.com","latitude":7.2631399999999999,"longitude":80.616900000000001,"district":null,"no_of_rooms":25,"registration_number":null}},{"type":"Feature","id":418,"geometry":{"type":"Point","coordinates":[80.644100000000037,7.2848600000000374]},"properties":{"objectid":418,"hotel_category":"1","hotel_name":"OAK RAY SERENE GARDEN","no_of_floors":null,"gfcode":null,"description":"www.serenegardenhotel.com","latitude":7.2848600000000001,"longitude":80.644099999999995,"district":null,"no_of_rooms":35,"registration_number":null}},{"type":"Feature","id":419,"geometry":{"type":"Point","coordinates":[81.236600000000067,6.2931300000000761]},"properties":{"objectid":419,"hotel_category":"1","hotel_name":"WILA SAFARI HOTEL","no_of_floors":null,"gfcode":null,"description":"http://www.wilasafari.lk/About_us.html","latitude":6.2931299999999997,"longitude":81.236599999999996,"district":null,"no_of_rooms":10,"registration_number":null}},{"type":"Feature","id":420,"geometry":{"type":"Point","coordinates":[80.77010000000007,6.9707400000000348]},"properties":{"objectid":420,"hotel_category":"1","hotel_name":"WINDSOR HOTEL","no_of_floors":null,"gfcode":null,"description":"www.windsorhotellk.com","latitude":6.9707400000000002,"longitude":80.770099999999999,"district":null,"no_of_rooms":50,"registration_number":null}},{"type":"Feature","id":421,"geometry":{"type":"Point","coordinates":[80.372200000000078,7.4790000000000418]},"properties":{"objectid":421,"hotel_category":"1","hotel_name":"HOTEL ATHGIRI","no_of_floors":null,"gfcode":null,"description":"www.kandyanreach.com","latitude":7.4790000000000001,"longitude":80.372200000000007,"district":null,"no_of_rooms":23,"registration_number":null}},{"type":"Feature","id":422,"geometry":{"type":"Point","coordinates":[80.418600000000083,8.3314200000000369]},"properties":{"objectid":422,"hotel_category":"1","hotel_name":"MIRIDIYA HOTEL","no_of_floors":null,"gfcode":null,"description":"www.galway.lk","latitude":8.3314199999999996,"longitude":80.418599999999998,"district":null,"no_of_rooms":40,"registration_number":null}},{"type":"Feature","id":423,"geometry":{"type":"Point","coordinates":[80.218700000000069,6.0386600000000499]},"properties":{"objectid":423,"hotel_category":"1","hotel_name":"LADY HILL","no_of_floors":null,"gfcode":null,"description":"www.ladyhillsl.com","latitude":6.0386600000000001,"longitude":80.218699999999998,"district":null,"no_of_rooms":15,"registration_number":null}},{"type":"Feature","id":424,"geometry":{"type":"Point","coordinates":[80.927900000000079,7.9971100000000206]},"properties":{"objectid":424,"hotel_category":"1","hotel_name":"GIRITALE HOTEL","no_of_floors":null,"gfcode":null,"description":"www.giritalehotel.com","latitude":7.9971099999999993,"longitude":80.927899999999994,"district":null,"no_of_rooms":40,"registration_number":null}},{"type":"Feature","id":425,"geometry":{"type":"Point","coordinates":[80.255000000000052,6.0060500000000729]},"properties":{"objectid":425,"hotel_category":"3","hotel_name":"SANMIRA RENAISSANCE","no_of_floors":null,"gfcode":null,"description":"http://www.unawatunasanmirahotel.com/","latitude":6.0060500000000001,"longitude":80.254999999999995,"district":null,"no_of_rooms":20,"registration_number":null}},{"type":"Feature","id":426,"geometry":{"type":"Point","coordinates":[81.405300000000068,6.2591700000000401]},"properties":{"objectid":426,"hotel_category":"4","hotel_name":"CINNAMON WILD YALA","no_of_floors":null,"gfcode":null,"description":"http://www.cinnamonhotels.com/cinnamonwildyala/","latitude":6.2591700000000001,"longitude":81.405299999999997,"district":null,"no_of_rooms":61,"registration_number":null}},{"type":"Feature","id":427,"geometry":{"type":"Point","coordinates":[80.100800000000049,6.1313500000000545]},"properties":{"objectid":427,"hotel_category":"4","hotel_name":"CHAAYA TRANZ HOTEL","no_of_floors":null,"gfcode":null,"description":"http://www.cinnamonhotels.com/hikkatranzbycinnamon","latitude":6.1313500000000003,"longitude":80.100800000000007,"district":null,"no_of_rooms":150,"registration_number":null}},{"type":"Feature","id":428,"geometry":{"type":"Point","coordinates":[80.500000000000057,8.7513800000000401]},"properties":{"objectid":428,"hotel_category":"1","hotel_name":"HOTEL NELLY","no_of_floors":null,"gfcode":null,"description":"WWW.NELLYHOTEL.COM","latitude":8.751380000000001,"longitude":80.5,"district":null,"no_of_rooms":20,"registration_number":null}},{"type":"Feature","id":429,"geometry":{"type":"Point","coordinates":[79.84250000000003,6.9332300000000373]},"properties":{"objectid":429,"hotel_category":"5","hotel_name":"THE KINGSBURY","no_of_floors":null,"gfcode":null,"description":"https://www.thekingsburyhotel.com/","latitude":6.93323,"longitude":79.842500000000001,"district":null,"no_of_rooms":229,"registration_number":null}},{"type":"Feature","id":430,"geometry":{"type":"Point","coordinates":[80.634800000000041,7.3030000000000541]},"properties":{"objectid":430,"hotel_category":"5","hotel_name":"THE GRAND KANDYAN","no_of_floors":null,"gfcode":null,"description":"grandkandyan.com","latitude":7.3029999999999999,"longitude":80.634799999999998,"district":null,"no_of_rooms":100,"registration_number":null}},{"type":"Feature","id":431,"geometry":{"type":"Point","coordinates":[79.85310000000004,6.9121100000000411]},"properties":{"objectid":431,"hotel_category":"3","hotel_name":"CINNAMON RED COLOMBO","no_of_floors":null,"gfcode":null,"description":"www.cinnamonhotels.com","latitude":6.9121099999999993,"longitude":79.853099999999998,"district":null,"no_of_rooms":243,"registration_number":null}},{"type":"Feature","id":432,"geometry":{"type":"Point","coordinates":[81.063900000000046,6.1120600000000422]},"properties":{"objectid":432,"hotel_category":"5","hotel_name":"SHANGRI-LA HAMBANTOTA RESORT & SPA","no_of_floors":null,"gfcode":null,"description":"www.shangri-la.com","latitude":6.1120600000000005,"longitude":81.063900000000004,"district":null,"no_of_rooms":300,"registration_number":null}},{"type":"Feature","id":433,"geometry":{"type":"Point","coordinates":[79.85650000000004,6.870550000000037]},"properties":{"objectid":433,"hotel_category":"2","hotel_name":"MIRAGE HOTEL","no_of_floors":null,"gfcode":null,"description":"www.miragecolombo.com","latitude":6.8705499999999997,"longitude":79.856499999999997,"district":null,"no_of_rooms":60,"registration_number":null}},{"type":"Feature","id":434,"geometry":{"type":"Point","coordinates":[79.853000000000065,6.8853100000000609]},"properties":{"objectid":434,"hotel_category":"1","hotel_name":"THE OCEAN COLOMBO","no_of_floors":null,"gfcode":null,"description":"www.theoceancolombo.com","latitude":6.8853099999999996,"longitude":79.852999999999994,"district":null,"no_of_rooms":49,"registration_number":null}},{"type":"Feature","id":435,"geometry":{"type":"Point","coordinates":[80.610700000000065,7.2834800000000541]},"properties":{"objectid":435,"hotel_category":"3","hotel_name":"EARLS REGENT HOTEL","no_of_floors":null,"gfcode":null,"description":"www.regentkandy.lk","latitude":7.28348,"longitude":80.610699999999994,"district":null,"no_of_rooms":60,"registration_number":null}},{"type":"Feature","id":436,"geometry":{"type":"Point","coordinates":[79.861300000000085,6.8654900000000225]},"properties":{"objectid":436,"hotel_category":"2","hotel_name":"FAIRVIEW HOTEL","no_of_floors":null,"gfcode":null,"description":"www.tangerinehotels.com","latitude":6.8654900000000003,"longitude":79.8613,"district":null,"no_of_rooms":50,"registration_number":null}},{"type":"Feature","id":437,"geometry":{"type":"Point","coordinates":[80.031100000000038,6.3095700000000647]},"properties":{"objectid":437,"hotel_category":"5","hotel_name":"RIU HOTEL","no_of_floors":null,"gfcode":null,"description":"www.riu.com","latitude":6.3095699999999999,"longitude":80.031099999999995,"district":null,"no_of_rooms":501,"registration_number":null}},{"type":"Feature","id":438,"geometry":{"type":"Point","coordinates":[81.549900000000036,7.9315200000000345]},"properties":{"objectid":438,"hotel_category":"5","hotel_name":"ANANTAYA RESORT & SPA","no_of_floors":null,"gfcode":null,"description":"www.anantaya.lk","latitude":7.9315199999999999,"longitude":81.549899999999994,"district":null,"no_of_rooms":51,"registration_number":null}},{"type":"Feature","id":439,"geometry":{"type":"Point","coordinates":[80.783900000000074,6.0124800000000391]},"properties":{"objectid":439,"hotel_category":"5","hotel_name":"ANANTARA PEACE HEAVEN RESORT","no_of_floors":null,"gfcode":null,"description":"www.anantara.com","latitude":6.01248,"longitude":80.783900000000003,"district":null,"no_of_rooms":152,"registration_number":null}},{"type":"Feature","id":440,"geometry":{"type":"Point","coordinates":[79.947200000000066,6.6081000000000358]},"properties":{"objectid":440,"hotel_category":"3","hotel_name":"TANGERINE BEACH HOTEL","no_of_floors":null,"gfcode":null,"description":"www.tangerine hotels.com","latitude":6.6081000000000003,"longitude":79.947199999999995,"district":null,"no_of_rooms":179,"registration_number":null}},{"type":"Feature","id":441,"geometry":{"type":"Point","coordinates":[79.874100000000055,6.8837400000000457]},"properties":{"objectid":441,"hotel_category":"2","hotel_name":"BEST WESTERN ELYON  COLOMBO","no_of_floors":null,"gfcode":null,"description":"www.bestwesterncolombo.com","latitude":6.8837400000000004,"longitude":79.874099999999999,"district":null,"no_of_rooms":52,"registration_number":null}},{"type":"Feature","id":442,"geometry":{"type":"Point","coordinates":[79.853200000000072,6.8961900000000469]},"properties":{"objectid":442,"hotel_category":"1","hotel_name":"PEARL GRAND HOTEL","no_of_floors":null,"gfcode":null,"description":"www.pearlgrandhotel.com","latitude":6.8961899999999998,"longitude":79.853200000000001,"district":null,"no_of_rooms":90,"registration_number":null}},{"type":"Feature","id":443,"geometry":{"type":"Point","coordinates":[79.849900000000048,6.8984600000000569]},"properties":{"objectid":443,"hotel_category":"3","hotel_name":"OCEAN EDGE SUITES","no_of_floors":null,"gfcode":null,"description":"oceanedgesrilanka.com","latitude":6.8984600000000009,"longitude":79.849900000000005,"district":null,"no_of_rooms":78,"registration_number":null}},{"type":"Feature","id":444,"geometry":{"type":"Point","coordinates":[79.94500000000005,6.6137000000000512]},"properties":{"objectid":444,"hotel_category":"2","hotel_name":"COCO ROYAL BEACH","no_of_floors":null,"gfcode":null,"description":"www.coco royal beach.com","latitude":6.6136999999999997,"longitude":79.944999999999993,"district":null,"no_of_rooms":70,"registration_number":null}},{"type":"Feature","id":445,"geometry":{"type":"Point","coordinates":[79.838700000000074,7.2312600000000202]},"properties":{"objectid":445,"hotel_category":"1","hotel_name":"PARADISE BEACH HOTEL","no_of_floors":null,"gfcode":null,"description":"www.paradisebeachsrilanka.com","latitude":7.2312600000000007,"longitude":79.838700000000003,"district":null,"no_of_rooms":61,"registration_number":null}},{"type":"Feature","id":446,"geometry":{"type":"Point","coordinates":[79.85430000000008,6.8977700000000368]},"properties":{"objectid":446,"hotel_category":"3","hotel_name":"COLOMBO COURTYARD","no_of_floors":null,"gfcode":null,"description":"www.colombocourtyard.com","latitude":6.8977700000000004,"longitude":79.854299999999995,"district":null,"no_of_rooms":32,"registration_number":null}},{"type":"Feature","id":447,"geometry":{"type":"Point","coordinates":[79.867600000000039,6.8907600000000571]},"properties":{"objectid":447,"hotel_category":"1","hotel_name":"HOTEL JANAKI","no_of_floors":null,"gfcode":null,"description":"www.hoteljanakicolombo.com","latitude":6.8907600000000002,"longitude":79.867599999999996,"district":null,"no_of_rooms":43,"registration_number":null}},{"type":"Feature","id":448,"geometry":{"type":"Point","coordinates":[79.928600000000074,6.6552800000000616]},"properties":{"objectid":448,"hotel_category":"1","hotel_name":"VILLA OCEAN VIEW","no_of_floors":null,"gfcode":null,"description":"www.villaoceanhotels.com","latitude":6.6552799999999994,"longitude":79.928600000000003,"district":null,"no_of_rooms":143,"registration_number":null}},{"type":"Feature","id":449,"geometry":{"type":"Point","coordinates":[79.844600000000071,6.9282200000000671]},"properties":{"objectid":449,"hotel_category":"5","hotel_name":"SHANGRI- LA HOTEL COLOMBO","no_of_floors":null,"gfcode":null,"description":null,"latitude":6.9282200000000005,"longitude":79.8446,"district":null,"no_of_rooms":541,"registration_number":null}},{"type":"Feature","id":450,"geometry":{"type":"Point","coordinates":[80.007600000000082,6.3797300000000519]},"properties":{"objectid":450,"hotel_category":"3","hotel_name":"PANDANUS BEACH RESORT & SPA","no_of_floors":null,"gfcode":null,"description":"www.pandanusbeach.com","latitude":6.3797299999999995,"longitude":80.007599999999996,"district":null,"no_of_rooms":76,"registration_number":null}},{"type":"Feature","id":451,"geometry":{"type":"Point","coordinates":[80.64650000000006,7.8398700000000758]},"properties":{"objectid":451,"hotel_category":"4","hotel_name":"JETWING LAKE","no_of_floors":null,"gfcode":null,"description":"www.jetwinghotels.com","latitude":7.8398700000000003,"longitude":80.646500000000003,"district":null,"no_of_rooms":94,"registration_number":null}},{"type":"Feature","id":452,"geometry":{"type":"Point","coordinates":[80.412900000000036,8.3373500000000718]},"properties":{"objectid":452,"hotel_category":"2","hotel_name":"THE LAKESIDE AT NUWARAWEWA","no_of_floors":null,"gfcode":null,"description":null,"latitude":8.3373500000000007,"longitude":80.412899999999993,"district":null,"no_of_rooms":70,"registration_number":null}},{"type":"Feature","id":453,"geometry":{"type":"Point","coordinates":[80.387900000000059,8.342360000000042]},"properties":{"objectid":453,"hotel_category":"2","hotel_name":"THE SANCTUARY AT TISSAWEWA","no_of_floors":null,"gfcode":null,"description":null,"latitude":8.3423599999999993,"longitude":80.387900000000002,"district":null,"no_of_rooms":22,"registration_number":null}},{"type":"Feature","id":454,"geometry":{"type":"Point","coordinates":[80.640500000000031,7.2883700000000431]},"properties":{"objectid":454,"hotel_category":"3","hotel_name":"OZO KANDY","no_of_floors":null,"gfcode":null,"description":null,"latitude":7.2883699999999996,"longitude":80.640500000000003,"district":null,"no_of_rooms":122,"registration_number":null}},{"type":"Feature","id":455,"geometry":{"type":"Point","coordinates":[80.655400000000043,7.2771600000000376]},"properties":{"objectid":455,"hotel_category":"3","hotel_name":"THE GOLDEN CROWN HOTEL","no_of_floors":null,"gfcode":null,"description":"www.thegoldencrownhotel.com","latitude":7.2771600000000003,"longitude":80.6554,"district":null,"no_of_rooms":63,"registration_number":null}},{"type":"Feature","id":456,"geometry":{"type":"Point","coordinates":[80.804100000000062,6.4198100000000409]},"properties":{"objectid":456,"hotel_category":"4","hotel_name":"GRAND UDAWALAWE SAFARI RESORT","no_of_floors":null,"gfcode":null,"description":"www.grandudawalawe.com","latitude":6.41981,"longitude":80.804100000000005,"district":null,"no_of_rooms":57,"registration_number":null}},{"type":"Feature","id":457,"geometry":{"type":"Point","coordinates":[80.117600000000039,6.1154400000000351]},"properties":{"objectid":457,"hotel_category":"2","hotel_name":"LAVANGA RESORT AND SPA","no_of_floors":null,"gfcode":null,"description":"www.lavanga.lk","latitude":6.1154400000000004,"longitude":80.117599999999996,"district":null,"no_of_rooms":20,"registration_number":null}},{"type":"Feature","id":458,"geometry":{"type":"Point","coordinates":[80.76460000000003,6.9674700000000485]},"properties":{"objectid":458,"hotel_category":"5","hotel_name":"ARALIYA GREEN CITY","no_of_floors":null,"gfcode":null,"description":"www.araliyagreencity.com","latitude":6.9674699999999996,"longitude":80.764600000000002,"district":null,"no_of_rooms":192,"registration_number":null}},{"type":"Feature","id":459,"geometry":{"type":"Point","coordinates":[79.939800000000048,6.6248800000000756]},"properties":{"objectid":459,"hotel_category":"4","hotel_name":"CITRUS WASKADUWA","no_of_floors":null,"gfcode":null,"description":"www.citrusleisure.com","latitude":6.6248800000000001,"longitude":79.939800000000005,"district":null,"no_of_rooms":150,"registration_number":null}},{"type":"Feature","id":460,"geometry":{"type":"Point","coordinates":[80.734100000000069,7.999080000000049]},"properties":{"objectid":460,"hotel_category":"4","hotel_name":"ALIYA RESORT & SPA","no_of_floors":null,"gfcode":null,"description":null,"latitude":7.9990799999999993,"longitude":80.734099999999998,"district":null,"no_of_rooms":96,"registration_number":null}},{"type":"Feature","id":461,"geometry":{"type":"Point","coordinates":[80.272700000000043,6.0417300000000296]},"properties":{"objectid":461,"hotel_category":"1V","hotel_name":"APA VILLA","no_of_floors":null,"gfcode":null,"description":"www.villasrilanka.com","latitude":6.0417299999999994,"longitude":80.2727,"district":null,"no_of_rooms":5,"registration_number":null}},{"type":"Feature","id":462,"geometry":{"type":"Point","coordinates":[80.662700000000029,7.7924800000000687]},"properties":{"objectid":462,"hotel_category":"1V","hotel_name":"ARIKA VILLAS","no_of_floors":null,"gfcode":null,"description":"www.arikavillas.com","latitude":7.7924799999999994,"longitude":80.662700000000001,"district":null,"no_of_rooms":9,"registration_number":null}},{"type":"Feature","id":463,"geometry":{"type":"Point","coordinates":[79.796000000000049,7.506240000000048]},"properties":{"objectid":463,"hotel_category":"1V","hotel_name":"C & I BEACH HOTEL","no_of_floors":null,"gfcode":null,"description":"www.cibeachhotel.com","latitude":7.50624,"longitude":79.796000000000006,"district":null,"no_of_rooms":11,"registration_number":null}},{"type":"Feature","id":464,"geometry":{"type":"Point","coordinates":[80.572200000000066,6.8662500000000364]},"properties":{"objectid":464,"hotel_category":"1V","hotel_name":"CASTLEREAGH BUNGALOW","no_of_floors":null,"gfcode":null,"description":"www.resplendentceylon.com/teatrails","latitude":6.86625,"longitude":80.572199999999995,"district":null,"no_of_rooms":5,"registration_number":null}},{"type":"Feature","id":465,"geometry":{"type":"Point","coordinates":[80.774200000000064,7.2674500000000535]},"properties":{"objectid":465,"hotel_category":"1V","hotel_name":"CLINGENDAEL","no_of_floors":null,"gfcode":null,"description":"www.theclingendael.com","latitude":7.2674500000000002,"longitude":80.774199999999993,"district":null,"no_of_rooms":5,"registration_number":null}},{"type":"Feature","id":466,"geometry":{"type":"Point","coordinates":[80.244000000000085,6.027430000000038]},"properties":{"objectid":466,"hotel_category":"1V","hotel_name":"COCO BAY","no_of_floors":null,"gfcode":null,"description":"www.cocobayunawatuna.com","latitude":6.0274299999999998,"longitude":80.244,"district":null,"no_of_rooms":8,"registration_number":null}},{"type":"Feature","id":467,"geometry":{"type":"Point","coordinates":[80.012900000000059,6.3735600000000545]},"properties":{"objectid":467,"hotel_category":"1V","hotel_name":"COCOON RESORT AND VILLAS","no_of_floors":null,"gfcode":null,"description":"cocoonresort@gmail.com","latitude":6.3735600000000003,"longitude":80.012900000000002,"district":null,"no_of_rooms":10,"registration_number":null}},{"type":"Feature","id":468,"geometry":{"type":"Point","coordinates":[80.572900000000061,6.8580800000000295]},"properties":{"objectid":468,"hotel_category":"1V","hotel_name":"DUNKELD BUNGALOW","no_of_floors":null,"gfcode":null,"description":"http://www.resplendentceylon.com/teatrails","latitude":6.8580800000000002,"longitude":80.572900000000004,"district":null,"no_of_rooms":5,"registration_number":null}},{"type":"Feature","id":469,"geometry":{"type":"Point","coordinates":[79.887300000000039,6.8864700000000312]},"properties":{"objectid":469,"hotel_category":"1V","hotel_name":"DVILLAS LUXURY","no_of_floors":null,"gfcode":null,"description":"http://www.dvillas.biz/","latitude":6.8864700000000001,"longitude":79.887299999999996,"district":null,"no_of_rooms":6,"registration_number":null}},{"type":"Feature","id":470,"geometry":{"type":"Point","coordinates":[80.629300000000057,7.1872300000000564]},"properties":{"objectid":470,"hotel_category":"1V","hotel_name":"ELLERTON HOTEL","no_of_floors":null,"gfcode":null,"description":"http://www.ellertonsrilanka.com/","latitude":7.1872299999999996,"longitude":80.629300000000001,"district":null,"no_of_rooms":5,"registration_number":null}},{"type":"Feature","id":471,"geometry":{"type":"Point","coordinates":[80.272800000000075,5.9984800000000291]},"properties":{"objectid":471,"hotel_category":"1V","hotel_name":"ERA BEACH HOTEL","no_of_floors":null,"gfcode":null,"description":"www.jetwinghotels.com","latitude":5.9984799999999998,"longitude":80.272800000000004,"district":null,"no_of_rooms":6,"registration_number":null}},{"type":"Feature","id":472,"geometry":{"type":"Point","coordinates":[80.413800000000037,5.9581100000000333]},"properties":{"objectid":472,"hotel_category":"1V","hotel_name":"ERAELIYA VILLAS AND GARDENS","no_of_floors":null,"gfcode":null,"description":null,"latitude":5.9581099999999996,"longitude":80.413799999999995,"district":null,"no_of_rooms":7,"registration_number":null}},{"type":"Feature","id":473,"geometry":{"type":"Point","coordinates":[80.372600000000034,5.9676600000000235]},"properties":{"objectid":473,"hotel_category":"1V","hotel_name":"INDISCH","no_of_floors":null,"gfcode":null,"description":"www.indischsrilanka.com","latitude":5.9676600000000004,"longitude":80.372600000000006,"district":null,"no_of_rooms":5,"registration_number":null}},{"type":"Feature","id":474,"geometry":{"type":"Point","coordinates":[80.34600000000006,6.0209000000000401]},"properties":{"objectid":474,"hotel_category":"1V","hotel_name":"KAHANDA KANDA","no_of_floors":null,"gfcode":null,"description":"http://www.kahandakanda.com/","latitude":6.0209000000000001,"longitude":80.346000000000004,"district":null,"no_of_rooms":6,"registration_number":null}},{"type":"Feature","id":475,"geometry":{"type":"Point","coordinates":[80.690300000000036,7.8631300000000692]},"properties":{"objectid":475,"hotel_category":"1V","hotel_name":"LAKE LODGE BOUTIQUE HOTEL","no_of_floors":null,"gfcode":null,"description":"lakelodgekandalama.com","latitude":7.86313,"longitude":80.690299999999993,"district":null,"no_of_rooms":6,"registration_number":null}},{"type":"Feature","id":476,"geometry":{"type":"Point","coordinates":[80.772400000000061,6.9641200000000367]},"properties":{"objectid":476,"hotel_category":"1V","hotel_name":"MIRAGE KINGS COTTAGE","no_of_floors":null,"gfcode":null,"description":"www.miragekingscottage.com","latitude":6.9641200000000003,"longitude":80.772400000000005,"district":null,"no_of_rooms":11,"registration_number":null}},{"type":"Feature","id":477,"geometry":{"type":"Point","coordinates":[80.619400000000041,7.2551200000000335]},"properties":{"objectid":477,"hotel_category":"1V","hotel_name":"MOUNT BATTEN BUNGALOW","no_of_floors":null,"gfcode":null,"description":"www.mountbattenbungalow.com","latitude":7.2551199999999998,"longitude":80.619399999999999,"district":null,"no_of_rooms":3,"registration_number":null}},{"type":"Feature","id":478,"geometry":{"type":"Point","coordinates":[80.599500000000035,7.1449400000000765]},"properties":{"objectid":478,"hotel_category":"1V","hotel_name":"MOUNT HAVANA LUXURY BOUTIQUE VILLA","no_of_floors":null,"gfcode":null,"description":"www.mounthavana.com","latitude":7.1449400000000001,"longitude":80.599500000000006,"district":null,"no_of_rooms":5,"registration_number":null}},{"type":"Feature","id":479,"geometry":{"type":"Point","coordinates":[80.604100000000074,6.8345400000000609]},"properties":{"objectid":479,"hotel_category":"1V","hotel_name":"NORWOOD BUNGALOW","no_of_floors":null,"gfcode":null,"description":"www.resplendentceylon.com/teatrails","latitude":6.8345400000000005,"longitude":80.604100000000003,"district":null,"no_of_rooms":5,"registration_number":null}},{"type":"Feature","id":480,"geometry":{"type":"Point","coordinates":[79.999700000000075,6.4117300000000341]},"properties":{"objectid":480,"hotel_category":"1V","hotel_name":"PARADISE ROAD THE VILLA BENTOTA","no_of_floors":null,"gfcode":null,"description":"http://www.paradiseroadhotels.com/villabentota/","latitude":6.4117299999999995,"longitude":79.999700000000004,"district":null,"no_of_rooms":8,"registration_number":null}},{"type":"Feature","id":481,"geometry":{"type":"Point","coordinates":[79.928300000000036,6.6589700000000676]},"properties":{"objectid":481,"hotel_category":"1V","hotel_name":"REEF VILLA & SPA","no_of_floors":null,"gfcode":null,"description":"https://www.reefvilla.com/","latitude":6.6589700000000001,"longitude":79.928299999999993,"district":null,"no_of_rooms":7,"registration_number":null}},{"type":"Feature","id":482,"geometry":{"type":"Point","coordinates":[79.997400000000084,6.4135800000000245]},"properties":{"objectid":482,"hotel_category":"1V","hotel_name":"ROCK VILLA","no_of_floors":null,"gfcode":null,"description":"www.taruvillas.com","latitude":6.4135799999999996,"longitude":79.997399999999999,"district":null,"no_of_rooms":7,"registration_number":null}},{"type":"Feature","id":483,"geometry":{"type":"Point","coordinates":[80.352800000000059,7.2769500000000562]},"properties":{"objectid":483,"hotel_category":"1V","hotel_name":"ROSYTH ESTATE HOUSE","no_of_floors":null,"gfcode":null,"description":"www.rosyth.lk","latitude":7.2769500000000003,"longitude":80.352800000000002,"district":null,"no_of_rooms":7,"registration_number":null}},{"type":"Feature","id":484,"geometry":{"type":"Point","coordinates":[80.581000000000074,6.8672700000000759]},"properties":{"objectid":484,"hotel_category":"1V","hotel_name":"SUMMERVILLE","no_of_floors":null,"gfcode":null,"description":"www.resplendentceylon.com/teatrails","latitude":6.8672700000000004,"longitude":80.581000000000003,"district":null,"no_of_rooms":5,"registration_number":null}},{"type":"Feature","id":485,"geometry":{"type":"Point","coordinates":[79.997300000000052,6.4138400000000502]},"properties":{"objectid":485,"hotel_category":"1V","hotel_name":"TARU VILLAS - THE MUSE","no_of_floors":null,"gfcode":null,"description":"www.taruvillas.com","latitude":6.4138400000000004,"longitude":79.997299999999996,"district":null,"no_of_rooms":9,"registration_number":null}},{"type":"Feature","id":486,"geometry":{"type":"Point","coordinates":[80.614000000000033,7.2821100000000456]},"properties":{"objectid":486,"hotel_category":"1V","hotel_name":"THE KANDY HOUSE","no_of_floors":null,"gfcode":null,"description":"www.thekandyhouse.com","latitude":7.2821099999999994,"longitude":80.614000000000004,"district":null,"no_of_rooms":10,"registration_number":null}},{"type":"Feature","id":487,"geometry":{"type":"Point","coordinates":[80.043300000000045,6.2605800000000613]},"properties":{"objectid":487,"hotel_category":"1V","hotel_name":"THE RIVER HOUSE","no_of_floors":null,"gfcode":null,"description":"www.asialeiusre.lk","latitude":6.26058,"longitude":80.043300000000002,"district":null,"no_of_rooms":5,"registration_number":null}},{"type":"Feature","id":488,"geometry":{"type":"Point","coordinates":[80.218900000000076,6.0380300000000489]},"properties":{"objectid":488,"hotel_category":"1V","hotel_name":"THE SUN HOUSE","no_of_floors":null,"gfcode":null,"description":"www.thesunhouse.com","latitude":6.03803,"longitude":80.218900000000005,"district":null,"no_of_rooms":6,"registration_number":null}},{"type":"Feature","id":489,"geometry":{"type":"Point","coordinates":[80.657800000000066,6.8134300000000394]},"properties":{"objectid":489,"hotel_category":"1V","hotel_name":"TIENTSIN BUNGALOW","no_of_floors":null,"gfcode":null,"description":"www.resplendentceylon.com/teatrails","latitude":6.8134299999999994,"longitude":80.657799999999995,"district":null,"no_of_rooms":6,"registration_number":null}},{"type":"Feature","id":490,"geometry":{"type":"Point","coordinates":[80.179400000000044,6.0588500000000636]},"properties":{"objectid":490,"hotel_category":"1V","hotel_name":"VILLA REPUBLIC GALLE","no_of_floors":null,"gfcode":null,"description":null,"latitude":6.0588499999999996,"longitude":80.179400000000001,"district":null,"no_of_rooms":8,"registration_number":null}},{"type":"Feature","id":491,"geometry":{"type":"Point","coordinates":[80.113700000000051,6.1222200000000271]},"properties":{"objectid":491,"hotel_category":"1V","hotel_name":"VILLA SAFFRON","no_of_floors":null,"gfcode":null,"description":"www.villasaffron","latitude":6.1222200000000004,"longitude":80.113699999999994,"district":null,"no_of_rooms":5,"registration_number":null}},{"type":"Feature","id":492,"geometry":{"type":"Point","coordinates":[80.828200000000038,6.897700000000043]},"properties":{"objectid":492,"hotel_category":"1V","hotel_name":"WARWICK GARDEN","no_of_floors":null,"gfcode":null,"description":"www.jetwinghotels.com","latitude":6.8977000000000004,"longitude":80.828199999999995,"district":null,"no_of_rooms":5,"registration_number":null}},{"type":"Feature","id":493,"geometry":{"type":"Point","coordinates":[80.007100000000037,6.4308500000000208]},"properties":{"objectid":493,"hotel_category":"1V","hotel_name":"WATERSIDE BENTOTA","no_of_floors":null,"gfcode":null,"description":"www.benthotawaterside.com","latitude":6.4308499999999995,"longitude":80.007099999999994,"district":null,"no_of_rooms":6,"registration_number":null}},{"type":"Feature","id":494,"geometry":{"type":"Point","coordinates":[80.266600000000039,6.0074000000000751]},"properties":{"objectid":494,"hotel_category":"1V","hotel_name":"WHY HOUSE","no_of_floors":null,"gfcode":null,"description":"www.whyhousesrilanka.com","latitude":6.0073999999999996,"longitude":80.266599999999997,"district":null,"no_of_rooms":8,"registration_number":null}},{"type":"Feature","id":495,"geometry":{"type":"Point","coordinates":[80.72440000000006,7.9042700000000536]},"properties":{"objectid":495,"hotel_category":"1V","hotel_name":"WILD GRASS NATURE RESORT","no_of_floors":null,"gfcode":null,"description":"www.wildgrass.com","latitude":7.9042700000000004,"longitude":80.724400000000003,"district":null,"no_of_rooms":5,"registration_number":null}},{"type":"Feature","id":496,"geometry":{"type":"Point","coordinates":[80.135000000000048,6.0947300000000268]},"properties":{"objectid":496,"hotel_category":"1H","hotel_name":"ADITYA","no_of_floors":null,"gfcode":null,"description":"http://www.aditya-resort.com/","latitude":6.0947299999999993,"longitude":80.135000000000005,"district":null,"no_of_rooms":12,"registration_number":null}},{"type":"Feature","id":497,"geometry":{"type":"Point","coordinates":[80.217000000000041,6.0289800000000469]},"properties":{"objectid":497,"hotel_category":"1H","hotel_name":"AMANGALLE","no_of_floors":null,"gfcode":null,"description":"http://www.amanresorts.com/amangalla/home.aspx","latitude":6.0289799999999998,"longitude":80.216999999999999,"district":null,"no_of_rooms":28,"registration_number":null}},{"type":"Feature","id":498,"geometry":{"type":"Point","coordinates":[80.777400000000057,6.0061700000000542]},"properties":{"objectid":498,"hotel_category":"1H","hotel_name":"AMANWELLA","no_of_floors":null,"gfcode":null,"description":"www.amanresorts.com","latitude":6.00617,"longitude":80.7774,"district":null,"no_of_rooms":30,"registration_number":null}},{"type":"Feature","id":499,"geometry":{"type":"Point","coordinates":[80.512500000000045,7.7269400000000701]},"properties":{"objectid":499,"hotel_category":"1H","hotel_name":"BROOK BOUTIQUE","no_of_floors":null,"gfcode":null,"description":"www.brook.lk","latitude":7.7269399999999999,"longitude":80.512500000000003,"district":null,"no_of_rooms":10,"registration_number":null}},{"type":"Feature","id":500,"geometry":{"type":"Point","coordinates":[80.855500000000063,6.0473400000000765]},"properties":{"objectid":500,"hotel_category":"1H","hotel_name":"BUCKINGAM PLACE","no_of_floors":null,"gfcode":null,"description":"www.buckinghamplace.lk","latitude":6.0473400000000002,"longitude":80.855500000000006,"district":null,"no_of_rooms":11,"registration_number":null}},{"type":"Feature","id":501,"geometry":{"type":"Point","coordinates":[79.857700000000079,6.8888400000000729]},"properties":{"objectid":501,"hotel_category":"1H","hotel_name":"CASA COLOMBO","no_of_floors":null,"gfcode":null,"description":"www.l.m.j.com","latitude":6.8888400000000001,"longitude":79.857699999999994,"district":null,"no_of_rooms":11,"registration_number":null}},{"type":"Feature","id":502,"geometry":{"type":"Point","coordinates":[79.99900000000008,6.4140900000000443]},"properties":{"objectid":502,"hotel_category":"1H","hotel_name":"CLUB VILLA","no_of_floors":null,"gfcode":null,"description":"www.clubvilla.com","latitude":6.4140899999999998,"longitude":79.998999999999995,"district":null,"no_of_rooms":15,"registration_number":null}},{"type":"Feature","id":503,"geometry":{"type":"Point","coordinates":[80.217600000000061,6.0266500000000747]},"properties":{"objectid":503,"hotel_category":"1H","hotel_name":"GALLE FORT HOTEL","no_of_floors":null,"gfcode":null,"description":"www.galleforthotel.com","latitude":6.0266500000000001,"longitude":80.217600000000004,"district":null,"no_of_rooms":14,"registration_number":null}},{"type":"Feature","id":504,"geometry":{"type":"Point","coordinates":[80.410000000000082,5.9603300000000559]},"properties":{"objectid":504,"hotel_category":"1H","hotel_name":"HIGHLAND VILLA","no_of_floors":null,"gfcode":null,"description":"www.highland-villa.info","latitude":5.9603299999999999,"longitude":80.409999999999997,"district":null,"no_of_rooms":10,"registration_number":null}},{"type":"Feature","id":505,"geometry":{"type":"Point","coordinates":[80.61990000000003,7.6213600000000383]},"properties":{"objectid":505,"hotel_category":"1H","hotel_name":"JIMS FARM VILLA","no_of_floors":null,"gfcode":null,"description":"www.jimsfarmvillas.com","latitude":7.6213600000000001,"longitude":80.619900000000001,"district":null,"no_of_rooms":10,"registration_number":null}},{"type":"Feature","id":506,"geometry":{"type":"Point","coordinates":[80.718100000000049,6.9292100000000687]},"properties":{"objectid":506,"hotel_category":"1H","hotel_name":"LANGDALE RESORT & SPA","no_of_floors":null,"gfcode":null,"description":"http://www.langdalebyamaya.com/","latitude":6.9292099999999994,"longitude":80.718100000000007,"district":null,"no_of_rooms":13,"registration_number":null}},{"type":"Feature","id":507,"geometry":{"type":"Point","coordinates":[81.561300000000074,7.9283900000000358]},"properties":{"objectid":507,"hotel_category":"1H","hotel_name":"MAALU MAALU RESORTS & SPA","no_of_floors":null,"gfcode":null,"description":"www.maalumaalu.com","latitude":7.9283900000000003,"longitude":81.561300000000003,"district":null,"no_of_rooms":40,"registration_number":null}},{"type":"Feature","id":508,"geometry":{"type":"Point","coordinates":[80.453800000000058,5.9640200000000618]},"properties":{"objectid":508,"hotel_category":"1H","hotel_name":"MANDARA RESORT","no_of_floors":null,"gfcode":null,"description":"www.mandararesort.com","latitude":5.9640200000000005,"longitude":80.453800000000001,"district":null,"no_of_rooms":12,"registration_number":null}},{"type":"Feature","id":509,"geometry":{"type":"Point","coordinates":[79.870000000000061,6.9150300000000584]},"properties":{"objectid":509,"hotel_category":"1H","hotel_name":"PARADISE ROAD TINTAGEL COLOMBO","no_of_floors":null,"gfcode":null,"description":"http://www.paradiseroadhotels.com/","latitude":6.9150299999999998,"longitude":79.870000000000005,"district":null,"no_of_rooms":10,"registration_number":null}},{"type":"Feature","id":510,"geometry":{"type":"Point","coordinates":[80.004400000000032,6.3955200000000332]},"properties":{"objectid":510,"hotel_category":"1H","hotel_name":"SAMAN VILLAS","no_of_floors":null,"gfcode":null,"description":"www.samanvilla.com","latitude":6.3955200000000003,"longitude":80.004400000000004,"district":null,"no_of_rooms":27,"registration_number":null}},{"type":"Feature","id":511,"geometry":{"type":"Point","coordinates":[80.863500000000045,6.0481400000000463]},"properties":{"objectid":511,"hotel_category":"1H","hotel_name":"SOORIYA RESORT & SPA","no_of_floors":null,"gfcode":null,"description":"www.sooriya.com","latitude":6.0481400000000001,"longitude":80.863500000000002,"district":null,"no_of_rooms":38,"registration_number":null}},{"type":"Feature","id":512,"geometry":{"type":"Point","coordinates":[80.197400000000073,6.0448500000000536]},"properties":{"objectid":512,"hotel_category":"1H","hotel_name":"TAMARIND HILL HOTEL","no_of_floors":null,"gfcode":null,"description":"www.asialeisure.lk","latitude":6.0448500000000003,"longitude":80.197400000000002,"district":null,"no_of_rooms":11,"registration_number":null}},{"type":"Feature","id":513,"geometry":{"type":"Point","coordinates":[80.710700000000031,7.943520000000035]},"properties":{"objectid":513,"hotel_category":"1H","hotel_name":"THE ELEPHANT CORRIDOR","no_of_floors":null,"gfcode":null,"description":"http://www.elephantcorridor.com/","latitude":7.9435200000000004,"longitude":80.710700000000003,"district":null,"no_of_rooms":21,"registration_number":null}},{"type":"Feature","id":514,"geometry":{"type":"Point","coordinates":[80.210000000000036,6.0200000000000387]},"properties":{"objectid":514,"hotel_category":"1H","hotel_name":"THE FORT BAZAAR","no_of_floors":null,"gfcode":null,"description":"www.teardrop-hotels.com","latitude":6.0199999999999996,"longitude":80.209999999999994,"district":null,"no_of_rooms":18,"registration_number":null}},{"type":"Feature","id":515,"geometry":{"type":"Point","coordinates":[80.326400000000035,5.9865400000000477]},"properties":{"objectid":515,"hotel_category":"1H","hotel_name":"THE FORTRESS","no_of_floors":null,"gfcode":null,"description":"https://www.thefortress.lk/","latitude":5.9865400000000006,"longitude":80.326400000000007,"district":null,"no_of_rooms":49,"registration_number":null}},{"type":"Feature","id":516,"geometry":{"type":"Point","coordinates":[80.025800000000061,6.3405700000000706]},"properties":{"objectid":516,"hotel_category":"1H","hotel_name":"THE HABITAT","no_of_floors":null,"gfcode":null,"description":"www.asialeisure.lk","latitude":6.3405700000000005,"longitude":80.025800000000004,"district":null,"no_of_rooms":28,"registration_number":null}},{"type":"Feature","id":517,"geometry":{"type":"Point","coordinates":[81.063800000000072,6.8767700000000218]},"properties":{"objectid":517,"hotel_category":"1H","hotel_name":"THE SECRET ELLA","no_of_floors":null,"gfcode":null,"description":"WWW.THE SECRET HOTELS.COM","latitude":6.8767699999999996,"longitude":81.063800000000001,"district":null,"no_of_rooms":10,"registration_number":null}},{"type":"Feature","id":518,"geometry":{"type":"Point","coordinates":[79.927900000000079,7.1319800000000555]},"properties":{"objectid":518,"hotel_category":"1H","hotel_name":"THE WALAWWA","no_of_floors":null,"gfcode":null,"description":"www.thewalawwa.com","latitude":7.1319799999999995,"longitude":79.927899999999994,"district":null,"no_of_rooms":17,"registration_number":null}},{"type":"Feature","id":519,"geometry":{"type":"Point","coordinates":[80.545100000000048,8.2059300000000235]},"properties":{"objectid":519,"hotel_category":"1H","hotel_name":"ULAGALLA WALAWWA RESORT","no_of_floors":null,"gfcode":null,"description":"www.ulagallaresorts.com","latitude":8.2059300000000004,"longitude":80.545100000000005,"district":null,"no_of_rooms":21,"registration_number":null}},{"type":"Feature","id":520,"geometry":{"type":"Point","coordinates":[80.720300000000066,7.9297100000000569]},"properties":{"objectid":520,"hotel_category":"1H","hotel_name":"VIL UYANA","no_of_floors":null,"gfcode":null,"description":"www.jetwinghotels.com","latitude":7.92971,"longitude":80.720299999999995,"district":null,"no_of_rooms":30,"registration_number":null}},{"type":"Feature","id":521,"geometry":{"type":"Point","coordinates":[80.744200000000035,7.9944000000000415]},"properties":{"objectid":521,"hotel_category":"1H","hotel_name":"WATER GARDEN,SIGIRIYA","no_of_floors":null,"gfcode":null,"description":"www.watergardensigiriya.com","latitude":7.9943999999999997,"longitude":80.744200000000006,"district":null,"no_of_rooms":30,"registration_number":null}},{"type":"Feature","id":522,"geometry":{"type":"Point","coordinates":[81.408400000000086,6.2606400000000235]},"properties":{"objectid":522,"hotel_category":"1H","hotel_name":"WILD COAST LODGE","no_of_floors":null,"gfcode":null,"description":"www.resplendentceylon.com/wildcoastlodge-yala","latitude":6.2606400000000004,"longitude":81.4084,"district":null,"no_of_rooms":28,"registration_number":null}},{"type":"Feature","id":523,"geometry":{"type":"Point","coordinates":[81.844600000000071,6.8799400000000333]},"properties":{"objectid":523,"hotel_category":"UC","hotel_name":"THE GATEWAY HOTEL AIRPORT GARDEN COLOMBO","no_of_floors":null,"gfcode":null,"description":"www.tajhotels.com","latitude":6.8799400000000004,"longitude":81.8446,"district":null,"no_of_rooms":208,"registration_number":null}},{"type":"Feature","id":524,"geometry":{"type":"Point","coordinates":[80.100100000000054,6.1343800000000215]},"properties":{"objectid":524,"hotel_category":"UC","hotel_name":"CORAL ROCK BY BANSEI","no_of_floors":null,"gfcode":null,"description":"www.coralrockhotel.com","latitude":6.1343799999999993,"longitude":80.100099999999998,"district":null,"no_of_rooms":30,"registration_number":null}},{"type":"Feature","id":525,"geometry":{"type":"Point","coordinates":[80.926000000000045,7.6187000000000467]},"properties":{"objectid":525,"hotel_category":"UC","hotel_name":"LAVENDISH WILD SAFARI HOTEL","no_of_floors":null,"gfcode":null,"description":"www.lavendishleisure.com","latitude":7.6187000000000005,"longitude":80.926000000000002,"district":null,"no_of_rooms":24,"registration_number":null}},{"type":"Feature","id":526,"geometry":{"type":"Point","coordinates":[79.935700000000054,6.6425700000000347]},"properties":{"objectid":526,"hotel_category":"UC","hotel_name":"SIDDHALEPA AYURVEDA HEALTH RESORT","no_of_floors":null,"gfcode":null,"description":"www.ayurvedaresort.com","latitude":6.6425700000000001,"longitude":79.935699999999997,"district":null,"no_of_rooms":50,"registration_number":null}},{"type":"Feature","id":527,"geometry":{"type":"Point","coordinates":[79.948700000000031,6.6100300000000516]},"properties":{"objectid":527,"hotel_category":"UC","hotel_name":"ROYAL PALMS BEACH HOTEL","no_of_floors":null,"gfcode":null,"description":null,"latitude":6.6100300000000001,"longitude":79.948700000000002,"district":null,"no_of_rooms":123,"registration_number":null}},{"type":"Feature","id":528,"geometry":{"type":"Point","coordinates":[81.218400000000031,8.6145200000000273]},"properties":{"objectid":528,"hotel_category":"UC","hotel_name":"SEA LOTUS PARK HOTEL","no_of_floors":null,"gfcode":null,"description":"www.lotustrinco.com","latitude":8.6145199999999988,"longitude":81.218400000000003,"district":null,"no_of_rooms":25,"registration_number":null}},{"type":"Feature","id":529,"geometry":{"type":"Point","coordinates":[79.96040000000005,6.5684800000000223]},"properties":{"objectid":529,"hotel_category":"UC","hotel_name":"AVANI KALUTARA RESORT","no_of_floors":null,"gfcode":null,"description":null,"latitude":6.5684800000000001,"longitude":79.960400000000007,"district":null,"no_of_rooms":105,"registration_number":null}},{"type":"Feature","id":530,"geometry":{"type":"Point","coordinates":[81.215800000000058,8.5700300000000311]},"properties":{"objectid":530,"hotel_category":"UC","hotel_name":"WELCOMBE HOTEL","no_of_floors":null,"gfcode":null,"description":"www.welcombehotel.com","latitude":8.5700300000000009,"longitude":81.215800000000002,"district":null,"no_of_rooms":20,"registration_number":null}},{"type":"Feature","id":531,"geometry":{"type":"Point","coordinates":[80.655300000000068,7.8221500000000219]},"properties":{"objectid":531,"hotel_category":"UC","hotel_name":"THILANKA RESORTS & SPA","no_of_floors":null,"gfcode":null,"description":"www.thilankaresorts.lk","latitude":7.8221499999999997,"longitude":80.655299999999997,"district":null,"no_of_rooms":68,"registration_number":null}},{"type":"Feature","id":532,"geometry":{"type":"Point","coordinates":[80.102300000000071,6.1299000000000206]},"properties":{"objectid":532,"hotel_category":"UC","hotel_name":"HOTEL LANKA SUPER CORALS","no_of_floors":null,"gfcode":null,"description":"http://www.hotellankasupercorals.com/","latitude":6.1299000000000001,"longitude":80.1023,"district":null,"no_of_rooms":100,"registration_number":null}},{"type":"Feature","id":533,"geometry":{"type":"Point","coordinates":[81.331200000000081,6.2289600000000291]},"properties":{"objectid":533,"hotel_category":"UC","hotel_name":"ELEPHANT REACH HOTEL","no_of_floors":null,"gfcode":null,"description":"www.elephantreach.com","latitude":6.2289600000000007,"longitude":81.331199999999995,"district":null,"no_of_rooms":28,"registration_number":null}},{"type":"Feature","id":534,"geometry":{"type":"Point","coordinates":[79.84170000000006,7.2437600000000657]},"properties":{"objectid":534,"hotel_category":"UC","hotel_name":"JETWING BEACH","no_of_floors":null,"gfcode":null,"description":null,"latitude":7.24376,"longitude":79.841700000000003,"district":null,"no_of_rooms":78,"registration_number":null}},{"type":"Feature","id":535,"geometry":{"type":"Point","coordinates":[80.19440000000003,6.042660000000069]},"properties":{"objectid":535,"hotel_category":"UC","hotel_name":"JETWING LIGHTHOUSE","no_of_floors":null,"gfcode":null,"description":null,"latitude":6.0426600000000006,"longitude":80.194400000000002,"district":null,"no_of_rooms":85,"registration_number":null}},{"type":"Feature","id":536,"geometry":{"type":"Point","coordinates":[81.29120000000006,6.2877500000000737]},"properties":{"objectid":536,"hotel_category":"UC","hotel_name":"THE SAFARI","no_of_floors":null,"gfcode":null,"description":"http://yalasafariholidays.com/","latitude":6.28775,"longitude":81.291200000000003,"district":null,"no_of_rooms":57,"registration_number":null}},{"type":"Feature","id":537,"geometry":{"type":"Point","coordinates":[80.992600000000039,7.9243500000000608]},"properties":{"objectid":537,"hotel_category":"UC","hotel_name":"THE LAKE","no_of_floors":null,"gfcode":null,"description":null,"latitude":7.9243499999999996,"longitude":80.992599999999996,"district":null,"no_of_rooms":40,"registration_number":null}},{"type":"Feature","id":538,"geometry":{"type":"Point","coordinates":[80.641500000000065,7.2865600000000654]},"properties":{"objectid":538,"hotel_category":"UC","hotel_name":"SERENE GRAND HOTEL","no_of_floors":null,"gfcode":null,"description":"www.serenegrandhotel.com","latitude":7.2865600000000006,"longitude":80.641499999999994,"district":null,"no_of_rooms":21,"registration_number":null}},{"type":"Feature","id":539,"geometry":{"type":"Point","coordinates":[80.686000000000035,5.9591200000000413]},"properties":{"objectid":539,"hotel_category":"UC","hotel_name":"DICKWELLA RESORT","no_of_floors":null,"gfcode":null,"description":"http://www.brownshotels.com/dickwella/","latitude":5.9591200000000004,"longitude":80.686000000000007,"district":null,"no_of_rooms":61,"registration_number":null}},{"type":"Feature","id":540,"geometry":{"type":"Point","coordinates":[80.284400000000062,5.9958900000000313]},"properties":{"objectid":540,"hotel_category":"UC","hotel_name":"AYURVEDA PARAGON","no_of_floors":null,"gfcode":null,"description":null,"latitude":5.9958900000000002,"longitude":80.284400000000005,"district":null,"no_of_rooms":82,"registration_number":null}},{"type":"Feature","id":541,"geometry":{"type":"Point","coordinates":[80.625600000000077,7.2912900000000604]},"properties":{"objectid":541,"hotel_category":"UC","hotel_name":"THE TOURMALINE","no_of_floors":null,"gfcode":null,"description":"www.mclarenshotels.lk","latitude":7.29129,"longitude":80.625600000000006,"district":null,"no_of_rooms":24,"registration_number":null}},{"type":"Feature","id":542,"geometry":{"type":"Point","coordinates":[79.841900000000066,7.2369800000000737]},"properties":{"objectid":542,"hotel_category":"UC","hotel_name":"JETWING AYURVEDA","no_of_floors":null,"gfcode":null,"description":"http://www.jetwinghotels.com/jetwingayurvedapavili","latitude":7.23698,"longitude":79.841899999999995,"district":null,"no_of_rooms":12,"registration_number":null}},{"type":"Feature","id":543,"geometry":{"type":"Point","coordinates":[80.733700000000056,7.8997100000000273]},"properties":{"objectid":543,"hotel_category":"UC","hotel_name":"GREEN PARADISE AGRO ECO HOTEL","no_of_floors":null,"gfcode":null,"description":"www.greenparadise.net","latitude":7.8997099999999998,"longitude":80.733699999999999,"district":null,"no_of_rooms":67,"registration_number":null}},{"type":"Feature","id":544,"geometry":{"type":"Point","coordinates":[80.099700000000041,6.1366300000000251]},"properties":{"objectid":544,"hotel_category":"UC","hotel_name":"CORAL SANDS HOTEL","no_of_floors":null,"gfcode":null,"description":"http://www.coralsandshotel.com/","latitude":6.1366299999999994,"longitude":80.099699999999999,"district":null,"no_of_rooms":72,"registration_number":null}},{"type":"Feature","id":545,"geometry":{"type":"Point","coordinates":[79.840900000000033,7.2280000000000655]},"properties":{"objectid":545,"hotel_category":"UC","hotel_name":"ROYAL CASTLE","no_of_floors":null,"gfcode":null,"description":"www.thepalacehotel.net","latitude":7.2279999999999998,"longitude":79.840900000000005,"district":null,"no_of_rooms":20,"registration_number":null}},{"type":"Feature","id":546,"geometry":{"type":"Point","coordinates":[80.669400000000053,7.9036200000000463]},"properties":{"objectid":546,"hotel_category":"UC","hotel_name":"PELWEHERA VILLAGE RESORT","no_of_floors":null,"gfcode":null,"description":"http://www.pelweheraresort.com/gallery.html","latitude":7.9036200000000001,"longitude":80.669399999999996,"district":null,"no_of_rooms":16,"registration_number":null}},{"type":"Feature","id":547,"geometry":{"type":"Point","coordinates":[80.645700000000033,7.2913300000000731]},"properties":{"objectid":547,"hotel_category":"UC","hotel_name":"HOTEL THILANKA","no_of_floors":null,"gfcode":null,"description":"www.thilankahotel.com","latitude":7.2913299999999994,"longitude":80.645700000000005,"district":null,"no_of_rooms":86,"registration_number":null}},{"type":"Feature","id":548,"geometry":{"type":"Point","coordinates":[80.989100000000064,6.8315800000000309]},"properties":{"objectid":548,"hotel_category":"UC","hotel_name":"BANDARAWELA HOTEL","no_of_floors":null,"gfcode":null,"description":"www.aitkenspencehotels.com","latitude":6.8315799999999998,"longitude":80.989099999999993,"district":null,"no_of_rooms":33,"registration_number":null}},{"type":"Feature","id":549,"geometry":{"type":"Point","coordinates":[79.934100000000058,6.644960000000026]},"properties":{"objectid":549,"hotel_category":"UC","hotel_name":"HARIDRA RESORT & SPA","no_of_floors":null,"gfcode":null,"description":"http://www.haridraresort.com/","latitude":6.6449600000000002,"longitude":79.934100000000001,"district":null,"no_of_rooms":32,"registration_number":null}},{"type":"Feature","id":550,"geometry":{"type":"Point","coordinates":[80.247000000000071,6.0104400000000737]},"properties":{"objectid":550,"hotel_category":"UC","hotel_name":"UNAWATUNA BEACH RESORT","no_of_floors":null,"gfcode":null,"description":"www.unawatunabeachresort.com","latitude":6.01044,"longitude":80.247,"district":null,"no_of_rooms":73,"registration_number":null}},{"type":"Feature","id":551,"geometry":{"type":"Point","coordinates":[80.09940000000006,6.1385000000000218]},"properties":{"objectid":551,"hotel_category":"UC","hotel_name":"HIKKADUWA BEACH HOTEL","no_of_floors":null,"gfcode":null,"description":"www.hbeachhotel.com","latitude":6.1384999999999996,"longitude":80.099400000000003,"district":null,"no_of_rooms":52,"registration_number":null}},{"type":"Feature","id":552,"geometry":{"type":"Point","coordinates":[80.780200000000036,6.0095200000000659]},"properties":{"objectid":552,"hotel_category":"UC","hotel_name":"PALM PARADISE CABANAS","no_of_floors":null,"gfcode":null,"description":"http://www.beach.lk/","latitude":6.0095200000000002,"longitude":80.780199999999994,"district":null,"no_of_rooms":22,"registration_number":null}},{"type":"Feature","id":553,"geometry":{"type":"Point","coordinates":[80.76380000000006,6.9625900000000343]},"properties":{"objectid":553,"hotel_category":"UC","hotel_name":"ALPINE HOTEL","no_of_floors":null,"gfcode":null,"description":"alpineecotravels.com","latitude":6.9625900000000005,"longitude":80.763800000000003,"district":null,"no_of_rooms":25,"registration_number":null}},{"type":"Feature","id":554,"geometry":{"type":"Point","coordinates":[80.103000000000065,6.1297400000000266]},"properties":{"objectid":554,"hotel_category":"UC","hotel_name":"CITRUS - HIKKADUWA","no_of_floors":null,"gfcode":null,"description":"http://www.citrusleisure.com/","latitude":6.12974,"longitude":80.102999999999994,"district":null,"no_of_rooms":54,"registration_number":null}},{"type":"Feature","id":555,"geometry":{"type":"Point","coordinates":[80.095700000000079,6.9126400000000672]},"properties":{"objectid":555,"hotel_category":"UC","hotel_name":"AMBALAMA LEISURE LOUNGE","no_of_floors":null,"gfcode":null,"description":"www.ambalama.lk","latitude":6.9126400000000006,"longitude":80.095699999999994,"district":null,"no_of_rooms":14,"registration_number":null}},{"type":"Feature","id":556,"geometry":{"type":"Point","coordinates":[80.000000000000057,6.4200000000000728]},"properties":{"objectid":556,"hotel_category":"UC","hotel_name":"AYURVEDA WALAUWA","no_of_floors":null,"gfcode":null,"description":"www.sribudhasa.com","latitude":6.4199999999999999,"longitude":80,"district":null,"no_of_rooms":20,"registration_number":null}},{"type":"Feature","id":557,"geometry":{"type":"Point","coordinates":[80.407300000000077,5.9599000000000615]},"properties":{"objectid":557,"hotel_category":"UC","hotel_name":"BARBERYN AYURVEDIC BEACH RESORT","no_of_floors":null,"gfcode":null,"description":"www.barberyn.com","latitude":5.9599000000000002,"longitude":80.407300000000006,"district":null,"no_of_rooms":60,"registration_number":null}},{"type":"Feature","id":558,"geometry":{"type":"Point","coordinates":[80.589400000000069,7.1673800000000369]},"properties":{"objectid":558,"hotel_category":"UC","hotel_name":"BINVINO","no_of_floors":null,"gfcode":null,"description":"http://www.hotelbinvinokandy.com/","latitude":7.1673799999999996,"longitude":80.589399999999998,"district":null,"no_of_rooms":25,"registration_number":null}},{"type":"Feature","id":559,"geometry":{"type":"Point","coordinates":[81.048400000000072,6.8761800000000335]},"properties":{"objectid":559,"hotel_category":"UC","hotel_name":"HOTEL COUNTRY COMFORT","no_of_floors":null,"gfcode":null,"description":"www.hotelcountrycomfort.lk","latitude":6.8761799999999997,"longitude":81.048400000000001,"district":null,"no_of_rooms":18,"registration_number":null}},{"type":"Feature","id":560,"geometry":{"type":"Point","coordinates":[80.046500000000037,6.2454300000000558]},"properties":{"objectid":560,"hotel_category":"UC","hotel_name":"DREAM BEACH HOTEL","no_of_floors":null,"gfcode":null,"description":"http://www.jucehotels.com/ambalangoda/","latitude":6.2454299999999998,"longitude":80.046499999999995,"district":null,"no_of_rooms":24,"registration_number":null}},{"type":"Feature","id":561,"geometry":{"type":"Point","coordinates":[80.762200000000064,6.0028200000000425]},"properties":{"objectid":561,"hotel_category":"UC","hotel_name":"HOTEL EVA LANKA","no_of_floors":null,"gfcode":null,"description":"www.eva.lk","latitude":6.0028199999999998,"longitude":80.762200000000007,"district":null,"no_of_rooms":29,"registration_number":null}},{"type":"Feature","id":562,"geometry":{"type":"Point","coordinates":[80.68870000000004,7.9295700000000693]},"properties":{"objectid":562,"hotel_category":"UC","hotel_name":"HOTEL EDEN GARDEN","no_of_floors":null,"gfcode":null,"description":"www.edengardenlk.com","latitude":7.92957,"longitude":80.688699999999997,"district":null,"no_of_rooms":36,"registration_number":null}},{"type":"Feature","id":563,"geometry":{"type":"Point","coordinates":[80.632400000000075,7.2613300000000436]},"properties":{"objectid":563,"hotel_category":"UC","hotel_name":"HANTANE SHADOW RESORT","no_of_floors":null,"gfcode":null,"description":"www.hantaneresort.net","latitude":7.2613300000000001,"longitude":80.632400000000004,"district":null,"no_of_rooms":11,"registration_number":null}},{"type":"Feature","id":564,"geometry":{"type":"Point","coordinates":[80.646200000000078,7.2844900000000621]},"properties":{"objectid":564,"hotel_category":"UC","hotel_name":"HELGAS FOLLY","no_of_floors":null,"gfcode":null,"description":"www.helgasfolly.com","latitude":7.2844899999999999,"longitude":80.646199999999993,"district":null,"no_of_rooms":25,"registration_number":null}},{"type":"Feature","id":565,"geometry":{"type":"Point","coordinates":[80.418900000000065,5.9592900000000668]},"properties":{"objectid":565,"hotel_category":"UC","hotel_name":"BAY BEACH HOTEL","no_of_floors":null,"gfcode":null,"description":"www.baybeachhotel.com","latitude":5.9592900000000002,"longitude":80.418899999999994,"district":null,"no_of_rooms":60,"registration_number":null}},{"type":"Feature","id":566,"geometry":{"type":"Point","coordinates":[80.763400000000047,6.9703100000000404]},"properties":{"objectid":566,"hotel_category":"UC","hotel_name":"HILL CLUB","no_of_floors":null,"gfcode":null,"description":"http://www.hillclubsrilanka.net/","latitude":6.9703099999999996,"longitude":80.763400000000004,"district":null,"no_of_rooms":39,"registration_number":null}},{"type":"Feature","id":567,"geometry":{"type":"Point","coordinates":[80.988300000000038,7.9592800000000352]},"properties":{"objectid":567,"hotel_category":"UC","hotel_name":"POLONNARUWA HOLIDAY INN","no_of_floors":null,"gfcode":null,"description":null,"latitude":7.9592799999999997,"longitude":80.988299999999995,"district":null,"no_of_rooms":24,"registration_number":null}},{"type":"Feature","id":568,"geometry":{"type":"Point","coordinates":[81.331000000000074,6.4129400000000487]},"properties":{"objectid":568,"hotel_category":"UC","hotel_name":"HOTEL CHANDRIKA","no_of_floors":null,"gfcode":null,"description":"www.chandrikahotel.com","latitude":6.4129400000000008,"longitude":81.331000000000003,"district":null,"no_of_rooms":20,"registration_number":null}},{"type":"Feature","id":569,"geometry":{"type":"Point","coordinates":[80.000700000000052,7.0530200000000605]},"properties":{"objectid":569,"hotel_category":"UC","hotel_name":"HOTEL CHATHUMEDURA VILLAGE INN","no_of_floors":null,"gfcode":null,"description":"www.hotelchathumedura.com","latitude":7.0530200000000001,"longitude":80.000699999999995,"district":null,"no_of_rooms":22,"registration_number":null}},{"type":"Feature","id":570,"geometry":{"type":"Point","coordinates":[80.926200000000051,7.9956100000000561]},"properties":{"objectid":570,"hotel_category":"UC","hotel_name":"HOTEL HEMALEE","no_of_floors":null,"gfcode":null,"description":"http://www.hotelhemalee.com/","latitude":7.9956099999999992,"longitude":80.926199999999994,"district":null,"no_of_rooms":16,"registration_number":null}},{"type":"Feature","id":571,"geometry":{"type":"Point","coordinates":[80.952300000000037,6.7662000000000262]},"properties":{"objectid":571,"hotel_category":"UC","hotel_name":"OLYMPUS PLAZA HOTEL","no_of_floors":null,"gfcode":null,"description":"www.olympusplazahotel.com","latitude":6.7661999999999995,"longitude":80.952299999999994,"district":null,"no_of_rooms":30,"registration_number":null}},{"type":"Feature","id":572,"geometry":{"type":"Point","coordinates":[80.008500000000083,6.3766900000000533]},"properties":{"objectid":572,"hotel_category":"UC","hotel_name":"INDURUWA BEACH RESORT","no_of_floors":null,"gfcode":null,"description":"www.villaocenhotels.lk","latitude":6.37669,"longitude":80.008499999999998,"district":null,"no_of_rooms":90,"registration_number":null}},{"type":"Feature","id":573,"geometry":{"type":"Point","coordinates":[80.359900000000039,5.973160000000064]},"properties":{"objectid":573,"hotel_category":"UC","hotel_name":"INSIGHT","no_of_floors":null,"gfcode":null,"description":"www.insightsrilanka.com","latitude":5.9731600000000009,"longitude":80.359899999999996,"district":null,"no_of_rooms":32,"registration_number":null}},{"type":"Feature","id":574,"geometry":{"type":"Point","coordinates":[80.024900000000059,6.341000000000065]},"properties":{"objectid":574,"hotel_category":"UC","hotel_name":"KOSGODA BEACH RESORT","no_of_floors":null,"gfcode":null,"description":null,"latitude":6.3410000000000002,"longitude":80.024900000000002,"district":null,"no_of_rooms":50,"registration_number":null}},{"type":"Feature","id":575,"geometry":{"type":"Point","coordinates":[80.233900000000062,6.5829200000000583]},"properties":{"objectid":575,"hotel_category":"UC","hotel_name":"LAYA LEISURE - KUKULEGANGA","no_of_floors":null,"gfcode":null,"description":"www.kkbholidayresort.com","latitude":6.5829200000000005,"longitude":80.233900000000006,"district":null,"no_of_rooms":64,"registration_number":null}},{"type":"Feature","id":576,"geometry":{"type":"Point","coordinates":[79.989500000000078,6.4436100000000351]},"properties":{"objectid":576,"hotel_category":"UC","hotel_name":"LANKA PRINCESS HOTEL","no_of_floors":null,"gfcode":null,"description":"lankaprincess.com","latitude":6.4436099999999996,"longitude":79.989500000000007,"district":null,"no_of_rooms":94,"registration_number":null}},{"type":"Feature","id":577,"geometry":{"type":"Point","coordinates":[79.90220000000005,6.7134700000000294]},"properties":{"objectid":577,"hotel_category":"UC","hotel_name":"NAVRO BEACH RESORT","no_of_floors":null,"gfcode":null,"description":"http://www.navrobeachresort.com/","latitude":6.71347,"longitude":79.902199999999993,"district":null,"no_of_rooms":24,"registration_number":null}},{"type":"Feature","id":578,"geometry":{"type":"Point","coordinates":[79.985600000000034,6.4466200000000526]},"properties":{"objectid":578,"hotel_category":"UC","hotel_name":"HERITANCE AYURVEDA MAHAGEDARA","no_of_floors":null,"gfcode":null,"description":"http://www.heritancehotels.com/ayurvedamahagedara","latitude":6.4466200000000002,"longitude":79.985600000000005,"district":null,"no_of_rooms":64,"registration_number":null}},{"type":"Feature","id":579,"geometry":{"type":"Point","coordinates":[79.918600000000083,7.1828700000000367]},"properties":{"objectid":579,"hotel_category":"UC","hotel_name":"THE TAMARIND TREE","no_of_floors":null,"gfcode":null,"description":"www.thetamarindtreehotels.com","latitude":7.1828700000000003,"longitude":79.918599999999998,"district":null,"no_of_rooms":57,"registration_number":null}},{"type":"Feature","id":580,"geometry":{"type":"Point","coordinates":[81.831300000000056,6.8500200000000291]},"properties":{"objectid":580,"hotel_category":"UC","hotel_name":"STAR DUST BEACH HOTEL","no_of_floors":null,"gfcode":null,"description":"www.arugambay.com","latitude":6.8500199999999998,"longitude":81.831299999999999,"district":null,"no_of_rooms":11,"registration_number":null}},{"type":"Feature","id":581,"geometry":{"type":"Point","coordinates":[79.841500000000053,7.2397100000000592]},"properties":{"objectid":581,"hotel_category":"UC","hotel_name":"OASIS BEACH RESORT","no_of_floors":null,"gfcode":null,"description":"www.oasisbeachresort.com","latitude":7.2397099999999996,"longitude":79.841499999999996,"district":null,"no_of_rooms":40,"registration_number":null}},{"type":"Feature","id":582,"geometry":{"type":"Point","coordinates":[81.060300000000041,6.871210000000076]},"properties":{"objectid":582,"hotel_category":"UC","hotel_name":"98 ACRES RESORT","no_of_floors":null,"gfcode":null,"description":"www.resort98acres.com","latitude":6.8712099999999996,"longitude":81.060299999999998,"district":null,"no_of_rooms":28,"registration_number":null}},{"type":"Feature","id":583,"geometry":{"type":"Point","coordinates":[80.987700000000075,6.8335200000000214]},"properties":{"objectid":583,"hotel_category":"UC","hotel_name":"ORIENT HOTEL","no_of_floors":null,"gfcode":null,"description":"http://www.orienthotelsl.com/","latitude":6.83352,"longitude":80.987700000000004,"district":null,"no_of_rooms":35,"registration_number":null}},{"type":"Feature","id":584,"geometry":{"type":"Point","coordinates":[79.854800000000068,7.1905000000000427]},"properties":{"objectid":584,"hotel_category":"UC","hotel_name":"AMAGI LAGOON RESORT AND SPA","no_of_floors":null,"gfcode":null,"description":"www.amagiresort.com","latitude":7.1905000000000001,"longitude":79.854799999999997,"district":null,"no_of_rooms":22,"registration_number":null}},{"type":"Feature","id":585,"geometry":{"type":"Point","coordinates":[80.596500000000049,6.3895100000000298]},"properties":{"objectid":585,"hotel_category":"UC","hotel_name":"THE RAINFOREST","no_of_floors":null,"gfcode":null,"description":"www.rainforest-ecolodge.org","latitude":6.3895099999999996,"longitude":80.596500000000006,"district":null,"no_of_rooms":16,"registration_number":null}},{"type":"Feature","id":586,"geometry":{"type":"Point","coordinates":[79.940300000000036,6.6298900000000458]},"properties":{"objectid":586,"hotel_category":"UC","hotel_name":"KAMILI BEACH VILLA","no_of_floors":null,"gfcode":null,"description":"www.kamilibeach.com","latitude":6.6298900000000005,"longitude":79.940299999999993,"district":null,"no_of_rooms":24,"registration_number":null}},{"type":"Feature","id":587,"geometry":{"type":"Point","coordinates":[80.27150000000006,5.9989900000000489]},"properties":{"objectid":587,"hotel_category":"UC","hotel_name":"STAR LIGHT HOTEL","no_of_floors":null,"gfcode":null,"description":"www.starlighthotel.com","latitude":5.99899,"longitude":80.271500000000003,"district":null,"no_of_rooms":14,"registration_number":null}},{"type":"Feature","id":588,"geometry":{"type":"Point","coordinates":[80.418000000000063,8.3303100000000541]},"properties":{"objectid":588,"hotel_category":"UC","hotel_name":"RANDIYA HOTEL","no_of_floors":null,"gfcode":null,"description":"www.hotelrandiya.com","latitude":8.330309999999999,"longitude":80.418000000000006,"district":null,"no_of_rooms":14,"registration_number":null}},{"type":"Feature","id":589,"geometry":{"type":"Point","coordinates":[80.005900000000054,6.9631700000000478]},"properties":{"objectid":589,"hotel_category":"UC","hotel_name":"P.T. GARDEN HOTEL","no_of_floors":null,"gfcode":null,"description":"www.ptgardenhotel.com","latitude":6.9631699999999999,"longitude":80.005899999999997,"district":null,"no_of_rooms":21,"registration_number":null}},{"type":"Feature","id":590,"geometry":{"type":"Point","coordinates":[81.131500000000074,6.1333900000000767]},"properties":{"objectid":590,"hotel_category":"UC","hotel_name":"PEACOCK BEACH HOTEL LTD","no_of_floors":null,"gfcode":null,"description":"www.peacockbeachonline.com","latitude":6.1333900000000003,"longitude":81.131500000000003,"district":null,"no_of_rooms":111,"registration_number":null}},{"type":"Feature","id":591,"geometry":{"type":"Point","coordinates":[80.242800000000045,6.9658100000000331]},"properties":{"objectid":591,"hotel_category":"UC","hotel_name":"HOTEL PICTURESQUE","no_of_floors":null,"gfcode":null,"description":null,"latitude":6.9658099999999994,"longitude":80.242800000000003,"district":null,"no_of_rooms":10,"registration_number":null}},{"type":"Feature","id":592,"geometry":{"type":"Point","coordinates":[81.009100000000046,6.8323500000000763]},"properties":{"objectid":592,"hotel_category":"UC","hotel_name":"PRINCE HOTEL BANDARAWELA","no_of_floors":null,"gfcode":null,"description":"www.bandarawelaprince.com","latitude":6.8323499999999999,"longitude":81.009100000000004,"district":null,"no_of_rooms":30,"registration_number":null}},{"type":"Feature","id":593,"geometry":{"type":"Point","coordinates":[80.638100000000065,7.29329000000007]},"properties":{"objectid":593,"hotel_category":"UC","hotel_name":"QUEENS HOTEL","no_of_floors":null,"gfcode":null,"description":"www.qeenshotel.lk","latitude":7.2932899999999998,"longitude":80.638099999999994,"district":null,"no_of_rooms":67,"registration_number":null}},{"type":"Feature","id":594,"geometry":{"type":"Point","coordinates":[79.881500000000074,7.1114600000000223]},"properties":{"objectid":594,"hotel_category":"UC","hotel_name":"RAMADA KATUNAYAKE","no_of_floors":null,"gfcode":null,"description":null,"latitude":7.1114600000000001,"longitude":79.881500000000003,"district":null,"no_of_rooms":56,"registration_number":null}},{"type":"Feature","id":595,"geometry":{"type":"Point","coordinates":[81.828500000000076,6.8377400000000534]},"properties":{"objectid":595,"hotel_category":"UC","hotel_name":"PALM GROOVE HOLIDAY INN","no_of_floors":null,"gfcode":null,"description":"www.palmgroveholidayinn.com","latitude":6.8377400000000002,"longitude":81.828500000000005,"district":null,"no_of_rooms":23,"registration_number":null}},{"type":"Feature","id":596,"geometry":{"type":"Point","coordinates":[79.860600000000034,7.0342900000000554]},"properties":{"objectid":596,"hotel_category":"UC","hotel_name":"PALM VILLAGE HOTEL","no_of_floors":null,"gfcode":null,"description":"www.palmvillagehotel.com","latitude":7.0342900000000004,"longitude":79.860600000000005,"district":null,"no_of_rooms":50,"registration_number":null}},{"type":"Feature","id":597,"geometry":{"type":"Point","coordinates":[80.096900000000062,7.1469500000000608]},"properties":{"objectid":597,"hotel_category":"UC","hotel_name":"HOTEL RANATHISARA","no_of_floors":null,"gfcode":null,"description":null,"latitude":7.1469499999999995,"longitude":80.096900000000005,"district":null,"no_of_rooms":12,"registration_number":null}},{"type":"Feature","id":598,"geometry":{"type":"Point","coordinates":[80.993700000000047,7.9232700000000591]},"properties":{"objectid":598,"hotel_category":"UC","hotel_name":"HOTEL SUDU ARALIYA","no_of_floors":null,"gfcode":null,"description":"http://www.hotelsuduaraliya.com/","latitude":7.9232699999999996,"longitude":80.993700000000004,"district":null,"no_of_rooms":104,"registration_number":null}},{"type":"Feature","id":599,"geometry":{"type":"Point","coordinates":[79.839800000000082,7.2253300000000422]},"properties":{"objectid":599,"hotel_category":"UC","hotel_name":"HOTEL SUNSET BEACH","no_of_floors":null,"gfcode":null,"description":"www.hotelsunsetbeach.com","latitude":7.2253299999999996,"longitude":79.839799999999997,"district":null,"no_of_rooms":35,"registration_number":null}},{"type":"Feature","id":600,"geometry":{"type":"Point","coordinates":[80.642900000000054,7.2883900000000494]},"properties":{"objectid":600,"hotel_category":"UC","hotel_name":"HOTEL SUISSE","no_of_floors":null,"gfcode":null,"description":"www.hotelsuisse.com","latitude":7.2883899999999997,"longitude":80.642899999999997,"district":null,"no_of_rooms":90,"registration_number":null}},{"type":"Feature","id":601,"geometry":{"type":"Point","coordinates":[80.621000000000038,5.9439500000000294]},