{"type":"FeatureCollection","features":[{"type":"Feature","id":1174,"geometry":{"type":"Point","coordinates":[80.608777150000037,5.9353253770000265]},"properties":{"objectid":1174,"railway_infrastructure_type":"JUNCP","name":"Gandara","creation_method":"1","year_of_creation":"1999","revision_method":"2","year_of_revision":"2008","gfcode":"JUNCP","description":null}},{"type":"Feature","id":1175,"geometry":{"type":"Point","coordinates":[80.514836342000081,5.942398618000027]},"properties":{"objectid":1175,"railway_infrastructure_type":"JUNCP","name":"Walgama Junction","creation_method":"8","year_of_creation":"2005","revision_method":"3","year_of_revision":"2015","gfcode":"JUNCP","description":null}},{"type":"Feature","id":1176,"geometry":{"type":"Point","coordinates":[80.494643491000033,5.9435852030000547]},"properties":{"objectid":1176,"railway_infrastructure_type":"RLCPP","name":"","creation_method":"8","year_of_creation":"2008","revision_method":"3","year_of_revision":"2015","gfcode":"RLCPP","description":null}},{"type":"Feature","id":1177,"geometry":{"type":"Point","coordinates":[80.49206050500004,5.9437963290000653]},"properties":{"objectid":1177,"railway_infrastructure_type":"RLCPP","name":"","creation_method":"8","year_of_creation":"2008","revision_method":"3","year_of_revision":"2015","gfcode":"RLCPP","description":null}},{"type":"Feature","id":1178,"geometry":{"type":"Point","coordinates":[80.500145707000058,5.9442381470000214]},"properties":{"objectid":1178,"railway_infrastructure_type":"RLCPP","name":"","creation_method":"8","year_of_creation":"2008","revision_method":"3","year_of_revision":"2015","gfcode":"RLCPP","description":null}},{"type":"Feature","id":1179,"geometry":{"type":"Point","coordinates":[80.50827707500008,5.9451760000000604]},"properties":{"objectid":1179,"railway_infrastructure_type":"RLCPP","name":"","creation_method":"8","year_of_creation":"2008","revision_method":"3","year_of_revision":"2015","gfcode":"RLCPP","description":null}},{"type":"Feature","id":1180,"geometry":{"type":"Point","coordinates":[80.514629740000032,5.9454006660000687]},"properties":{"objectid":1180,"railway_infrastructure_type":"RLCPP","name":"","creation_method":"8","year_of_creation":"2008","revision_method":"3","year_of_revision":"2015","gfcode":"RLCPP","description":null}},{"type":"Feature","id":1181,"geometry":{"type":"Point","coordinates":[80.522683434000044,5.9465281740000364]},"properties":{"objectid":1181,"railway_infrastructure_type":"RLCPP","name":"","creation_method":"8","year_of_creation":"2008","revision_method":"3","year_of_revision":"2015","gfcode":"RLCPP","description":null}},{"type":"Feature","id":1182,"geometry":{"type":"Point","coordinates":[80.526790823000056,5.9473146210000323]},"properties":{"objectid":1182,"railway_infrastructure_type":"RLCPP","name":"","creation_method":"8","year_of_creation":"2008","revision_method":"3","year_of_revision":"2015","gfcode":"RLCPP","description":null}},{"type":"Feature","id":1183,"geometry":{"type":"Point","coordinates":[80.528801535000071,5.9479630220000672]},"properties":{"objectid":1183,"railway_infrastructure_type":"RLCPP","name":"","creation_method":"8","year_of_creation":"2008","revision_method":"3","year_of_revision":"2015","gfcode":"RLCPP","description":null}},{"type":"Feature","id":1184,"geometry":{"type":"Point","coordinates":[80.534995742000035,5.9500500590000343]},"properties":{"objectid":1184,"railway_infrastructure_type":"RLCPP","name":"","creation_method":"8","year_of_creation":"2008","revision_method":"3","year_of_revision":"2015","gfcode":"RLCPP","description":null}},{"type":"Feature","id":1185,"geometry":{"type":"Point","coordinates":[80.538639871000044,5.9512662170000681]},"properties":{"objectid":1185,"railway_infrastructure_type":"RLCPP","name":"","creation_method":"8","year_of_creation":"2008","revision_method":"3","year_of_revision":"2015","gfcode":"RLCPP","description":null}},{"type":"Feature","id":1186,"geometry":{"type":"Point","coordinates":[80.540992039000059,5.9517055390000451]},"properties":{"objectid":1186,"railway_infrastructure_type":"RLCPP","name":"","creation_method":"8","year_of_creation":"2008","revision_method":"3","year_of_revision":"2015","gfcode":"RLCPP","description":null}},{"type":"Feature","id":1187,"geometry":{"type":"Point","coordinates":[80.546080129000075,5.9520124070000406]},"properties":{"objectid":1187,"railway_infrastructure_type":"RLCPP","name":"","creation_method":"8","year_of_creation":"2008","revision_method":"3","year_of_revision":"2015","gfcode":"RLCPP","description":null}},{"type":"Feature","id":1188,"geometry":{"type":"Point","coordinates":[80.47321583400003,5.9568833920000657]},"properties":{"objectid":1188,"railway_infrastructure_type":"RLCPP","name":"","creation_method":"8","year_of_creation":"2008","revision_method":"3","year_of_revision":"2015","gfcode":"RLCPP","description":null}},{"type":"Feature","id":1189,"geometry":{"type":"Point","coordinates":[80.463333868000063,5.9608427500000403]},"properties":{"objectid":1189,"railway_infrastructure_type":"RLCPP","name":null,"creation_method":"8","year_of_creation":"2008","revision_method":"3","year_of_revision":"2015","gfcode":"RLCPP","description":null}},{"type":"Feature","id":1190,"geometry":{"type":"Point","coordinates":[80.415271483000083,5.9627448350000236]},"properties":{"objectid":1190,"railway_infrastructure_type":"RLCPP","name":null,"creation_method":"8","year_of_creation":"2008","revision_method":"3","year_of_revision":"2015","gfcode":"RLCPP","description":null}},{"type":"Feature","id":1191,"geometry":{"type":"Point","coordinates":[80.459161632000075,5.9628075150000655]},"properties":{"objectid":1191,"railway_infrastructure_type":"RLCPP","name":null,"creation_method":"8","year_of_creation":"2008","revision_method":"3","year_of_revision":"2015","gfcode":"RLCPP","description":null}},{"type":"Feature","id":1192,"geometry":{"type":"Point","coordinates":[80.602208415000064,5.9641418820000354]},"properties":{"objectid":1192,"railway_infrastructure_type":"JUNCP","name":"Kekandara Junction","creation_method":"8","year_of_creation":"2005","revision_method":"3","year_of_revision":"2015","gfcode":"JUNCP","description":null}},{"type":"Feature","id":1193,"geometry":{"type":"Point","coordinates":[80.456457426000043,5.9656814620000205]},"properties":{"objectid":1193,"railway_infrastructure_type":"RLCPP","name":"","creation_method":"8","year_of_creation":"2008","revision_method":"3","year_of_revision":"2015","gfcode":"RLCPP","description":null}},{"type":"Feature","id":1194,"geometry":{"type":"Point","coordinates":[80.478150034000066,5.9683545010000216]},"properties":{"objectid":1194,"railway_infrastructure_type":"JUNCP","name":"Kotawila Junction","creation_method":"8","year_of_creation":"2005","revision_method":"3","year_of_revision":"2015","gfcode":"JUNCP","description":null}},{"type":"Feature","id":1195,"geometry":{"type":"Point","coordinates":[80.420346760000029,5.9694222050000576]},"properties":{"objectid":1195,"railway_infrastructure_type":"RLCPP","name":"","creation_method":"8","year_of_creation":"2008","revision_method":"3","year_of_revision":"2015","gfcode":"RLCPP","description":null}},{"type":"Feature","id":1196,"geometry":{"type":"Point","coordinates":[80.421623093000051,5.9710846550000269]},"properties":{"objectid":1196,"railway_infrastructure_type":"RLCPP","name":"","creation_method":"8","year_of_creation":"2008","revision_method":"3","year_of_revision":"2015","gfcode":"RLCPP","description":null}},{"type":"Feature","id":1197,"geometry":{"type":"Point","coordinates":[80.422366086000068,5.972629654000059]},"properties":{"objectid":1197,"railway_infrastructure_type":"RLCPP","name":"","creation_method":"8","year_of_creation":"2008","revision_method":"3","year_of_revision":"2015","gfcode":"RLCPP","description":null}},{"type":"Feature","id":1198,"geometry":{"type":"Point","coordinates":[80.361970885000062,5.973039477000043]},"properties":{"objectid":1198,"railway_infrastructure_type":"JUNCP","name":"Ahangamgoda","creation_method":"1","year_of_creation":"1999","revision_method":null,"year_of_revision":null,"gfcode":"JUNCP","description":null}},{"type":"Feature","id":1199,"geometry":{"type":"Point","coordinates":[80.42448793300008,5.9752202690000331]},"properties":{"objectid":1199,"railway_infrastructure_type":"RLCPP","name":"","creation_method":"8","year_of_creation":"2008","revision_method":"3","year_of_revision":"2015","gfcode":"RLCPP","description":null}},{"type":"Feature","id":1200,"geometry":{"type":"Point","coordinates":[80.435350955000047,5.9753827340000498]},"properties":{"objectid":1200,"railway_infrastructure_type":"RLCPP","name":"","creation_method":"8","year_of_creation":"2008","revision_method":"3","year_of_revision":"2015","gfcode":"RLCPP","description":null}},{"type":"Feature","id":1201,"geometry":{"type":"Point","coordinates":[80.431667537000067,5.9755981420000239]},"properties":{"objectid":1201,"railway_infrastructure_type":"RLCPP","name":"","creation_method":"8","year_of_creation":"2008","revision_method":"3","year_of_revision":"2015","gfcode":"RLCPP","description":null}},{"type":"Feature","id":1202,"geometry":{"type":"Point","coordinates":[80.427790230000085,5.9757475680000312]},"properties":{"objectid":1202,"railway_infrastructure_type":"RLCPP","name":"","creation_method":"8","year_of_creation":"2008","revision_method":"3","year_of_revision":"2015","gfcode":"RLCPP","description":null}},{"type":"Feature","id":1203,"geometry":{"type":"Point","coordinates":[80.346273576000044,5.978734303000067]},"properties":{"objectid":1203,"railway_infrastructure_type":"JUNCP","name":"Koggala","creation_method":"1","year_of_creation":"1999","revision_method":null,"year_of_revision":null,"gfcode":"JUNCP","description":null}},{"type":"Feature","id":1204,"geometry":{"type":"Point","coordinates":[80.499821196000084,5.981450528000039]},"properties":{"objectid":1204,"railway_infrastructure_type":"JUNCP","name":"Sulthanagoda Junction","creation_method":"8","year_of_creation":"2005","revision_method":"3","year_of_revision":"2015","gfcode":"JUNCP","description":null}},{"type":"Feature","id":1205,"geometry":{"type":"Point","coordinates":[80.452476741000055,5.9832639080000263]},"properties":{"objectid":1205,"railway_infrastructure_type":"JUNCP","name":"Denipitiya Junction","creation_method":"8","year_of_creation":"2005","revision_method":"3","year_of_revision":"2015","gfcode":"JUNCP","description":null}},{"type":"Feature","id":1206,"geometry":{"type":"Point","coordinates":[80.349035264000065,5.9869691870000565]},"properties":{"objectid":1206,"railway_infrastructure_type":"JUNCP","name":"Kathalugoda Junction","creation_method":"8","year_of_creation":"2008","revision_method":null,"year_of_revision":null,"gfcode":"JUNCP","description":null}},{"type":"Feature","id":1207,"geometry":{"type":"Point","coordinates":[80.307619114000033,5.9937513210000475]},"properties":{"objectid":1207,"railway_infrastructure_type":"JUNCP","name":"Habaraduwa Junction","creation_method":"1","year_of_creation":"1999","revision_method":null,"year_of_revision":null,"gfcode":"JUNCP","description":null}},{"type":"Feature","id":1208,"geometry":{"type":"Point","coordinates":[80.299652803000072,5.9942640840000649]},"properties":{"objectid":1208,"railway_infrastructure_type":"JUNCP","name":"Hediwatta Junction","creation_method":"8","year_of_creation":"2008","revision_method":null,"year_of_revision":null,"gfcode":"JUNCP","description":null}},{"type":"Feature","id":1209,"geometry":{"type":"Point","coordinates":[80.291204114000038,5.994842196000036]},"properties":{"objectid":1209,"railway_infrastructure_type":"JUNCP","name":"Palutugaha Junction","creation_method":"8","year_of_creation":"2008","revision_method":null,"year_of_revision":null,"gfcode":"JUNCP","description":null}},{"type":"Feature","id":1210,"geometry":{"type":"Point","coordinates":[80.400992726000084,5.9978785010000593]},"properties":{"objectid":1210,"railway_infrastructure_type":"JUNCP","name":"Ibbawala Junction","creation_method":"8","year_of_creation":"2008","revision_method":null,"year_of_revision":null,"gfcode":"JUNCP","description":null}},{"type":"Feature","id":1211,"geometry":{"type":"Point","coordinates":[80.351526936000084,6.0017014300000255]},"properties":{"objectid":1211,"railway_infrastructure_type":"JUNCP","name":"Bogaha Junction","creation_method":"8","year_of_creation":"2008","revision_method":null,"year_of_revision":null,"gfcode":"JUNCP","description":null}},{"type":"Feature","id":1212,"geometry":{"type":"Point","coordinates":[80.360654920000059,6.0058056810000267]},"properties":{"objectid":1212,"railway_infrastructure_type":"JUNCP","name":"Gurullawala Junction","creation_method":"8","year_of_creation":"2008","revision_method":null,"year_of_revision":null,"gfcode":"JUNCP","description":null}},{"type":"Feature","id":1213,"geometry":{"type":"Point","coordinates":[80.517574017000072,6.0094491800000469]},"properties":{"objectid":1213,"railway_infrastructure_type":"JUNCP","name":"Malimbada Junction","creation_method":"8","year_of_creation":"2005","revision_method":"3","year_of_revision":"2015","gfcode":"JUNCP","description":null}},{"type":"Feature","id":1214,"geometry":{"type":"Point","coordinates":[80.565839621000066,6.0127737280000702]},"properties":{"objectid":1214,"railway_infrastructure_type":"JUNCP","name":"Thihagoda","creation_method":"1","year_of_creation":"1999","revision_method":"2","year_of_revision":"2008","gfcode":"JUNCP","description":null}},{"type":"Feature","id":1215,"geometry":{"type":"Point","coordinates":[80.385614341000064,6.0137417230000665]},"properties":{"objectid":1215,"railway_infrastructure_type":"JUNCP","name":"Pelawatta Junction","creation_method":"8","year_of_creation":"2008","revision_method":null,"year_of_revision":null,"gfcode":"JUNCP","description":null}},{"type":"Feature","id":1216,"geometry":{"type":"Point","coordinates":[80.392859805000057,6.0146625200000585]},"properties":{"objectid":1216,"railway_infrastructure_type":"JUNCP","name":"Andugoda Junction","creation_method":"8","year_of_creation":"2008","revision_method":null,"year_of_revision":null,"gfcode":"JUNCP","description":null}},{"type":"Feature","id":1217,"geometry":{"type":"Point","coordinates":[80.405984950000061,6.0155652980000696]},"properties":{"objectid":1217,"railway_infrastructure_type":"JUNCP","name":"Palleaddara Junction","creation_method":"8","year_of_creation":"2008","revision_method":null,"year_of_revision":null,"gfcode":"JUNCP","description":null}},{"type":"Feature","id":1218,"geometry":{"type":"Point","coordinates":[80.504940262000048,6.0159080990000575]},"properties":{"objectid":1218,"railway_infrastructure_type":"JUNCP","name":"Kirimetimulla Junction","creation_method":"8","year_of_creation":"2005","revision_method":"3","year_of_revision":"2015","gfcode":"JUNCP","description":null}},{"type":"Feature","id":1219,"geometry":{"type":"Point","coordinates":[80.355191469000033,6.0170513530000562]},"properties":{"objectid":1219,"railway_infrastructure_type":"JUNCP","name":"Thittagalla Junction","creation_method":"8","year_of_creation":"2008","revision_method":null,"year_of_revision":null,"gfcode":"JUNCP","description":null}},{"type":"Feature","id":1220,"geometry":{"type":"Point","coordinates":[80.343214799000066,6.0192484540000351]},"properties":{"objectid":1220,"railway_infrastructure_type":"JUNCP","name":"Watadeke Junction","creation_method":"8","year_of_creation":"2008","revision_method":null,"year_of_revision":null,"gfcode":"JUNCP","description":null}},{"type":"Feature","id":1221,"geometry":{"type":"Point","coordinates":[80.36289011100007,6.0198762260000649]},"properties":{"objectid":1221,"railway_infrastructure_type":"JUNCP","name":"Ampavila Junction","creation_method":"8","year_of_creation":"2008","revision_method":null,"year_of_revision":null,"gfcode":"JUNCP","description":null}},{"type":"Feature","id":1222,"geometry":{"type":"Point","coordinates":[80.26134696500003,6.0202630550000436]},"properties":{"objectid":1222,"railway_infrastructure_type":"JUNCP","name":"Meegahawatta Junction","creation_method":"8","year_of_creation":"2008","revision_method":null,"year_of_revision":null,"gfcode":"JUNCP","description":null}},{"type":"Feature","id":1223,"geometry":{"type":"Point","coordinates":[80.247747254000046,6.0203456440000309]},"properties":{"objectid":1223,"railway_infrastructure_type":"JUNCP","name":"Malwatta Junction","creation_method":"8","year_of_creation":"2008","revision_method":null,"year_of_revision":null,"gfcode":"JUNCP","description":null}},{"type":"Feature","id":1224,"geometry":{"type":"Point","coordinates":[80.381687485000043,6.0214109050000388]},"properties":{"objectid":1224,"railway_infrastructure_type":"JUNCP","name":"Galketiya Junction","creation_method":"8","year_of_creation":"2008","revision_method":null,"year_of_revision":null,"gfcode":"JUNCP","description":null}},{"type":"Feature","id":1225,"geometry":{"type":"Point","coordinates":[80.247289250000051,6.0219758580000757]},"properties":{"objectid":1225,"railway_infrastructure_type":"JUNCP","name":"Eramudugaha Junction","creation_method":"8","year_of_creation":"2008","revision_method":null,"year_of_revision":null,"gfcode":"JUNCP","description":null}},{"type":"Feature","id":1226,"geometry":{"type":"Point","coordinates":[80.406934134000039,6.0228208210000389]},"properties":{"objectid":1226,"railway_infrastructure_type":"JUNCP","name":"Welikenda Junction","creation_method":"8","year_of_creation":"2008","revision_method":null,"year_of_revision":null,"gfcode":"JUNCP","description":null}},{"type":"Feature","id":1227,"geometry":{"type":"Point","coordinates":[80.381004032000078,6.0240434340000206]},"properties":{"objectid":1227,"railway_infrastructure_type":"JUNCP","name":"Diwelhena Junction","creation_method":"8","year_of_creation":"2008","revision_method":null,"year_of_revision":null,"gfcode":"JUNCP","description":null}},{"type":"Feature","id":1228,"geometry":{"type":"Point","coordinates":[80.600874275000081,6.0244106570000326]},"properties":{"objectid":1228,"railway_infrastructure_type":"JUNCP","name":"Yatiyana","creation_method":"1","year_of_creation":"1999","revision_method":"2","year_of_revision":"2008","gfcode":"JUNCP","description":null}},{"type":"Feature","id":1229,"geometry":{"type":"Point","coordinates":[80.495678475000034,6.0244589710000582]},"properties":{"objectid":1229,"railway_infrastructure_type":"JUNCP","name":"Telijjawila Junction","creation_method":"8","year_of_creation":"2005","revision_method":"3","year_of_revision":"2015","gfcode":"JUNCP","description":null}},{"type":"Feature","id":1230,"geometry":{"type":"Point","coordinates":[80.363006835000078,6.0252929530000756]},"properties":{"objectid":1230,"railway_infrastructure_type":"JUNCP","name":"Thalgaswatta Junction","creation_method":"8","year_of_creation":"2008","revision_method":null,"year_of_revision":null,"gfcode":"JUNCP","description":null}},{"type":"Feature","id":1231,"geometry":{"type":"Point","coordinates":[80.393294235000042,6.0281382190000272]},"properties":{"objectid":1231,"railway_infrastructure_type":"JUNCP","name":"22 Kanuwa Junction","creation_method":"8","year_of_creation":"2008","revision_method":null,"year_of_revision":null,"gfcode":"JUNCP","description":null}},{"type":"Feature","id":1232,"geometry":{"type":"Point","coordinates":[80.364271220000035,6.0307469830000286]},"properties":{"objectid":1232,"railway_infrastructure_type":"JUNCP","name":"Galgoda Junction","creation_method":"8","year_of_creation":"2008","revision_method":null,"year_of_revision":null,"gfcode":"JUNCP","description":null}},{"type":"Feature","id":1233,"geometry":{"type":"Point","coordinates":[80.239594129000068,6.0322025700000381]},"properties":{"objectid":1233,"railway_infrastructure_type":"JUNCP","name":"Dewata Juntion","creation_method":"8","year_of_creation":"2008","revision_method":null,"year_of_revision":null,"gfcode":"JUNCP","description":null}},{"type":"Feature","id":1234,"geometry":{"type":"Point","coordinates":[80.260430472000053,6.0329100780000431]},"properties":{"objectid":1234,"railway_infrastructure_type":"JUNCP","name":"Koskanda Junction","creation_method":"8","year_of_creation":"2008","revision_method":null,"year_of_revision":null,"gfcode":"JUNCP","description":null}},{"type":"Feature","id":1235,"geometry":{"type":"Point","coordinates":[80.342996116000052,6.0338207470000498]},"properties":{"objectid":1235,"railway_infrastructure_type":"JUNCP","name":"10 Kanuwa Junction","creation_method":"8","year_of_creation":"2008","revision_method":null,"year_of_revision":null,"gfcode":"JUNCP","description":null}},{"type":"Feature","id":1236,"geometry":{"type":"Point","coordinates":[80.235222255000053,6.0341004960000646]},"properties":{"objectid":1236,"railway_infrastructure_type":"JUNCP","name":"Sambodhi Junction","creation_method":"8","year_of_creation":"2008","revision_method":null,"year_of_revision":null,"gfcode":"JUNCP","description":null}},{"type":"Feature","id":1237,"geometry":{"type":"Point","coordinates":[80.365700393000054,6.0345150460000241]},"properties":{"objectid":1237,"railway_infrastructure_type":"JUNCP","name":"Wathawana Junction","creation_method":"8","year_of_creation":"2008","revision_method":null,"year_of_revision":null,"gfcode":"JUNCP","description":null}},{"type":"Feature","id":1238,"geometry":{"type":"Point","coordinates":[80.266609654000035,6.0345063350000601]},"properties":{"objectid":1238,"railway_infrastructure_type":"JUNCP","name":"Kalahe Junction","creation_method":"8","year_of_creation":"2008","revision_method":null,"year_of_revision":null,"gfcode":"JUNCP","description":null}},{"type":"Feature","id":1239,"geometry":{"type":"Point","coordinates":[80.315689792000057,6.0349710840000625]},"properties":{"objectid":1239,"railway_infrastructure_type":"JUNCP","name":"Angulugaha","creation_method":"1","year_of_creation":"1999","revision_method":null,"year_of_revision":null,"gfcode":"JUNCP","description":null}},{"type":"Feature","id":1240,"geometry":{"type":"Point","coordinates":[80.388996257000031,6.0357333820000463]},"properties":{"objectid":1240,"railway_infrastructure_type":"JUNCP","name":"Imaduwa","creation_method":"1","year_of_creation":"1999","revision_method":null,"year_of_revision":null,"gfcode":"JUNCP","description":null}},{"type":"Feature","id":1241,"geometry":{"type":"Point","coordinates":[80.234017944000072,6.0398665200000323]},"properties":{"objectid":1241,"railway_infrastructure_type":"JUNCP","name":"Makuluduwa Junction","creation_method":"8","year_of_creation":"2008","revision_method":null,"year_of_revision":null,"gfcode":"JUNCP","description":null}},{"type":"Feature","id":1242,"geometry":{"type":"Point","coordinates":[80.409998368000061,6.0424628470000243]},"properties":{"objectid":1242,"railway_infrastructure_type":"JUNCP","name":"Kananke","creation_method":"1","year_of_creation":"1999","revision_method":null,"year_of_revision":null,"gfcode":"JUNCP","description":null}},{"type":"Feature","id":1243,"geometry":{"type":"Point","coordinates":[80.410227833000079,6.0425816480000663]},"properties":{"objectid":1243,"railway_infrastructure_type":"JUNCP","name":"Kananke Junction","creation_method":"8","year_of_creation":"2008","revision_method":null,"year_of_revision":null,"gfcode":"JUNCP","description":null}},{"type":"Feature","id":1244,"geometry":{"type":"Point","coordinates":[80.222728885000038,6.0425090430000523]},"properties":{"objectid":1244,"railway_infrastructure_type":"JUNCP","name":"Kongaha junction","creation_method":"8","year_of_creation":"2008","revision_method":null,"year_of_revision":null,"gfcode":"JUNCP","description":null}},{"type":"Feature","id":1245,"geometry":{"type":"Point","coordinates":[80.227410744000053,6.0427898310000501]},"properties":{"objectid":1245,"railway_infrastructure_type":"JUNCP","name":"Thalapitiya Junction","creation_method":"8","year_of_creation":"2008","revision_method":null,"year_of_revision":null,"gfcode":"JUNCP","description":null}},{"type":"Feature","id":1246,"geometry":{"type":"Point","coordinates":[80.207602657000052,6.0429470710000714]},"properties":{"objectid":1246,"railway_infrastructure_type":"JUNCP","name":"Peduruwala Junction","creation_method":"8","year_of_creation":"2008","revision_method":null,"year_of_revision":null,"gfcode":"JUNCP","description":null}},{"type":"Feature","id":1247,"geometry":{"type":"Point","coordinates":[80.222998005000079,6.0452279280000312]},"properties":{"objectid":1247,"railway_infrastructure_type":"JUNCP","name":"Sarenthukade Junction","creation_method":"8","year_of_creation":"2008","revision_method":null,"year_of_revision":null,"gfcode":"JUNCP","description":null}},{"type":"Feature","id":1248,"geometry":{"type":"Point","coordinates":[80.409132156000055,6.0456218330000411]},"properties":{"objectid":1248,"railway_infrastructure_type":"JUNCP","name":"Mulmadiya Junction","creation_method":"8","year_of_creation":"2008","revision_method":null,"year_of_revision":null,"gfcode":"JUNCP","description":null}},{"type":"Feature","id":1249,"geometry":{"type":"Point","coordinates":[80.225214058000063,6.0457060070000352]},"properties":{"objectid":1249,"railway_infrastructure_type":"JUNCP","name":"Thithpolgaha Junction","creation_method":"8","year_of_creation":"2008","revision_method":null,"year_of_revision":null,"gfcode":"JUNCP","description":null}},{"type":"Feature","id":1250,"geometry":{"type":"Point","coordinates":[80.228209517000039,6.0505329490000577]},"properties":{"objectid":1250,"railway_infrastructure_type":"JUNCP","name":"Milidduwa Junction","creation_method":"8","year_of_creation":"2008","revision_method":null,"year_of_revision":null,"gfcode":"JUNCP","description":null}},{"type":"Feature","id":1251,"geometry":{"type":"Point","coordinates":[80.187158871000065,6.0523940550000361]},"properties":{"objectid":1251,"railway_infrastructure_type":"JUNCP","name":"Hiruwala Junction","creation_method":"8","year_of_creation":"2008","revision_method":null,"year_of_revision":null,"gfcode":"JUNCP","description":null}},{"type":"Feature","id":1252,"geometry":{"type":"Point","coordinates":[80.207999484000084,6.0530525360000524]},"properties":{"objectid":1252,"railway_infrastructure_type":"JUNCP","name":"Julgaha Junction","creation_method":"8","year_of_creation":"2008","revision_method":null,"year_of_revision":null,"gfcode":"JUNCP","description":null}},{"type":"Feature","id":1253,"geometry":{"type":"Point","coordinates":[80.25737883000005,6.0547469660000388]},"properties":{"objectid":1253,"railway_infrastructure_type":"JUNCP","name":"Ginigalthuduwa Junction","creation_method":"8","year_of_creation":"2008","revision_method":null,"year_of_revision":null,"gfcode":"JUNCP","description":null}},{"type":"Feature","id":1254,"geometry":{"type":"Point","coordinates":[80.509635098000047,6.0557385540000723]},"properties":{"objectid":1254,"railway_infrastructure_type":"JUNCP","name":"Pitakatuwana Junction","creation_method":"8","year_of_creation":"2006","revision_method":"3","year_of_revision":"2015","gfcode":"JUNCP","description":null}},{"type":"Feature","id":1255,"geometry":{"type":"Point","coordinates":[80.181105499000068,6.0557438030000412]},"properties":{"objectid":1255,"railway_infrastructure_type":"JUNCP","name":"Depot Junction","creation_method":"1","year_of_creation":"1999","revision_method":null,"year_of_revision":null,"gfcode":"JUNCP","description":null}},{"type":"Feature","id":1256,"geometry":{"type":"Point","coordinates":[80.217575559000068,6.0577338510000232]},"properties":{"objectid":1256,"railway_infrastructure_type":"JUNCP","name":"Beligaha Junction","creation_method":"8","year_of_creation":"2008","revision_method":null,"year_of_revision":null,"gfcode":"JUNCP","description":null}},{"type":"Feature","id":1257,"geometry":{"type":"Point","coordinates":[80.487621216000036,6.0593774800000233]},"properties":{"objectid":1257,"railway_infrastructure_type":"JUNCP","name":"Manwella  junction","creation_method":"8","year_of_creation":"2006","revision_method":"3","year_of_revision":"2015","gfcode":"JUNCP","description":null}},{"type":"Feature","id":1258,"geometry":{"type":"Point","coordinates":[80.203541944000051,6.0591680300000235]},"properties":{"objectid":1258,"railway_infrastructure_type":"JUNCP","name":"Kalegana Junction","creation_method":"8","year_of_creation":"2008","revision_method":null,"year_of_revision":null,"gfcode":"JUNCP","description":null}},{"type":"Feature","id":1259,"geometry":{"type":"Point","coordinates":[80.678152393000062,6.0604652470000246]},"properties":{"objectid":1259,"railway_infrastructure_type":"JUNCP","name":"Pothudeniya Junction","creation_method":"8","year_of_creation":"2005","revision_method":"3","year_of_revision":"2015","gfcode":"JUNCP","description":null}},{"type":"Feature","id":1260,"geometry":{"type":"Point","coordinates":[80.178246975000036,6.0607397440000454]},"properties":{"objectid":1260,"railway_infrastructure_type":"JUNCP","name":"Station Junction","creation_method":"8","year_of_creation":"2008","revision_method":null,"year_of_revision":null,"gfcode":"JUNCP","description":null}},{"type":"Feature","id":1261,"geometry":{"type":"Point","coordinates":[80.215049917000044,6.0632599220000429]},"properties":{"objectid":1261,"railway_infrastructure_type":"JUNCP","name":"Kahaduwawatta Junction","creation_method":"8","year_of_creation":"2008","revision_method":null,"year_of_revision":null,"gfcode":"JUNCP","description":null}},{"type":"Feature","id":1262,"geometry":{"type":"Point","coordinates":[80.175449842000035,6.0633463870000242]},"properties":{"objectid":1262,"railway_infrastructure_type":"JUNCP","name":"Gintota Junction","creation_method":"8","year_of_creation":"2008","revision_method":null,"year_of_revision":null,"gfcode":"JUNCP","description":null}},{"type":"Feature","id":1263,"geometry":{"type":"Point","coordinates":[80.837003476000064,6.0639812920000509]},"properties":{"objectid":1263,"railway_infrastructure_type":"JUNCP","name":"Netolpitiya Junction","creation_method":"8","year_of_creation":"1999","revision_method":null,"year_of_revision":null,"gfcode":"JUNCP","description":null}},{"type":"Feature","id":1264,"geometry":{"type":"Point","coordinates":[80.302970635000065,6.0649045170000591]},"properties":{"objectid":1264,"railway_infrastructure_type":"JUNCP","name":"Diwqelwatta Junction","creation_method":"8","year_of_creation":"2008","revision_method":null,"year_of_revision":null,"gfcode":"JUNCP","description":null}},{"type":"Feature","id":1265,"geometry":{"type":"Point","coordinates":[80.217626920000043,6.0656068830000436]},"properties":{"objectid":1265,"railway_infrastructure_type":"JUNCP","name":"Hirimbura Junction","creation_method":"8","year_of_creation":"2008","revision_method":null,"year_of_revision":null,"gfcode":"JUNCP","description":null}},{"type":"Feature","id":1266,"geometry":{"type":"Point","coordinates":[80.194678544000055,6.0663553340000362]},"properties":{"objectid":1266,"railway_infrastructure_type":"JUNCP","name":"Galpotte Junction","creation_method":"8","year_of_creation":"2008","revision_method":null,"year_of_revision":null,"gfcode":"JUNCP","description":null}},{"type":"Feature","id":1267,"geometry":{"type":"Point","coordinates":[80.170032253000045,6.0667027590000657]},"properties":{"objectid":1267,"railway_infrastructure_type":"JUNCP","name":"Pitiwella Junction","creation_method":"8","year_of_creation":"2008","revision_method":null,"year_of_revision":null,"gfcode":"JUNCP","description":null}},{"type":"Feature","id":1268,"geometry":{"type":"Point","coordinates":[80.530920262000052,6.0679063850000716]},"properties":{"objectid":1268,"railway_infrastructure_type":"JUNCP","name":"Babarendakade Junction","creation_method":"8","year_of_creation":"2005","revision_method":"3","year_of_revision":"2015","gfcode":"JUNCP","description":null}},{"type":"Feature","id":1269,"geometry":{"type":"Point","coordinates":[80.183836242000041,6.0677696200000355]},"properties":{"objectid":1269,"railway_infrastructure_type":"JUNCP","name":"Welipitimodara Junction","creation_method":"8","year_of_creation":"2008","revision_method":null,"year_of_revision":null,"gfcode":"JUNCP","description":null}},{"type":"Feature","id":1270,"geometry":{"type":"Point","coordinates":[80.33859809900008,6.0704255530000637]},"properties":{"objectid":1270,"railway_infrastructure_type":"JUNCP","name":"Athura Junction","creation_method":"8","year_of_creation":"2008","revision_method":null,"year_of_revision":null,"gfcode":"JUNCP","description":null}},{"type":"Feature","id":1271,"geometry":{"type":"Point","coordinates":[80.233814548000055,6.0707002550000766]},"properties":{"objectid":1271,"railway_infrastructure_type":"JUNCP","name":"Labuduwa","creation_method":"1","year_of_creation":"1999","revision_method":null,"year_of_revision":null,"gfcode":"JUNCP","description":null}},{"type":"Feature","id":1272,"geometry":{"type":"Point","coordinates":[80.21830665400006,6.0713308350000261]},"properties":{"objectid":1272,"railway_infrastructure_type":"JUNCP","name":"Uluwitike","creation_method":"1","year_of_creation":"1999","revision_method":null,"year_of_revision":null,"gfcode":"JUNCP","description":null}},{"type":"Feature","id":1273,"geometry":{"type":"Point","coordinates":[80.197899582000048,6.0739639810000767]},"properties":{"objectid":1273,"railway_infrastructure_type":"JUNCP","name":"Hapugala Junction","creation_method":"8","year_of_creation":"2008","revision_method":null,"year_of_revision":null,"gfcode":"JUNCP","description":null}},{"type":"Feature","id":1274,"geometry":{"type":"Point","coordinates":[80.156314132000034,6.0753860340000756]},"properties":{"objectid":1274,"railway_infrastructure_type":"JUNCP","name":"Temple Junction","creation_method":"1","year_of_creation":"1999","revision_method":null,"year_of_revision":null,"gfcode":"JUNCP","description":null}},{"type":"Feature","id":1275,"geometry":{"type":"Point","coordinates":[80.262817092000034,6.0758392880000542]},"properties":{"objectid":1275,"railway_infrastructure_type":"JUNCP","name":"Rathjambugaha Junction","creation_method":"8","year_of_creation":"2008","revision_method":null,"year_of_revision":null,"gfcode":"JUNCP","description":null}},{"type":"Feature","id":1276,"geometry":{"type":"Point","coordinates":[80.154005922000067,6.0770306650000521]},"properties":{"objectid":1276,"railway_infrastructure_type":"JUNCP","name":"Wellaboda Junction","creation_method":"8","year_of_creation":"2008","revision_method":null,"year_of_revision":null,"gfcode":"JUNCP","description":null}},{"type":"Feature","id":1277,"geometry":{"type":"Point","coordinates":[80.18104397500008,6.0772475260000647]},"properties":{"objectid":1277,"railway_infrastructure_type":"JUNCP","name":"Ukwatta Junction","creation_method":"8","year_of_creation":"2008","revision_method":null,"year_of_revision":null,"gfcode":"JUNCP","description":null}},{"type":"Feature","id":1278,"geometry":{"type":"Point","coordinates":[80.275715071000036,6.0777910400000223]},"properties":{"objectid":1278,"railway_infrastructure_type":"JUNCP","name":"Kurunduwatta Junction","creation_method":"8","year_of_creation":"2008","revision_method":null,"year_of_revision":null,"gfcode":"JUNCP","description":null}},{"type":"Feature","id":1279,"geometry":{"type":"Point","coordinates":[80.248624455000083,6.0779644390000271]},"properties":{"objectid":1279,"railway_infrastructure_type":"JUNCP","name":"Thalagaha Junction","creation_method":"8","year_of_creation":"2008","revision_method":null,"year_of_revision":null,"gfcode":"JUNCP","description":null}},{"type":"Feature","id":1280,"geometry":{"type":"Point","coordinates":[80.659970049000037,6.0788850310000271]},"properties":{"objectid":1280,"railway_infrastructure_type":"JUNCP","name":"Kotabowa Junction","creation_method":"8","year_of_creation":"2005","revision_method":"3","year_of_revision":"2015","gfcode":"JUNCP","description":null}},{"type":"Feature","id":1281,"geometry":{"type":"Point","coordinates":[80.165722548000076,6.0787861660000431]},"properties":{"objectid":1281,"railway_infrastructure_type":"JUNCP","name":"Kendala Junction","creation_method":"8","year_of_creation":"2008","revision_method":null,"year_of_revision":null,"gfcode":"JUNCP","description":null}},{"type":"Feature","id":1282,"geometry":{"type":"Point","coordinates":[80.284300589000054,6.0795644190000644]},"properties":{"objectid":1282,"railway_infrastructure_type":"JUNCP","name":"Hiyare Junction","creation_method":"8","year_of_creation":"2008","revision_method":null,"year_of_revision":null,"gfcode":"JUNCP","description":null}},{"type":"Feature","id":1283,"geometry":{"type":"Point","coordinates":[80.222529145000067,6.0797358650000319]},"properties":{"objectid":1283,"railway_infrastructure_type":"JUNCP","name":"Ulukapuduwa Junction","creation_method":"8","year_of_creation":"2008","revision_method":null,"year_of_revision":null,"gfcode":"JUNCP","description":null}},{"type":"Feature","id":1284,"geometry":{"type":"Point","coordinates":[80.581697427000051,6.0800515560000576]},"properties":{"objectid":1284,"railway_infrastructure_type":"JUNCP","name":"Boralukelaya Junction","creation_method":"8","year_of_creation":"2002","revision_method":"3","year_of_revision":"2015","gfcode":"JUNCP","description":null}},{"type":"Feature","id":1285,"geometry":{"type":"Point","coordinates":[80.285832969000069,6.0808741260000261]},"properties":{"objectid":1285,"railway_infrastructure_type":"JUNCP","name":"Jayanthi Junction","creation_method":"8","year_of_creation":"2008","revision_method":null,"year_of_revision":null,"gfcode":"JUNCP","description":null}},{"type":"Feature","id":1286,"geometry":{"type":"Point","coordinates":[80.290890129000047,6.0821352370000454]},"properties":{"objectid":1286,"railway_infrastructure_type":"JUNCP","name":"Gonamulla Junction","creation_method":"8","year_of_creation":"2008","revision_method":null,"year_of_revision":null,"gfcode":"JUNCP","description":null}},{"type":"Feature","id":1287,"geometry":{"type":"Point","coordinates":[80.247294121000039,6.0834525770000596]},"properties":{"objectid":1287,"railway_infrastructure_type":"JUNCP","name":"Niyagama Junction","creation_method":"8","year_of_creation":"2008","revision_method":null,"year_of_revision":null,"gfcode":"JUNCP","description":null}},{"type":"Feature","id":1288,"geometry":{"type":"Point","coordinates":[80.148164775000055,6.0839709260000632]},"properties":{"objectid":1288,"railway_infrastructure_type":"JUNCP","name":"Ovakanda Junction","creation_method":"8","year_of_creation":"2008","revision_method":null,"year_of_revision":null,"gfcode":"JUNCP","description":null}},{"type":"Feature","id":1289,"geometry":{"type":"Point","coordinates":[80.188423886000066,6.0852743100000453]},"properties":{"objectid":1289,"railway_infrastructure_type":"JUNCP","name":"Molligoda Junction","creation_method":"8","year_of_creation":"2008","revision_method":null,"year_of_revision":null,"gfcode":"JUNCP","description":null}},{"type":"Feature","id":1290,"geometry":{"type":"Point","coordinates":[80.303583115000038,6.0869188120000217]},"properties":{"objectid":1290,"railway_infrastructure_type":"JUNCP","name":"Thalgampola Junction","creation_method":"8","year_of_creation":"2008","revision_method":null,"year_of_revision":null,"gfcode":"JUNCP","description":null}},{"type":"Feature","id":1291,"geometry":{"type":"Point","coordinates":[80.170286708000049,6.0872507010000731]},"properties":{"objectid":1291,"railway_infrastructure_type":"JUNCP","name":"Hegoda Junction","creation_method":"8","year_of_creation":"2008","revision_method":null,"year_of_revision":null,"gfcode":"JUNCP","description":null}},{"type":"Feature","id":1292,"geometry":{"type":"Point","coordinates":[80.784073646000081,6.0878626650000456]},"properties":{"objectid":1292,"railway_infrastructure_type":"JUNCP","name":"Vitarandeniya Junction","creation_method":"8","year_of_creation":"1999","revision_method":null,"year_of_revision":null,"gfcode":"JUNCP","description":null}},{"type":"Feature","id":1293,"geometry":{"type":"Point","coordinates":[80.167568320000044,6.0878381400000308]},"properties":{"objectid":1293,"railway_infrastructure_type":"JUNCP","name":"Madakada  Junction","creation_method":"8","year_of_creation":"2008","revision_method":null,"year_of_revision":null,"gfcode":"JUNCP","description":null}},{"type":"Feature","id":1294,"geometry":{"type":"Point","coordinates":[80.211804915000073,6.0879173120000587]},"properties":{"objectid":1294,"railway_infrastructure_type":"JUNCP","name":"Eriyagaha Junction","creation_method":"8","year_of_creation":"2008","revision_method":null,"year_of_revision":null,"gfcode":"JUNCP","description":null}},{"type":"Feature","id":1295,"geometry":{"type":"Point","coordinates":[80.20390287500004,6.0885368400000743]},"properties":{"objectid":1295,"railway_infrastructure_type":"JUNCP","name":"Batuwanthudawa Junction","creation_method":"8","year_of_creation":"2008","revision_method":null,"year_of_revision":null,"gfcode":"JUNCP","description":null}},{"type":"Feature","id":1296,"geometry":{"type":"Point","coordinates":[80.241337219000059,6.0888883440000541]},"properties":{"objectid":1296,"railway_infrastructure_type":"JUNCP","name":"Kumbalgama Junction","creation_method":"8","year_of_creation":"2008","revision_method":null,"year_of_revision":null,"gfcode":"JUNCP","description":null}},{"type":"Feature","id":1297,"geometry":{"type":"Point","coordinates":[80.277861148000056,6.0892534640000235]},"properties":{"objectid":1297,"railway_infrastructure_type":"JUNCP","name":"Pitadeniya Junction","creation_method":"8","year_of_creation":"2008","revision_method":null,"year_of_revision":null,"gfcode":"JUNCP","description":null}},{"type":"Feature","id":1298,"geometry":{"type":"Point","coordinates":[80.193313343000057,6.0912248260000297]},"properties":{"objectid":1298,"railway_infrastructure_type":"JUNCP","name":"Wakwella Junction","creation_method":"8","year_of_creation":"2008","revision_method":null,"year_of_revision":null,"gfcode":"JUNCP","description":null}},{"type":"Feature","id":1299,"geometry":{"type":"Point","coordinates":[80.141553832000056,6.0914820810000379]},"properties":{"objectid":1299,"railway_infrastructure_type":"JUNCP","name":"Rajgama Junction","creation_method":"8","year_of_creation":"2008","revision_method":null,"year_of_revision":null,"gfcode":"JUNCP","description":null}},{"type":"Feature","id":1300,"geometry":{"type":"Point","coordinates":[80.144196657000066,6.0938180560000319]},"properties":{"objectid":1300,"railway_infrastructure_type":"JUNCP","name":"Katudampe Junction","creation_method":"8","year_of_creation":"2008","revision_method":null,"year_of_revision":null,"gfcode":"JUNCP","description":null}},{"type":"Feature","id":1301,"geometry":{"type":"Point","coordinates":[80.145721699000035,6.0942133780000631]},"properties":{"objectid":1301,"railway_infrastructure_type":"JUNCP","name":"Palliyapitiya Junction","creation_method":"8","year_of_creation":"2008","revision_method":null,"year_of_revision":null,"gfcode":"JUNCP","description":null}},{"type":"Feature","id":1302,"geometry":{"type":"Point","coordinates":[80.173948264000046,6.095273766000048]},"properties":{"objectid":1302,"railway_infrastructure_type":"JUNCP","name":"Wadugoda Junction","creation_method":"8","year_of_creation":"2008","revision_method":null,"year_of_revision":null,"gfcode":"JUNCP","description":null}},{"type":"Feature","id":1303,"geometry":{"type":"Point","coordinates":[80.151246911000044,6.0959186610000415]},"properties":{"objectid":1303,"railway_infrastructure_type":"JUNCP","name":"Gaspaha Junction","creation_method":"8","year_of_creation":"2008","revision_method":null,"year_of_revision":null,"gfcode":"JUNCP","description":null}},{"type":"Feature","id":1304,"geometry":{"type":"Point","coordinates":[80.876395870000067,6.0974752430000763]},"properties":{"objectid":1304,"railway_infrastructure_type":"JUNCP","name":"Ranna- Weeraketiya Junction","creation_method":"6","year_of_creation":"2017","revision_method":null,"year_of_revision":null,"gfcode":"JUNCP","description":null}},{"type":"Feature","id":1305,"geometry":{"type":"Point","coordinates":[80.17323310200004,6.0987082290000671]},"properties":{"objectid":1305,"railway_infrastructure_type":"JUNCP","name":"Pansala Handiya","creation_method":"8","year_of_creation":"2008","revision_method":"3","year_of_revision":"2015","gfcode":"JUNCP","description":null}},{"type":"Feature","id":1306,"geometry":{"type":"Point","coordinates":[80.318379274000051,6.1023297410000623]},"properties":{"objectid":1306,"railway_infrastructure_type":"JUNCP","name":"Kottawa Junction","creation_method":"8","year_of_creation":"2009","revision_method":"3","year_of_revision":"2015","gfcode":"JUNCP","description":null}},{"type":"Feature","id":1307,"geometry":{"type":"Point","coordinates":[80.127752772000065,6.1033892210000431]},"properties":{"objectid":1307,"railway_infrastructure_type":"RLCPP","name":null,"creation_method":"8","year_of_creation":"2008","revision_method":"3","year_of_revision":"2015","gfcode":"RLCPP","description":null}},{"type":"Feature","id":1308,"geometry":{"type":"Point","coordinates":[80.182556876000035,6.1034792020000737]},"properties":{"objectid":1308,"railway_infrastructure_type":"JUNCP","name":"Horagampita Junction","creation_method":"8","year_of_creation":"2008","revision_method":"3","year_of_revision":"2015","gfcode":"JUNCP","description":null}},{"type":"Feature","id":1309,"geometry":{"type":"Point","coordinates":[80.628385995000031,6.1051777320000724]},"properties":{"objectid":1309,"railway_infrastructure_type":"JUNCP","name":"Boraluhena Junction","creation_method":"8","year_of_creation":"2008","revision_method":"3","year_of_revision":"2016","gfcode":"JUNCP","description":null}},{"type":"Feature","id":1310,"geometry":{"type":"Point","coordinates":[80.506746876000079,6.1059041740000453]},"properties":{"objectid":1310,"railway_infrastructure_type":"JUNCP","name":"Polruppa Junction","creation_method":"8","year_of_creation":"2005","revision_method":"3","year_of_revision":"2016","gfcode":"JUNCP","description":null}},{"type":"Feature","id":1311,"geometry":{"type":"Point","coordinates":[80.405174136000085,6.1061057090000759]},"properties":{"objectid":1311,"railway_infrastructure_type":"JUNCP","name":"Ambalama Junction","creation_method":"8","year_of_creation":"2009","revision_method":"3","year_of_revision":"2015","gfcode":"JUNCP","description":null}},{"type":"Feature","id":1312,"geometry":{"type":"Point","coordinates":[80.251981704000059,6.1065065340000615]},"properties":{"objectid":1312,"railway_infrastructure_type":"JUNCP","name":"Ovilana Junction","creation_method":"8","year_of_creation":"2008","revision_method":"3","year_of_revision":"2015","gfcode":"JUNCP","description":null}},{"type":"Feature","id":1313,"geometry":{"type":"Point","coordinates":[80.248577472000079,6.1065672560000621]},"properties":{"objectid":1313,"railway_infrastructure_type":"JUNCP","name":"Hirigalketiya Junction","creation_method":"8","year_of_creation":"2008","revision_method":"3","year_of_revision":"2015","gfcode":"JUNCP","description":null}},{"type":"Feature","id":1314,"geometry":{"type":"Point","coordinates":[80.334968966000076,6.1069486240000401]},"properties":{"objectid":1314,"railway_infrastructure_type":"JUNCP","name":"Makumbura Junction","creation_method":"9","year_of_creation":"2015","revision_method":null,"year_of_revision":null,"gfcode":"JUNCP","description":null}},{"type":"Feature","id":1315,"geometry":{"type":"Point","coordinates":[80.126777971000081,6.1071678160000715]},"properties":{"objectid":1315,"railway_infrastructure_type":"RLCPP","name":null,"creation_method":"8","year_of_creation":"2008","revision_method":"3","year_of_revision":"2015","gfcode":"RLCPP","description":null}},{"type":"Feature","id":1316,"geometry":{"type":"Point","coordinates":[80.415215722000084,6.1076215630000661]},"properties":{"objectid":1316,"railway_infrastructure_type":"JUNCP","name":"Wilawala Junction","creation_method":"8","year_of_creation":"2008","revision_method":"3","year_of_revision":"2016","gfcode":"JUNCP","description":null}},{"type":"Feature","id":1317,"geometry":{"type":"Point","coordinates":[80.931983255000034,6.1100251070000695]},"properties":{"objectid":1317,"railway_infrastructure_type":"JUNCP","name":"Hungama Junction","creation_method":"6","year_of_creation":"2017","revision_method":null,"year_of_revision":null,"gfcode":"JUNCP","description":null}},{"type":"Feature","id":1318,"geometry":{"type":"Point","coordinates":[80.142783390000034,6.1098198890000504]},"properties":{"objectid":1318,"railway_infrastructure_type":"JUNCP","name":"Imbulagoda Junction","creation_method":"8","year_of_creation":"2008","revision_method":"3","year_of_revision":"2015","gfcode":"JUNCP","description":null}},{"type":"Feature","id":1319,"geometry":{"type":"Point","coordinates":[80.420436590000065,6.1103454280000733]},"properties":{"objectid":1319,"railway_infrastructure_type":"JUNCP","name":"Korahana Junction","creation_method":"8","year_of_creation":"2003","revision_method":"3","year_of_revision":"2016","gfcode":"JUNCP","description":null}},{"type":"Feature","id":1320,"geometry":{"type":"Point","coordinates":[80.125192862000063,6.1103593300000512]},"properties":{"objectid":1320,"railway_infrastructure_type":"JUNCP","name":"Dodanduwa Junction","creation_method":"1","year_of_creation":"1999","revision_method":"2","year_of_revision":"2015","gfcode":"JUNCP","description":null}},{"type":"Feature","id":1321,"geometry":{"type":"Point","coordinates":[80.12583201700005,6.1104586660000564]},"properties":{"objectid":1321,"railway_infrastructure_type":"RLCPP","name":null,"creation_method":"8","year_of_creation":"2008","revision_method":"3","year_of_revision":"2015","gfcode":"RLCPP","description":null}},{"type":"Feature","id":1322,"geometry":{"type":"Point","coordinates":[80.561350661000063,6.1108572970000523]},"properties":{"objectid":1322,"railway_infrastructure_type":"JUNCP","name":"Ransagoda Junction","creation_method":"8","year_of_creation":"2008","revision_method":"3","year_of_revision":"2016","gfcode":"JUNCP","description":null}},{"type":"Feature","id":1323,"geometry":{"type":"Point","coordinates":[80.124988906000056,6.1115308670000559]},"properties":{"objectid":1323,"railway_infrastructure_type":"RLCPP","name":null,"creation_method":"8","year_of_creation":"2008","revision_method":"3","year_of_revision":"2015","gfcode":"RLCPP","description":null}},{"type":"Feature","id":1324,"geometry":{"type":"Point","coordinates":[80.991426158000081,6.1136291630000414]},"properties":{"objectid":1324,"railway_infrastructure_type":"JUNCP","name":"Nonagama Junction","creation_method":"6","year_of_creation":"2017","revision_method":null,"year_of_revision":null,"gfcode":"JUNCP","description":null}},{"type":"Feature","id":1325,"geometry":{"type":"Point","coordinates":[80.216145243000085,6.1148597120000545]},"properties":{"objectid":1325,"railway_infrastructure_type":"JUNCP","name":"Poddala Junction","creation_method":"8","year_of_creation":"2008","revision_method":"3","year_of_revision":"2015","gfcode":"JUNCP","description":null}},{"type":"Feature","id":1326,"geometry":{"type":"Point","coordinates":[80.21338224200008,6.1165491670000733]},"properties":{"objectid":1326,"railway_infrastructure_type":"JUNCP","name":"Balagoda Junction","creation_method":"8","year_of_creation":"2008","revision_method":"3","year_of_revision":"2015","gfcode":"JUNCP","description":null}},{"type":"Feature","id":1327,"geometry":{"type":"Point","coordinates":[81.082588463000036,6.1169305710000685]},"properties":{"objectid":1327,"railway_infrastructure_type":"JUNCP","name":"Mirijjawila Junction","creation_method":"6","year_of_creation":"2017","revision_method":null,"year_of_revision":null,"gfcode":"JUNCP","description":null}},{"type":"Feature","id":1328,"geometry":{"type":"Point","coordinates":[80.536183462000054,6.1186535160000517]},"properties":{"objectid":1328,"railway_infrastructure_type":"JUNCP","name":"Thalahagama  Junction","creation_method":"8","year_of_creation":"2005","revision_method":"3","year_of_revision":"2016","gfcode":"JUNCP","description":null}},{"type":"Feature","id":1329,"geometry":{"type":"Point","coordinates":[80.154901260000031,6.1192059660000382]},"properties":{"objectid":1329,"railway_infrastructure_type":"JUNCP","name":"Panwila Junction","creation_method":"8","year_of_creation":"2008","revision_method":"3","year_of_revision":"2015","gfcode":"JUNCP","description":null}},{"type":"Feature","id":1330,"geometry":{"type":"Point","coordinates":[81.066441765000036,6.1204389300000344]},"properties":{"objectid":1330,"railway_infrastructure_type":"JUNCP","name":"Chithragala Junction","creation_method":"6","year_of_creation":"2017","revision_method":null,"year_of_revision":null,"gfcode":"JUNCP","description":null}},{"type":"Feature","id":1331,"geometry":{"type":"Point","coordinates":[80.889223294000033,6.1207409000000439]},"properties":{"objectid":1331,"railway_infrastructure_type":"JUNCP","name":"Kattakaduwa Junction","creation_method":"6","year_of_creation":"2017","revision_method":null,"year_of_revision":null,"gfcode":"JUNCP","description":null}},{"type":"Feature","id":1332,"geometry":{"type":"Point","coordinates":[80.196062264000034,6.1204891140000655]},"properties":{"objectid":1332,"railway_infrastructure_type":"JUNCP","name":"Aramba Handiya","creation_method":"8","year_of_creation":"2008","revision_method":"3","year_of_revision":"2015","gfcode":"JUNCP","description":null}},{"type":"Feature","id":1333,"geometry":{"type":"Point","coordinates":[80.74477567100007,6.1212601610000661]},"properties":{"objectid":1333,"railway_infrastructure_type":"JUNCP","name":"Mulkirigala Junction","creation_method":"8","year_of_creation":"2008","revision_method":"3","year_of_revision":"2016","gfcode":"JUNCP","description":null}},{"type":"Feature","id":1334,"geometry":{"type":"Point","coordinates":[80.114916832000063,6.1218796510000288]},"properties":{"objectid":1334,"railway_infrastructure_type":"RLCPP","name":null,"creation_method":"8","year_of_creation":"2008","revision_method":"3","year_of_revision":"2015","gfcode":"RLCPP","description":null}},{"type":"Feature","id":1335,"geometry":{"type":"Point","coordinates":[81.023709200000042,6.1225944580000373]},"properties":{"objectid":1335,"railway_infrastructure_type":"JUNCP","name":"Waduruppa Junction","creation_method":"8","year_of_creation":"2008","revision_method":null,"year_of_revision":null,"gfcode":"JUNCP","description":null}},{"type":"Feature","id":1336,"geometry":{"type":"Point","coordinates":[80.499489451000045,6.1236233700000753]},"properties":{"objectid":1336,"railway_infrastructure_type":"JUNCP","name":"Hirimandiya Junction","creation_method":"8","year_of_creation":"2005","revision_method":"3","year_of_revision":"2016","gfcode":"JUNCP","description":null}},{"type":"Feature","id":1337,"geometry":{"type":"Point","coordinates":[80.111637697000049,6.1242685570000504]},"properties":{"objectid":1337,"railway_infrastructure_type":"RLCPP","name":null,"creation_method":"8","year_of_creation":"2008","revision_method":"3","year_of_revision":"2015","gfcode":"RLCPP","description":null}},{"type":"Feature","id":1338,"geometry":{"type":"Point","coordinates":[80.528487369000061,6.1261704620000614]},"properties":{"objectid":1338,"railway_infrastructure_type":"JUNCP","name":"Alikevila Junction","creation_method":"8","year_of_creation":"2005","revision_method":"3","year_of_revision":"2016","gfcode":"JUNCP","description":null}},{"type":"Feature","id":1339,"geometry":{"type":"Point","coordinates":[80.132145195000078,6.1282159450000222]},"properties":{"objectid":1339,"railway_infrastructure_type":"JUNCP","name":"Pinkanda Janction","creation_method":"8","year_of_creation":"2008","revision_method":"3","year_of_revision":"2015","gfcode":"JUNCP","description":null}},{"type":"Feature","id":1340,"geometry":{"type":"Point","coordinates":[80.105125942000029,6.128912888000059]},"properties":{"objectid":1340,"railway_infrastructure_type":"RLCPP","name":null,"creation_method":"8","year_of_creation":"2008","revision_method":"3","year_of_revision":"2015","gfcode":"RLCPP","description":null}},{"type":"Feature","id":1341,"geometry":{"type":"Point","coordinates":[80.478613536000069,6.1296996260000469]},"properties":{"objectid":1341,"railway_infrastructure_type":"JUNCP","name":"Depelagoda Junction","creation_method":"8","year_of_creation":"2008","revision_method":"3","year_of_revision":"2016","gfcode":"JUNCP","description":null}},{"type":"Feature","id":1342,"geometry":{"type":"Point","coordinates":[80.218112961000031,6.13012526600005]},"properties":{"objectid":1342,"railway_infrastructure_type":"JUNCP","name":"Kasideniya Junction","creation_method":"8","year_of_creation":"2008","revision_method":"3","year_of_revision":"2015","gfcode":"JUNCP","description":null}},{"type":"Feature","id":1343,"geometry":{"type":"Point","coordinates":[80.333030747000066,6.1310862810000231]},"properties":{"objectid":1343,"railway_infrastructure_type":"JUNCP","name":"Akulahena Junction","creation_method":"8","year_of_creation":"2009","revision_method":"3","year_of_revision":"2015","gfcode":"JUNCP","description":null}},{"type":"Feature","id":1344,"geometry":{"type":"Point","coordinates":[81.126234583000041,6.1315496370000346]},"properties":{"objectid":1344,"railway_infrastructure_type":"JUNCP","name":"Panuwala Junction (Thissa Junction)","creation_method":"6","year_of_creation":"2017","revision_method":null,"year_of_revision":null,"gfcode":"JUNCP","description":null}},{"type":"Feature","id":1345,"geometry":{"type":"Point","coordinates":[80.512578361000067,6.1316205150000656]},"properties":{"objectid":1345,"railway_infrastructure_type":"JUNCP","name":"Nagoda Junction","creation_method":"8","year_of_creation":"2005","revision_method":"3","year_of_revision":"2016","gfcode":"JUNCP","description":null}},{"type":"Feature","id":1346,"geometry":{"type":"Point","coordinates":[80.521957007000083,6.1334939390000613]},"properties":{"objectid":1346,"railway_infrastructure_type":"JUNCP","name":"Nakotuwa  Junction","creation_method":"8","year_of_creation":"2005","revision_method":"3","year_of_revision":"2016","gfcode":"JUNCP","description":null}},{"type":"Feature","id":1347,"geometry":{"type":"Point","coordinates":[80.169259371000066,6.1340685940000412]},"properties":{"objectid":1347,"railway_infrastructure_type":"JUNCP","name":"Ginimellagaha Junction","creation_method":"8","year_of_creation":"2008","revision_method":"3","year_of_revision":"2015","gfcode":"JUNCP","description":null}},{"type":"Feature","id":1348,"geometry":{"type":"Point","coordinates":[80.254431387000068,6.1347006830000623]},"properties":{"objectid":1348,"railway_infrastructure_type":"JUNCP","name":"Wanduramba Juction","creation_method":"9","year_of_creation":"2015","revision_method":null,"year_of_revision":null,"gfcode":"JUNCP","description":null}},{"type":"Feature","id":1349,"geometry":{"type":"Point","coordinates":[80.16593249500005,6.1346826580000311]},"properties":{"objectid":1349,"railway_infrastructure_type":"JUNCP","name":"Pituwalgoda Junction","creation_method":"1","year_of_creation":"1999","revision_method":"2","year_of_revision":"2015","gfcode":"JUNCP","description":null}},{"type":"Feature","id":1350,"geometry":{"type":"Point","coordinates":[80.516164611000079,6.1352494600000682]},"properties":{"objectid":1350,"railway_infrastructure_type":"JUNCP","name":"Thalahagama Junction","creation_method":"6","year_of_creation":"2017","revision_method":null,"year_of_revision":null,"gfcode":"JUNCP","description":null}},{"type":"Feature","id":1351,"geometry":{"type":"Point","coordinates":[80.15070597700003,6.1349813650000442]},"properties":{"objectid":1351,"railway_infrastructure_type":"JUNCP","name":"Ambagaha  Junction","creation_method":"8","year_of_creation":"2008","revision_method":"3","year_of_revision":"2015","gfcode":"JUNCP","description":null}},{"type":"Feature","id":1352,"geometry":{"type":"Point","coordinates":[80.100703521000071,6.1353104470000517]},"properties":{"objectid":1352,"railway_infrastructure_type":"RLCPP","name":null,"creation_method":"8","year_of_creation":"2008","revision_method":"3","year_of_revision":"2015","gfcode":"RLCPP","description":null}},{"type":"Feature","id":1353,"geometry":{"type":"Point","coordinates":[80.177344919000063,6.1361339130000374]},"properties":{"objectid":1353,"railway_infrastructure_type":"JUNCP","name":"Dodangoda Junction","creation_method":"8","year_of_creation":"2008","revision_method":"3","year_of_revision":"2015","gfcode":"JUNCP","description":null}},{"type":"Feature","id":1354,"geometry":{"type":"Point","coordinates":[80.616213690000052,6.1364856000000714]},"properties":{"objectid":1354,"railway_infrastructure_type":"JUNCP","name":"Radawela Junction","creation_method":"8","year_of_creation":"2008","revision_method":"3","year_of_revision":"2016","gfcode":"JUNCP","description":null}},{"type":"Feature","id":1355,"geometry":{"type":"Point","coordinates":[80.11404093200008,6.1377423460000387]},"properties":{"objectid":1355,"railway_infrastructure_type":"JUNCP","name":"Nalagasdeniya Junction","creation_method":"8","year_of_creation":"2008","revision_method":"3","year_of_revision":"2015","gfcode":"JUNCP","description":null}},{"type":"Feature","id":1356,"geometry":{"type":"Point","coordinates":[80.438352759000054,6.138680106000038]},"properties":{"objectid":1356,"railway_infrastructure_type":"JUNCP","name":"Nawalagoda Junction","creation_method":"8","year_of_creation":"2008","revision_method":"3","year_of_revision":"2016","gfcode":"JUNCP","description":null}},{"type":"Feature","id":1357,"geometry":{"type":"Point","coordinates":[80.120529885000053,6.1387479810000514]},"properties":{"objectid":1357,"railway_infrastructure_type":"JUNCP","name":"Pathana Junction","creation_method":"8","year_of_creation":"2008","revision_method":"3","year_of_revision":"2015","gfcode":"JUNCP","description":null}},{"type":"Feature","id":1358,"geometry":{"type":"Point","coordinates":[80.945561312000052,6.1394441760000404]},"properties":{"objectid":1358,"railway_infrastructure_type":"JUNCP","name":"Deniya Junction","creation_method":"6","year_of_creation":"2017","revision_method":null,"year_of_revision":null,"gfcode":"JUNCP","description":null}},{"type":"Feature","id":1359,"geometry":{"type":"Point","coordinates":[80.556871971000078,6.1404438980000577]},"properties":{"objectid":1359,"railway_infrastructure_type":"JUNCP","name":"Makandura Junction","creation_method":"8","year_of_creation":"2008","revision_method":"3","year_of_revision":"2016","gfcode":"JUNCP","description":null}},{"type":"Feature","id":1360,"geometry":{"type":"Point","coordinates":[80.099727650000034,6.1404504540000744]},"properties":{"objectid":1360,"railway_infrastructure_type":"JUNCP","name":"Hikkaduwa Junction","creation_method":"8","year_of_creation":"2008","revision_method":"3","year_of_revision":"2015","gfcode":"JUNCP","description":null}},{"type":"Feature","id":1361,"geometry":{"type":"Point","coordinates":[80.100222105000057,6.1405410510000706]},"properties":{"objectid":1361,"railway_infrastructure_type":"RLCPP","name":null,"creation_method":"8","year_of_creation":"2008","revision_method":"3","year_of_revision":"2015","gfcode":"RLCPP","description":null}},{"type":"Feature","id":1362,"geometry":{"type":"Point","coordinates":[80.136881258000074,6.141370448000032]},"properties":{"objectid":1362,"railway_infrastructure_type":"JUNCP","name":"Gonapinuwala Junction","creation_method":"1","year_of_creation":"1999","revision_method":"2","year_of_revision":"2015","gfcode":"JUNCP","description":null}},{"type":"Feature","id":1363,"geometry":{"type":"Point","coordinates":[81.074272814000039,6.1419299930000761]},"properties":{"objectid":1363,"railway_infrastructure_type":null,"name":"Overpass","creation_method":"9","year_of_creation":"2014","revision_method":null,"year_of_revision":null,"gfcode":null,"description":null}},{"type":"Feature","id":1364,"geometry":{"type":"Point","coordinates":[81.074368433000075,6.1419969610000749]},"properties":{"objectid":1364,"railway_infrastructure_type":null,"name":"Overpass","creation_method":"9","year_of_creation":"2014","revision_method":null,"year_of_revision":null,"gfcode":null,"description":null}},{"type":"Feature","id":1365,"geometry":{"type":"Point","coordinates":[80.261660053000071,6.1419149430000743]},"properties":{"objectid":1365,"railway_infrastructure_type":"JUNCP","name":"Katamburawa Junction","creation_method":"8","year_of_creation":"2009","revision_method":"3","year_of_revision":"2015","gfcode":"JUNCP","description":null}},{"type":"Feature","id":1366,"geometry":{"type":"Point","coordinates":[80.209158578000086,6.1422131400000239]},"properties":{"objectid":1366,"railway_infrastructure_type":"JUNCP","name":"Pasmaha Junction","creation_method":"8","year_of_creation":"2009","revision_method":"3","year_of_revision":"2015","gfcode":"JUNCP","description":null}},{"type":"Feature","id":1367,"geometry":{"type":"Point","coordinates":[80.81225913600008,6.1433436490000304]},"properties":{"objectid":1367,"railway_infrastructure_type":"JUNCP","name":"Udayala Junction","creation_method":"6","year_of_creation":"2017","revision_method":null,"year_of_revision":null,"gfcode":"JUNCP","description":null}},{"type":"Feature","id":1368,"geometry":{"type":"Point","coordinates":[81.127060671000038,6.1461704150000287]},"properties":{"objectid":1368,"railway_infrastructure_type":"JUNCP","name":"Sri Jayaboodhi Vihara Junction","creation_method":"6","year_of_creation":"2017","revision_method":null,"year_of_revision":null,"gfcode":"JUNCP","description":null}},{"type":"Feature","id":1369,"geometry":{"type":"Point","coordinates":[81.072863100000063,6.1462289100000476]},"properties":{"objectid":1369,"railway_infrastructure_type":null,"name":"Overpass","creation_method":"9","year_of_creation":"2014","revision_method":null,"year_of_revision":null,"gfcode":null,"description":null}},{"type":"Feature","id":1370,"geometry":{"type":"Point","coordinates":[81.072859222000034,6.146325627000067]},"properties":{"objectid":1370,"railway_infrastructure_type":"JUNCP","name":"Old Katuwewa Junction","creation_method":"6","year_of_creation":"2017","revision_method":null,"year_of_revision":null,"gfcode":"JUNCP","description":null}},{"type":"Feature","id":1371,"geometry":{"type":"Point","coordinates":[81.072857009000074,6.1463913750000643]},"properties":{"objectid":1371,"railway_infrastructure_type":null,"name":"Overpass","creation_method":"9","year_of_creation":"2014","revision_method":null,"year_of_revision":null,"gfcode":null,"description":null}},{"type":"Feature","id":1372,"geometry":{"type":"Point","coordinates":[80.099917875000074,6.1467597180000553]},"properties":{"objectid":1372,"railway_infrastructure_type":"RLCPP","name":null,"creation_method":"8","year_of_creation":"2008","revision_method":"3","year_of_revision":"2015","gfcode":"RLCPP","description":null}},{"type":"Feature","id":1373,"geometry":{"type":"Point","coordinates":[80.763329204000058,6.1476410940000505]},"properties":{"objectid":1373,"railway_infrastructure_type":"JUNCP","name":"Weeraketiya Junction","creation_method":"8","year_of_creation":"2008","revision_method":"3","year_of_revision":"2016","gfcode":"JUNCP","description":null}},{"type":"Feature","id":1374,"geometry":{"type":"Point","coordinates":[81.075840627000048,6.1482547720000298]},"properties":{"objectid":1374,"railway_infrastructure_type":null,"name":"Overpass","creation_method":"9","year_of_creation":"2014","revision_method":null,"year_of_revision":null,"gfcode":null,"description":null}},{"type":"Feature","id":1375,"geometry":{"type":"Point","coordinates":[81.075792402000047,6.1483823070000767]},"properties":{"objectid":1375,"railway_infrastructure_type":null,"name":"Overpass","creation_method":"9","year_of_creation":"2014","revision_method":null,"year_of_revision":null,"gfcode":null,"description":null}},{"type":"Feature","id":1376,"geometry":{"type":"Point","coordinates":[80.162629430000038,6.1495195420000641]},"properties":{"objectid":1376,"railway_infrastructure_type":"JUNCP","name":"Bataketiya Junction","creation_method":"8","year_of_creation":"2008","revision_method":"3","year_of_revision":"2015","gfcode":"JUNCP","description":null}},{"type":"Feature","id":1377,"geometry":{"type":"Point","coordinates":[80.099503825000056,6.1499801750000529]},"properties":{"objectid":1377,"railway_infrastructure_type":"RLCPP","name":null,"creation_method":"8","year_of_creation":"2008","revision_method":"3","year_of_revision":"2015","gfcode":"RLCPP","description":null}},{"type":"Feature","id":1378,"geometry":{"type":"Point","coordinates":[80.141968770000062,6.1518725960000324]},"properties":{"objectid":1378,"railway_infrastructure_type":"JUNCP","name":"Sarana Junction","creation_method":"8","year_of_creation":"2008","revision_method":"3","year_of_revision":"2015","gfcode":"JUNCP","description":null}},{"type":"Feature","id":1379,"geometry":{"type":"Point","coordinates":[81.127205153000034,6.1536069700000553]},"properties":{"objectid":1379,"railway_infrastructure_type":"JUNCP","name":"Siyambalagaha Junction","creation_method":"8","year_of_creation":"2008","revision_method":null,"year_of_revision":null,"gfcode":"JUNCP","description":null}},{"type":"Feature","id":1380,"geometry":{"type":"Point","coordinates":[80.922744877000071,6.1537316920000649]},"properties":{"objectid":1380,"railway_infrastructure_type":"JUNCP","name":"Handunkatuwa Junction","creation_method":"8","year_of_creation":"2008","revision_method":null,"year_of_revision":null,"gfcode":"JUNCP","description":null}},{"type":"Feature","id":1381,"geometry":{"type":"Point","coordinates":[80.280072773000029,6.1535346260000665]},"properties":{"objectid":1381,"railway_infrastructure_type":"JUNCP","name":"Bovitiyamulla Junction","creation_method":"8","year_of_creation":"2008","revision_method":"3","year_of_revision":"2015","gfcode":"JUNCP","description":null}},{"type":"Feature","id":1382,"geometry":{"type":"Point","coordinates":[80.346751055000084,6.1537327370000412]},"properties":{"objectid":1382,"railway_infrastructure_type":"JUNCP","name":"Dahaate Junction","creation_method":"8","year_of_creation":"2008","revision_method":"3","year_of_revision":"2015","gfcode":"JUNCP","description":null}},{"type":"Feature","id":1383,"geometry":{"type":"Point","coordinates":[80.184452625000063,6.1539950020000447]},"properties":{"objectid":1383,"railway_infrastructure_type":"JUNCP","name":"Sandarawala Junction","creation_method":"8","year_of_creation":"2008","revision_method":"3","year_of_revision":"2015","gfcode":"JUNCP","description":null}},{"type":"Feature","id":1384,"geometry":{"type":"Point","coordinates":[81.089670152000053,6.1549910050000562]},"properties":{"objectid":1384,"railway_infrastructure_type":"JUNCP","name":"Katu wewa Junction","creation_method":"6","year_of_creation":"2017","revision_method":null,"year_of_revision":null,"gfcode":"JUNCP","description":null}},{"type":"Feature","id":1385,"geometry":{"type":"Point","coordinates":[80.697821008000062,6.1555342020000694]},"properties":{"objectid":1385,"railway_infrastructure_type":"JUNCP","name":"Walasmulla Junction","creation_method":"8","year_of_creation":"2008","revision_method":"3","year_of_revision":"2016","gfcode":"JUNCP","description":null}},{"type":"Feature","id":1386,"geometry":{"type":"Point","coordinates":[81.105685811000058,6.1555905850000272]},"properties":{"objectid":1386,"railway_infrastructure_type":"JUNCP","name":"New Hospital Junction","creation_method":"6","year_of_creation":"2017","revision_method":null,"year_of_revision":null,"gfcode":"JUNCP","description":null}},{"type":"Feature","id":1387,"geometry":{"type":"Point","coordinates":[80.096507550000069,6.1554887400000666]},"properties":{"objectid":1387,"railway_infrastructure_type":"RLCPP","name":null,"creation_method":"8","year_of_creation":"2008","revision_method":"3","year_of_revision":"2015","gfcode":"RLCPP","description":null}},{"type":"Feature","id":1388,"geometry":{"type":"Point","coordinates":[80.936012263000066,6.1589466500000754]},"properties":{"objectid":1388,"railway_infrastructure_type":"JUNCP","name":"Ethbatuwa Junction","creation_method":"6","year_of_creation":"2017","revision_method":null,"year_of_revision":null,"gfcode":"JUNCP","description":null}},{"type":"Feature","id":1389,"geometry":{"type":"Point","coordinates":[80.094826549000061,6.1585751060000575]},"properties":{"objectid":1389,"railway_infrastructure_type":"RLCPP","name":null,"creation_method":"8","year_of_creation":"2008","revision_method":"3","year_of_revision":"2015","gfcode":"RLCPP","description":null}},{"type":"Feature","id":1390,"geometry":{"type":"Point","coordinates":[80.107180447000076,6.1586934510000333]},"properties":{"objectid":1390,"railway_infrastructure_type":"JUNCP","name":"Kalupe Junction","creation_method":"8","year_of_creation":"2008","revision_method":"3","year_of_revision":"2015","gfcode":"JUNCP","description":null}},{"type":"Feature","id":1391,"geometry":{"type":"Point","coordinates":[80.584272411000029,6.1601382230000468]},"properties":{"objectid":1391,"railway_infrastructure_type":"JUNCP","name":"Mulatiyana Junction","creation_method":"8","year_of_creation":"2008","revision_method":"3","year_of_revision":"2016","gfcode":"JUNCP","description":null}},{"type":"Feature","id":1392,"geometry":{"type":"Point","coordinates":[80.973898391000034,6.1604813310000281]},"properties":{"objectid":1392,"railway_infrastructure_type":"JUNCP","name":"Gamaralagama Junction","creation_method":"8","year_of_creation":"2008","revision_method":null,"year_of_revision":null,"gfcode":"JUNCP","description":null}},{"type":"Feature","id":1393,"geometry":{"type":"Point","coordinates":[80.353993417000083,6.1604838150000205]},"properties":{"objectid":1393,"railway_infrastructure_type":"JUNCP","name":"Aluthwatta Junction","creation_method":"8","year_of_creation":"2008","revision_method":"3","year_of_revision":"2015","gfcode":"JUNCP","description":null}},{"type":"Feature","id":1394,"geometry":{"type":"Point","coordinates":[80.263717115000077,6.1609658230000264]},"properties":{"objectid":1394,"railway_infrastructure_type":"JUNCP","name":"Soodala Junction","creation_method":"8","year_of_creation":"2009","revision_method":"3","year_of_revision":"2015","gfcode":"JUNCP","description":null}},{"type":"Feature","id":1395,"geometry":{"type":"Point","coordinates":[80.210623213000076,6.1631213450000359]},"properties":{"objectid":1395,"railway_infrastructure_type":"JUNCP","name":"Ellakanda Junction","creation_method":"8","year_of_creation":"2009","revision_method":"3","year_of_revision":"2015","gfcode":"JUNCP","description":null}},{"type":"Feature","id":1396,"geometry":{"type":"Point","coordinates":[80.092422000000056,6.1630015080000362]},"properties":{"objectid":1396,"railway_infrastructure_type":"RLCPP","name":null,"creation_method":"8","year_of_creation":"2008","revision_method":"3","year_of_revision":"2015","gfcode":"RLCPP","description":null}},{"type":"Feature","id":1397,"geometry":{"type":"Point","coordinates":[80.512841260000073,6.1633994580000717]},"properties":{"objectid":1397,"railway_infrastructure_type":"JUNCP","name":"Galmola Junction","creation_method":"8","year_of_creation":"1989","revision_method":"3","year_of_revision":"2016","gfcode":"JUNCP","description":null}},{"type":"Feature","id":1398,"geometry":{"type":"Point","coordinates":[80.179323658000044,6.1647861300000386]},"properties":{"objectid":1398,"railway_infrastructure_type":"JUNCP","name":"Gotatuwa Junction","creation_method":"8","year_of_creation":"2008","revision_method":"3","year_of_revision":"2015","gfcode":"JUNCP","description":null}},{"type":"Feature","id":1399,"geometry":{"type":"Point","coordinates":[80.20528149300003,6.1657419770000388]},"properties":{"objectid":1399,"railway_infrastructure_type":"JUNCP","name":"Nilhena Junction","creation_method":"8","year_of_creation":"2009","revision_method":"3","year_of_revision":"2015","gfcode":"JUNCP","description":null}},{"type":"Feature","id":1400,"geometry":{"type":"Point","coordinates":[80.74685845700003,6.1678815810000742]},"properties":{"objectid":1400,"railway_infrastructure_type":"JUNCP","name":"Hingurumulana Junction","creation_method":"8","year_of_creation":"2008","revision_method":"3","year_of_revision":"2016","gfcode":"JUNCP","description":null}},{"type":"Feature","id":1401,"geometry":{"type":"Point","coordinates":[80.087356048000061,6.1688503550000746]},"properties":{"objectid":1401,"railway_infrastructure_type":"JUNCP","name":"Telwatta Junction","creation_method":"1","year_of_creation":"1999","revision_method":"2","year_of_revision":"2015","gfcode":"JUNCP","description":null}},{"type":"Feature","id":1402,"geometry":{"type":"Point","coordinates":[80.088519791000067,6.169488374000025]},"properties":{"objectid":1402,"railway_infrastructure_type":"RLCPP","name":null,"creation_method":"8","year_of_creation":"2008","revision_method":"3","year_of_revision":"2015","gfcode":"RLCPP","description":null}},{"type":"Feature","id":1403,"geometry":{"type":"Point","coordinates":[80.16652765300006,6.1708410370000593]},"properties":{"objectid":1403,"railway_infrastructure_type":"JUNCP","name":"Halpathta Junction","creation_method":"9","year_of_creation":"2015","revision_method":null,"year_of_revision":null,"gfcode":"JUNCP","description":null}},{"type":"Feature","id":1404,"geometry":{"type":"Point","coordinates":[80.240701819000037,6.1718537650000371]},"properties":{"objectid":1404,"railway_infrastructure_type":"JUNCP","name":"Pillewe Junction","creation_method":"8","year_of_creation":"2009","revision_method":"3","year_of_revision":"2015","gfcode":"JUNCP","description":null}},{"type":"Feature","id":1405,"geometry":{"type":"Point","coordinates":[81.225051817000065,6.1724984370000584]},"properties":{"objectid":1405,"railway_infrastructure_type":"JUNCP","name":"Pathiraja Junction","creation_method":"8","year_of_creation":"2008","revision_method":"3","year_of_revision":"2014","gfcode":"JUNCP","description":null}},{"type":"Feature","id":1406,"geometry":{"type":"Point","coordinates":[80.175457553000058,6.1737967720000597]},"properties":{"objectid":1406,"railway_infrastructure_type":"JUNCP","name":"Baddegama Junction","creation_method":"1","year_of_creation":"1999","revision_method":"2","year_of_revision":"2015","gfcode":"JUNCP","description":null}},{"type":"Feature","id":1407,"geometry":{"type":"Point","coordinates":[81.127450678000059,6.174777984000059]},"properties":{"objectid":1407,"railway_infrastructure_type":null,"name":"Overpass","creation_method":"9","year_of_creation":"2014","revision_method":null,"year_of_revision":null,"gfcode":null,"description":null}},{"type":"Feature","id":1408,"geometry":{"type":"Point","coordinates":[80.166373889000056,6.1746439740000483]},"properties":{"objectid":1408,"railway_infrastructure_type":"JUNCP","name":"Dunwatta Junction","creation_method":"8","year_of_creation":"2008","revision_method":"3","year_of_revision":"2015","gfcode":"JUNCP","description":null}},{"type":"Feature","id":1409,"geometry":{"type":"Point","coordinates":[80.081888513000081,6.1757677540000486]},"properties":{"objectid":1409,"railway_infrastructure_type":"RLCPP","name":null,"creation_method":"8","year_of_creation":"2008","revision_method":"3","year_of_revision":"2015","gfcode":"RLCPP","description":null}},{"type":"Feature","id":1410,"geometry":{"type":"Point","coordinates":[80.189585832000034,6.1789988430000449]},"properties":{"objectid":1410,"railway_infrastructure_type":"JUNCP","name":"Nayapamula Junction","creation_method":"8","year_of_creation":"2008","revision_method":"3","year_of_revision":"2015","gfcode":"JUNCP","description":null}},{"type":"Feature","id":1411,"geometry":{"type":"Point","coordinates":[80.136426613000083,6.1801356520000468]},"properties":{"objectid":1411,"railway_infrastructure_type":"JUNCP","name":"Aluthwala Junction","creation_method":"8","year_of_creation":"2008","revision_method":"3","year_of_revision":"2015","gfcode":"JUNCP","description":null}},{"type":"Feature","id":1412,"geometry":{"type":"Point","coordinates":[80.347088003000067,6.1831153920000474]},"properties":{"objectid":1412,"railway_infrastructure_type":"JUNCP","name":"Samimale Junction","creation_method":"8","year_of_creation":"2008","revision_method":"3","year_of_revision":"2015","gfcode":"JUNCP","description":null}},{"type":"Feature","id":1413,"geometry":{"type":"Point","coordinates":[80.072048475000031,6.1833568270000683]},"properties":{"objectid":1413,"railway_infrastructure_type":"JUNCP","name":"Kahawa Junction","creation_method":"1","year_of_creation":"1999","revision_method":"2","year_of_revision":"2015","gfcode":"JUNCP","description":null}},{"type":"Feature","id":1414,"geometry":{"type":"Point","coordinates":[80.073098407000032,6.184111835000067]},"properties":{"objectid":1414,"railway_infrastructure_type":"RLCPP","name":null,"creation_method":"8","year_of_creation":"2008","revision_method":"3","year_of_revision":"2015","gfcode":"RLCPP","description":null}},{"type":"Feature","id":1415,"geometry":{"type":"Point","coordinates":[80.11532593000004,6.1852732390000256]},"properties":{"objectid":1415,"railway_infrastructure_type":"JUNCP","name":"Kirindiela junction","creation_method":"8","year_of_creation":"2008","revision_method":"3","year_of_revision":"2015","gfcode":"JUNCP","description":null}},{"type":"Feature","id":1416,"geometry":{"type":"Point","coordinates":[80.100275346000046,6.189167818000044]},"properties":{"objectid":1416,"railway_infrastructure_type":"JUNCP","name":"Thanayam Handiya","creation_method":"8","year_of_creation":"2008","revision_method":"3","year_of_revision":"2015","gfcode":"JUNCP","description":null}},{"type":"Feature","id":1417,"geometry":{"type":"Point","coordinates":[80.096641233000071,6.1901365820000365]},"properties":{"objectid":1417,"railway_infrastructure_type":"JUNCP","name":"Meetiyagoda Junction","creation_method":"1","year_of_creation":"1999","revision_method":"2","year_of_revision":"2015","gfcode":"JUNCP","description":null}},{"type":"Feature","id":1418,"geometry":{"type":"Point","coordinates":[80.185493952000058,6.1956755260000591]},"properties":{"objectid":1418,"railway_infrastructure_type":"JUNCP","name":"Akuretikanda Junction","creation_method":"8","year_of_creation":"2008","revision_method":"3","year_of_revision":"2015","gfcode":"JUNCP","description":null}},{"type":"Feature","id":1419,"geometry":{"type":"Point","coordinates":[80.468813838000074,6.1963006420000397]},"properties":{"objectid":1419,"railway_infrastructure_type":"JUNCP","name":"Pitabeddara Junction","creation_method":"8","year_of_creation":"2008","revision_method":"3","year_of_revision":"2016","gfcode":"JUNCP","description":null}},{"type":"Feature","id":1420,"geometry":{"type":"Point","coordinates":[80.14386859800004,6.1978242480000745]},"properties":{"objectid":1420,"railway_infrastructure_type":"JUNCP","name":"Delgaha Junction","creation_method":"8","year_of_creation":"2008","revision_method":"3","year_of_revision":"2015","gfcode":"JUNCP","description":null}},{"type":"Feature","id":1421,"geometry":{"type":"Point","coordinates":[80.099090688000047,6.1986558800000466]},"properties":{"objectid":1421,"railway_infrastructure_type":"JUNCP","name":"Domanwila Handiya","creation_method":"8","year_of_creation":"2008","revision_method":"3","year_of_revision":"2015","gfcode":"JUNCP","description":null}},{"type":"Feature","id":1422,"geometry":{"type":"Point","coordinates":[80.94509469500008,6.199148664000063]},"properties":{"objectid":1422,"railway_infrastructure_type":"JUNCP","name":"Gamaralagama Junction","creation_method":"6","year_of_creation":"2017","revision_method":null,"year_of_revision":null,"gfcode":"JUNCP","description":null}},{"type":"Feature","id":1423,"geometry":{"type":"Point","coordinates":[80.592007760000058,6.2009943840000687]},"properties":{"objectid":1423,"railway_infrastructure_type":"JUNCP","name":"Mawarala Junction","creation_method":"8","year_of_creation":"2008","revision_method":"3","year_of_revision":"2016","gfcode":"JUNCP","description":null}},{"type":"Feature","id":1424,"geometry":{"type":"Point","coordinates":[80.253571681000039,6.2012951230000226]},"properties":{"objectid":1424,"railway_infrastructure_type":"JUNCP","name":"Koratukade Junction","creation_method":"8","year_of_creation":"2009","revision_method":"3","year_of_revision":"2015","gfcode":"JUNCP","description":null}},{"type":"Feature","id":1425,"geometry":{"type":"Point","coordinates":[80.064403540000058,6.2011364180000328]},"properties":{"objectid":1425,"railway_infrastructure_type":"RLCPP","name":null,"creation_method":"8","year_of_creation":"2008","revision_method":"3","year_of_revision":"2015","gfcode":"RLCPP","description":null}},{"type":"Feature","id":1426,"geometry":{"type":"Point","coordinates":[81.284058114000061,6.2014954520000742]},"properties":{"objectid":1426,"railway_infrastructure_type":"JUNCP","name":"Bundala","creation_method":"1","year_of_creation":"1999","revision_method":"2","year_of_revision":"2008","gfcode":"JUNCP","description":null}},{"type":"Feature","id":1427,"geometry":{"type":"Point","coordinates":[80.303322713000057,6.2015850630000386]},"properties":{"objectid":1427,"railway_infrastructure_type":"JUNCP","name":"Gonadeniya Janction","creation_method":"9","year_of_creation":"2015","revision_method":null,"year_of_revision":null,"gfcode":"JUNCP","description":null}},{"type":"Feature","id":1428,"geometry":{"type":"Point","coordinates":[80.276736760000063,6.2015920660000461]},"properties":{"objectid":1428,"railway_infrastructure_type":"JUNCP","name":"Nagoda Junction","creation_method":"8","year_of_creation":"2003","revision_method":"3","year_of_revision":"2014","gfcode":"JUNCP","description":null}},{"type":"Feature","id":1429,"geometry":{"type":"Point","coordinates":[81.195671039000047,6.2016767080000363]},"properties":{"objectid":1429,"railway_infrastructure_type":"JUNCP","name":"Weligatta","creation_method":"1","year_of_creation":"1999","revision_method":"2","year_of_revision":"2008","gfcode":"JUNCP","description":null}},{"type":"Feature","id":1430,"geometry":{"type":"Point","coordinates":[80.137889873000063,6.2023892090000459]},"properties":{"objectid":1430,"railway_infrastructure_type":"JUNCP","name":"Manampita Junction","creation_method":"8","year_of_creation":"2008","revision_method":"3","year_of_revision":"2015","gfcode":"JUNCP","description":null}},{"type":"Feature","id":1431,"geometry":{"type":"Point","coordinates":[80.65480952300004,6.2032835910000585]},"properties":{"objectid":1431,"railway_infrastructure_type":"JUNCP","name":"Waldehigaha Junction","creation_method":"8","year_of_creation":"2005","revision_method":"3","year_of_revision":"2016","gfcode":"JUNCP","description":null}},{"type":"Feature","id":1432,"geometry":{"type":"Point","coordinates":[80.244434192000085,6.203458620000049]},"properties":{"objectid":1432,"railway_infrastructure_type":"JUNCP","name":"Karatukade Junction","creation_method":"8","year_of_creation":"2009","revision_method":"3","year_of_revision":"2015","gfcode":"JUNCP","description":null}},{"type":"Feature","id":1433,"geometry":{"type":"Point","coordinates":[80.081001809000043,6.2049606930000323]},"properties":{"objectid":1433,"railway_infrastructure_type":"JUNCP","name":"Galagoda Junction","creation_method":"8","year_of_creation":"2008","revision_method":"3","year_of_revision":"2015","gfcode":"JUNCP","description":null}},{"type":"Feature","id":1434,"geometry":{"type":"Point","coordinates":[80.667053571000054,6.2074224060000347]},"properties":{"objectid":1434,"railway_infrastructure_type":"JUNCP","name":"Kirama Junction","creation_method":"8","year_of_creation":"2008","revision_method":"3","year_of_revision":"2016","gfcode":"JUNCP","description":null}},{"type":"Feature","id":1435,"geometry":{"type":"Point","coordinates":[80.062568148000082,6.2090057640000396]},"properties":{"objectid":1435,"railway_infrastructure_type":"RLCPP","name":null,"creation_method":"8","year_of_creation":"2008","revision_method":"3","year_of_revision":"2015","gfcode":"RLCPP","description":null}},{"type":"Feature","id":1436,"geometry":{"type":"Point","coordinates":[80.184190690000037,6.2110738250000281]},"properties":{"objectid":1436,"railway_infrastructure_type":"JUNCP","name":"Batakola Kade Junction","creation_method":"8","year_of_creation":"2008","revision_method":"3","year_of_revision":"2015","gfcode":"JUNCP","description":null}},{"type":"Feature","id":1437,"geometry":{"type":"Point","coordinates":[80.059807836000061,6.2127153800000201]},"properties":{"objectid":1437,"railway_infrastructure_type":"JUNCP","name":"Usmudulawa Junction","creation_method":"8","year_of_creation":"2008","revision_method":"3","year_of_revision":"2015","gfcode":"JUNCP","description":null}},{"type":"Feature","id":1438,"geometry":{"type":"Point","coordinates":[80.061041315000068,6.2128696800000398]},"properties":{"objectid":1438,"railway_infrastructure_type":"RLCPP","name":null,"creation_method":"8","year_of_creation":"2008","revision_method":"3","year_of_revision":"2015","gfcode":"RLCPP","description":null}},{"type":"Feature","id":1439,"geometry":{"type":"Point","coordinates":[80.944187084000077,6.2138504440000588]},"properties":{"objectid":1439,"railway_infrastructure_type":"JUNCP","name":"Wetiya Junction","creation_method":"6","year_of_creation":"2017","revision_method":null,"year_of_revision":null,"gfcode":"JUNCP","description":null}},{"type":"Feature","id":1440,"geometry":{"type":"Point","coordinates":[81.284107278000079,6.2141272560000402]},"properties":{"objectid":1440,"railway_infrastructure_type":"JUNCP","name":"Elakara Junction","creation_method":"8","year_of_creation":"2008","revision_method":"3","year_of_revision":"2014","gfcode":"JUNCP","description":null}},{"type":"Feature","id":1441,"geometry":{"type":"Point","coordinates":[80.149258598000074,6.2158407470000725]},"properties":{"objectid":1441,"railway_infrastructure_type":"JUNCP","name":"Dombagaha Junction","creation_method":"8","year_of_creation":"2008","revision_method":"3","year_of_revision":"2015","gfcode":"JUNCP","description":null}},{"type":"Feature","id":1442,"geometry":{"type":"Point","coordinates":[80.129502802000047,6.2160251090000429]},"properties":{"objectid":1442,"railway_infrastructure_type":"JUNCP","name":"Kahatapitiya Handiya","creation_method":"8","year_of_creation":"2008","revision_method":"3","year_of_revision":"2015","gfcode":"JUNCP","description":null}},{"type":"Feature","id":1443,"geometry":{"type":"Point","coordinates":[81.335370733000047,6.2187605710000753]},"properties":{"objectid":1443,"railway_infrastructure_type":"JUNCP","name":"Kirinda","creation_method":"8","year_of_creation":"2008","revision_method":"3","year_of_revision":"2014","gfcode":"JUNCP","description":null}},{"type":"Feature","id":1444,"geometry":{"type":"Point","coordinates":[80.058033972000032,6.2194250700000566]},"properties":{"objectid":1444,"railway_infrastructure_type":"RLCPP","name":null,"creation_method":"8","year_of_creation":"2008","revision_method":"3","year_of_revision":"2015","gfcode":"RLCPP","description":null}},{"type":"Feature","id":1445,"geometry":{"type":"Point","coordinates":[80.057619372000033,6.2194430480000733]},"properties":{"objectid":1445,"railway_infrastructure_type":"JUNCP","name":"Parat Junction","creation_method":"8","year_of_creation":"2008","revision_method":"3","year_of_revision":"2015","gfcode":"JUNCP","description":null}},{"type":"Feature","id":1446,"geometry":{"type":"Point","coordinates":[80.769449458000054,6.2213605060000532]},"properties":{"objectid":1446,"railway_infrastructure_type":"JUNCP","name":"Galpottayaya Junction","creation_method":"8","year_of_creation":"2008","revision_method":"3","year_of_revision":"2016","gfcode":"JUNCP","description":null}},{"type":"Feature","id":1447,"geometry":{"type":"Point","coordinates":[80.739306337000073,6.2219395640000243]},"properties":{"objectid":1447,"railway_infrastructure_type":"JUNCP","name":"Julampitiya Junction","creation_method":"8","year_of_creation":"2008","revision_method":"3","year_of_revision":"2016","gfcode":"JUNCP","description":null}},{"type":"Feature","id":1448,"geometry":{"type":"Point","coordinates":[80.256419611000069,6.2218052720000401]},"properties":{"objectid":1448,"railway_infrastructure_type":"JUNCP","name":"Thalawa Juction","creation_method":"8","year_of_creation":"2009","revision_method":"3","year_of_revision":"2015","gfcode":"JUNCP","description":null}},{"type":"Feature","id":1449,"geometry":{"type":"Point","coordinates":[80.121859864000044,6.2218785410000237]},"properties":{"objectid":1449,"railway_infrastructure_type":"JUNCP","name":"Uduwila Handiya","creation_method":"8","year_of_creation":"2008","revision_method":"3","year_of_revision":"2015","gfcode":"JUNCP","description":null}},{"type":"Feature","id":1450,"geometry":{"type":"Point","coordinates":[80.333263572000078,6.2226271850000217]},"properties":{"objectid":1450,"railway_infrastructure_type":"JUNCP","name":"Udugama  Junction","creation_method":"8","year_of_creation":"2007","revision_method":"3","year_of_revision":"2015","gfcode":"JUNCP","description":null}},{"type":"Feature","id":1451,"geometry":{"type":"Point","coordinates":[80.113783407000085,6.2241489730000694]},"properties":{"objectid":1451,"railway_infrastructure_type":"JUNCP","name":"Delta Kade Handiya","creation_method":"8","year_of_creation":"2008","revision_method":"3","year_of_revision":"2015","gfcode":"JUNCP","description":null}},{"type":"Feature","id":1452,"geometry":{"type":"Point","coordinates":[80.235052297000038,6.2246227150000664]},"properties":{"objectid":1452,"railway_infrastructure_type":"JUNCP","name":"Indigahawila Junction","creation_method":"8","year_of_creation":"2009","revision_method":"3","year_of_revision":"2015","gfcode":"JUNCP","description":null}},{"type":"Feature","id":1453,"geometry":{"type":"Point","coordinates":[80.117293563000032,6.2248026120000759]},"properties":{"objectid":1453,"railway_infrastructure_type":"JUNCP","name":"Batapola Junction","creation_method":"1","year_of_creation":"1999","revision_method":"2","year_of_revision":"2015","gfcode":"JUNCP","description":null}},{"type":"Feature","id":1454,"geometry":{"type":"Point","coordinates":[80.228855864000082,6.2270151410000381]},"properties":{"objectid":1454,"railway_infrastructure_type":"JUNCP","name":"Waturuwila Junction","creation_method":"8","year_of_creation":"2009","revision_method":"3","year_of_revision":"2015","gfcode":"JUNCP","description":null}},{"type":"Feature","id":1455,"geometry":{"type":"Point","coordinates":[80.82519355200003,6.2278348090000577]},"properties":{"objectid":1455,"railway_infrastructure_type":"JUNCP","name":"Debkkawa Junction","creation_method":"6","year_of_creation":"2017","revision_method":null,"year_of_revision":null,"gfcode":"JUNCP","description":null}},{"type":"Feature","id":1456,"geometry":{"type":"Point","coordinates":[80.257314964000045,6.2294334130000379]},"properties":{"objectid":1456,"railway_infrastructure_type":"JUNCP","name":"Ambagahawila Junction","creation_method":"8","year_of_creation":"2009","revision_method":"3","year_of_revision":"2015","gfcode":"JUNCP","description":null}},{"type":"Feature","id":1457,"geometry":{"type":"Point","coordinates":[80.054661385000031,6.2321914380000294]},"properties":{"objectid":1457,"railway_infrastructure_type":"RLCPP","name":null,"creation_method":"8","year_of_creation":"2008","revision_method":"3","year_of_revision":"2015","gfcode":"RLCPP","description":null}},{"type":"Feature","id":1458,"geometry":{"type":"Point","coordinates":[80.055041531000029,6.233921434000024]},"properties":{"objectid":1458,"railway_infrastructure_type":"RLCPP","name":null,"creation_method":"8","year_of_creation":"2008","revision_method":"3","year_of_revision":"2015","gfcode":"RLCPP","description":null}},{"type":"Feature","id":1459,"geometry":{"type":"Point","coordinates":[81.165543554000067,6.2348273280000512]},"properties":{"objectid":1459,"railway_infrastructure_type":"JUNCP","name":"Co-operative Junction","creation_method":"8","year_of_creation":"2008","revision_method":"3","year_of_revision":"2014","gfcode":"JUNCP","description":null}},{"type":"Feature","id":1460,"geometry":{"type":"Point","coordinates":[81.287989891000052,6.2348232860000508]},"properties":{"objectid":1460,"railway_infrastructure_type":"JUNCP","name":"Attikkawa Junction","creation_method":"8","year_of_creation":"2008","revision_method":"3","year_of_revision":"2014","gfcode":"JUNCP","description":null}},{"type":"Feature","id":1461,"geometry":{"type":"Point","coordinates":[80.155507433000082,6.2360632710000345]},"properties":{"objectid":1461,"railway_infrastructure_type":"JUNCP","name":"Ethkanra Junction","creation_method":"8","year_of_creation":"2008","revision_method":"3","year_of_revision":"2015","gfcode":"JUNCP","description":null}},{"type":"Feature","id":1462,"geometry":{"type":"Point","coordinates":[80.816554215000053,6.2387236250000342]},"properties":{"objectid":1462,"railway_infrastructure_type":"JUNCP","name":"Thalawa-dabarella Junction","creation_method":"8","year_of_creation":"2008","revision_method":null,"year_of_revision":null,"gfcode":"JUNCP","description":null}},{"type":"Feature","id":1463,"geometry":{"type":"Point","coordinates":[80.166955207000058,6.2390156690000254]},"properties":{"objectid":1463,"railway_infrastructure_type":"JUNCP","name":"Thanabaddegama Junction","creation_method":"8","year_of_creation":"2008","revision_method":"3","year_of_revision":"2015","gfcode":"JUNCP","description":null}},{"type":"Feature","id":1464,"geometry":{"type":"Point","coordinates":[80.055079963000082,6.2389594730000226]},"properties":{"objectid":1464,"railway_infrastructure_type":"RLCPP","name":null,"creation_method":"8","year_of_creation":"2008","revision_method":"3","year_of_revision":"2015","gfcode":"RLCPP","description":null}},{"type":"Feature","id":1465,"geometry":{"type":"Point","coordinates":[80.055508626000062,6.2399098160000221]},"properties":{"objectid":1465,"railway_infrastructure_type":"RLCPP","name":null,"creation_method":"8","year_of_creation":"2008","revision_method":"3","year_of_revision":"2015","gfcode":"RLCPP","description":null}},{"type":"Feature","id":1466,"geometry":{"type":"Point","coordinates":[80.810672612000076,6.2448184240000728]},"properties":{"objectid":1466,"railway_infrastructure_type":"JUNCP","name":"Thalawa Junction","creation_method":"8","year_of_creation":"2008","revision_method":null,"year_of_revision":null,"gfcode":"JUNCP","description":null}},{"type":"Feature","id":1467,"geometry":{"type":"Point","coordinates":[81.154942650000066,6.2448567730000377]},"properties":{"objectid":1467,"railway_infrastructure_type":"JUNCP","name":"Badagiriya Junction","creation_method":"8","year_of_creation":"2008","revision_method":"3","year_of_revision":"2014","gfcode":"JUNCP","description":null}},{"type":"Feature","id":1468,"geometry":{"type":"Point","coordinates":[80.608535600000039,6.2456354830000578]},"properties":{"objectid":1468,"railway_infrastructure_type":"JUNCP","name":"Pasgoda Junction","creation_method":"8","year_of_creation":"2008","revision_method":"3","year_of_revision":"2016","gfcode":"JUNCP","description":null}},{"type":"Feature","id":1469,"geometry":{"type":"Point","coordinates":[80.053031674000067,6.2498284090000311]},"properties":{"objectid":1469,"railway_infrastructure_type":"RLCPP","name":null,"creation_method":"8","year_of_creation":"2008","revision_method":"3","year_of_revision":"2015","gfcode":"RLCPP","description":null}},{"type":"Feature","id":1470,"geometry":{"type":"Point","coordinates":[80.764314039000055,6.2515401310000698]},"properties":{"objectid":1470,"railway_infrastructure_type":"JUNCP","name":"Middeniya Junction","creation_method":"8","year_of_creation":"2008","revision_method":"3","year_of_revision":"2016","gfcode":"JUNCP","description":null}},{"type":"Feature","id":1471,"geometry":{"type":"Point","coordinates":[80.783681175000083,6.2517275780000432]},