{"type":"FeatureCollection","features":[{"type":"Feature","id":1,"geometry":{"type":"Point","coordinates":[80.06666666700005,9.8000000000000682]},"properties":{"objectid":1,"serial_number":"43400","station_name":"KANKASANTURAI","district":"JAFFNA","latitude":9.8000000000000007,"longitude":80.066666669999989,"begin_date":1401494400000,"end_date":1401494400000,"description":null,"qualifier":"Rainfall","elevation":16}},{"type":"Feature","id":2,"geometry":{"type":"Point","coordinates":[81.666666667000072,7.2833333330000301]},"properties":{"objectid":2,"serial_number":"01AM0012","station_name":"AMPARAI TANK","district":"AMPARAI","latitude":7.2833333299999996,"longitude":81.666666669999998,"begin_date":-2871676800000,"end_date":253402214400000,"description":null,"qualifier":"Rainfall","elevation":27.399999999999999}},{"type":"Feature","id":3,"geometry":{"type":"Point","coordinates":[81.85000000000008,7.2166666670000268]},"properties":{"objectid":3,"serial_number":"01AM001C","station_name":"AKKARAIPATTU","district":"AMPARAI","latitude":7.2166666699999995,"longitude":81.849999999999994,"begin_date":733622400000,"end_date":253402214400000,"description":null,"qualifier":"Rainfall","elevation":16}},{"type":"Feature","id":4,"geometry":{"type":"Point","coordinates":[81.733333333000076,7.3833333330000528]},"properties":{"objectid":4,"serial_number":"01AM0060","station_name":"CHADIYANTALAWA","district":"AMPARAI","latitude":7.3833333300000001,"longitude":81.733333329999994,"begin_date":-2871676800000,"end_date":-31622400000,"description":null,"qualifier":"Rainfall","elevation":16}},{"type":"Feature","id":5,"geometry":{"type":"Point","coordinates":[81.650000000000034,7.2833333330000301]},"properties":{"objectid":5,"serial_number":"01AM012A","station_name":"AMPARA,HARDY TECHNICAL","district":"AMPARAI","latitude":7.2833333299999996,"longitude":81.650000000000006,"begin_date":738892800000,"end_date":253402214400000,"description":null,"qualifier":"Rainfall","elevation":0}},{"type":"Feature","id":6,"geometry":{"type":"Point","coordinates":[81.733333333000076,7.2500000000000568]},"properties":{"objectid":6,"serial_number":"01AM0182","station_name":"IRAKKAMAN","district":"AMPARAI","latitude":7.25,"longitude":81.733333329999994,"begin_date":-3187209600000,"end_date":253402214400000,"description":null,"qualifier":"Rainfall","elevation":12.199999999999999}},{"type":"Feature","id":7,"geometry":{"type":"Point","coordinates":[81.700000000000045,6.8833333330000528]},"properties":{"objectid":7,"serial_number":"01AM0269","station_name":"LAHUGALA TANK","district":"AMPARAI","latitude":6.8833333300000001,"longitude":81.700000000000003,"begin_date":-1859241600000,"end_date":544147200000,"description":null,"qualifier":"Rainfall","elevation":16}},{"type":"Feature","id":8,"geometry":{"type":"Point","coordinates":[81.366666667000061,7.5333333330000301]},"properties":{"objectid":8,"serial_number":"01AM0293","station_name":"MAHA OYA","district":"AMPARAI","latitude":7.5333333299999996,"longitude":81.366666670000001,"begin_date":-1764547200000,"end_date":253402214400000,"description":null,"qualifier":"Rainfall","elevation":16}},{"type":"Feature","id":9,"geometry":{"type":"Point","coordinates":[81.85000000000008,7.1166666670000609]},"properties":{"objectid":9,"serial_number":"01AM0376","station_name":"TIRUKKOVIL ESTATE","district":"AMPARAI","latitude":7.1166666699999999,"longitude":81.849999999999994,"begin_date":-1767225600000,"end_date":-441936000000,"description":null,"qualifier":"Rainfall","elevation":16}},{"type":"Feature","id":10,"geometry":{"type":"Point","coordinates":[81.766666667000038,6.7500000000000568]},"properties":{"objectid":10,"serial_number":"01AM0404","station_name":"PANAWA TANK","district":"AMPARAI","latitude":6.75,"longitude":81.766666669999992,"begin_date":-1859241600000,"end_date":665280000000,"description":null,"qualifier":"Rainfall","elevation":16}},{"type":"Feature","id":11,"geometry":{"type":"Point","coordinates":[81.800000000000068,6.9166666670000723]},"properties":{"objectid":11,"serial_number":"01AM0455","station_name":"ROTAWEWA TANK","district":"AMPARAI","latitude":6.9166666699999997,"longitude":81.799999999999997,"begin_date":-2619216000000,"end_date":253402214400000,"description":null,"qualifier":"Rainfall","elevation":16}},{"type":"Feature","id":12,"geometry":{"type":"Point","coordinates":[81.78333333300003,7.0833333330000414]},"properties":{"objectid":12,"serial_number":"00143476","station_name":"RUFUSKULAM TANK","district":"AMPARAI","latitude":7.0833333300000003,"longitude":81.783333329999991,"begin_date":-1220400000000,"end_date":641433600000,"description":null,"qualifier":"Rainfall","elevation":16}},{"type":"Feature","id":13,"geometry":{"type":"Point","coordinates":[81.800000000000068,7.1333333330000528]},"properties":{"objectid":13,"serial_number":"01AM0459","station_name":"SAGAMAM TANK","district":"AMPARAI","latitude":7.1333333300000001,"longitude":81.799999999999997,"begin_date":-2871676800000,"end_date":253402214400000,"description":null,"qualifier":"Rainfall","elevation":16}},{"type":"Feature","id":14,"geometry":{"type":"Point","coordinates":[81.78333333300003,7.3000000000000682]},"properties":{"objectid":14,"serial_number":"01AM0463","station_name":"SENGAPODDI","district":"AMPARAI","latitude":7.2999999999999998,"longitude":81.783333329999991,"begin_date":-1007164800000,"end_date":253402214400000,"description":null,"qualifier":"Rainfall","elevation":16}},{"type":"Feature","id":15,"geometry":{"type":"Point","coordinates":[81.866666667000061,7.0166666670000382]},"properties":{"objectid":15,"serial_number":"01AM0497","station_name":"TIMITAR ESTATE","district":"AMPARAI","latitude":7.0166666700000002,"longitude":81.866666670000001,"begin_date":-1414972800000,"end_date":-197424000000,"description":null,"qualifier":"Rainfall","elevation":16}},{"type":"Feature","id":16,"geometry":{"type":"Point","coordinates":[81.133333333000053,7.6833333330000642]},"properties":{"objectid":16,"serial_number":"01AM257A","station_name":"KUDASIGIRIYA","district":"AMPARAI","latitude":7.68333333,"longitude":81.133333329999999,"begin_date":725846400000,"end_date":253402214400000,"description":null,"qualifier":"Rainfall","elevation":0}},{"type":"Feature","id":17,"geometry":{"type":"Point","coordinates":[81.133333333000053,7.6333333330000528]},"properties":{"objectid":17,"serial_number":"01AM361A","station_name":"NAMAL OYA","district":"AMPARAI","latitude":7.6333333300000001,"longitude":81.133333329999999,"begin_date":852595200000,"end_date":253402214400000,"description":null,"qualifier":"Rainfall","elevation":0}},{"type":"Feature","id":18,"geometry":{"type":"Point","coordinates":[81.716666667000084,7.4666666670000268]},"properties":{"objectid":18,"serial_number":"01AM368B","station_name":"NAVATKIRI ARU TANK","district":"AMPARAI","latitude":7.4666666699999995,"longitude":81.716666669999995,"begin_date":-915148800000,"end_date":253402214400000,"description":null,"qualifier":"Rainfall","elevation":16}},{"type":"Feature","id":19,"geometry":{"type":"Point","coordinates":[81.683333333000064,7.3666666670000609]},"properties":{"objectid":19,"serial_number":"01AM459A","station_name":"SAMANTHURAI","district":"AMPARAI","latitude":7.3666666699999999,"longitude":81.683333329999996,"begin_date":1033430400000,"end_date":253402214400000,"description":null,"qualifier":"Rainfall","elevation":0}},{"type":"Feature","id":20,"geometry":{"type":"Point","coordinates":[81.616666667000061,7.3666666670000609]},"properties":{"objectid":20,"serial_number":"01AM509B","station_name":"UHANA COCONUT","district":"AMPARAI","latitude":7.3666666699999999,"longitude":81.616666670000001,"begin_date":691545600000,"end_date":253402214400000,"description":null,"qualifier":"Rainfall","elevation":16}},{"type":"Feature","id":21,"geometry":{"type":"Point","coordinates":[80.416666667000072,8.3666666670000609]},"properties":{"objectid":21,"serial_number":"01AN0019","station_name":"ANURADHAPURA EXPL STN","district":"ANURADHAPURA","latitude":8.3666666700000007,"longitude":80.416666669999998,"begin_date":-1577923200000,"end_date":253402214400000,"description":null,"qualifier":"Rainfall","elevation":91.5}},{"type":"Feature","id":22,"geometry":{"type":"Point","coordinates":[80.766666667000038,8.0500000000000682]},"properties":{"objectid":22,"serial_number":"01AN0141","station_name":"HABARANA","district":"ANURADHAPURA","latitude":8.0500000000000007,"longitude":80.766666669999992,"begin_date":-189388800000,"end_date":675648000000,"description":null,"qualifier":"Rainfall","elevation":16}},{"type":"Feature","id":23,"geometry":{"type":"Point","coordinates":[80.833333333000041,8.5500000000000682]},"properties":{"objectid":23,"serial_number":"01AN0172","station_name":"HOROWUPATHANA,PERIPHERAL","district":"ANURADHAPURA","latitude":8.5500000000000007,"longitude":80.833333329999988,"begin_date":-2535062400000,"end_date":-189475200000,"description":null,"qualifier":"Rainfall","elevation":60}},{"type":"Feature","id":24,"geometry":{"type":"Point","coordinates":[80.35000000000008,8.1500000000000341]},"properties":{"objectid":24,"serial_number":"01AN0176","station_name":"IHALA HALMILLEWA","district":"ANURADHAPURA","latitude":8.1500000000000004,"longitude":80.349999999999994,"begin_date":-1046649600000,"end_date":123465600000,"description":null,"qualifier":"Rainfall","elevation":16}},{"type":"Feature","id":25,"geometry":{"type":"Point","coordinates":[80.683333333000064,8.4333333330000642]},"properties":{"objectid":25,"serial_number":"01AN0193","station_name":"KAHATAGASDIGILIYA","district":"ANURADHAPURA","latitude":8.43333333,"longitude":80.683333329999996,"begin_date":-915148800000,"end_date":120873600000,"description":null,"qualifier":"Rainfall","elevation":16}},{"type":"Feature","id":26,"geometry":{"type":"Point","coordinates":[80.53333333300003,8.0000000000000568]},"properties":{"objectid":26,"serial_number":"01AN0197","station_name":"KALAWEWA TANK","district":"ANURADHAPURA","latitude":8,"longitude":80.533333329999991,"begin_date":-2558736000000,"end_date":253402214400000,"description":null,"qualifier":"Rainfall","elevation":122}},{"type":"Feature","id":27,"geometry":{"type":"Point","coordinates":[80.383333333000053,8.3500000000000227]},"properties":{"objectid":27,"serial_number":"01AN019B","station_name":"ANURADHAPURA-MET 19B","district":"ANURADHAPURA","latitude":8.3499999999999996,"longitude":80.383333329999999,"begin_date":-2871676800000,"end_date":253402214400000,"description":null,"qualifier":"Rainfall","elevation":102}},{"type":"Feature","id":28,"geometry":{"type":"Point","coordinates":[80.666666667000072,8.6333333330000528]},"properties":{"objectid":28,"serial_number":"01AN0227","station_name":"KEBETHIGOLLEWA","district":"ANURADHAPURA","latitude":8.633333330000001,"longitude":80.666666669999998,"begin_date":-1570060800000,"end_date":504835200000,"description":null,"qualifier":"Rainfall","elevation":100.59999999999999}},{"type":"Feature","id":29,"geometry":{"type":"Point","coordinates":[80.60000000000008,8.0333333330000301]},"properties":{"objectid":29,"serial_number":"01AN0233","station_name":"KEKIRAWA","district":"ANURADHAPURA","latitude":8.0333333300000014,"longitude":80.599999999999994,"begin_date":-1002067200000,"end_date":-915235200000,"description":null,"qualifier":"Rainfall","elevation":16}},{"type":"Feature","id":30,"geometry":{"type":"Point","coordinates":[80.383333333000053,8.2000000000000455]},"properties":{"objectid":30,"serial_number":"01AN0243","station_name":"KIRALOGAMA","district":"ANURADHAPURA","latitude":8.1999999999999993,"longitude":80.383333329999999,"begin_date":-894153600000,"end_date":-218332800000,"description":null,"qualifier":"Rainfall","elevation":16}},{"type":"Feature","id":31,"geometry":{"type":"Point","coordinates":[80.400000000000034,8.4000000000000341]},"properties":{"objectid":31,"serial_number":"01AN0252","station_name":"KOPAKULAMA","district":"ANURADHAPURA","latitude":8.4000000000000004,"longitude":80.400000000000006,"begin_date":-599616000000,"end_date":-63244800000,"description":null,"qualifier":"Rainfall","elevation":16}},{"type":"Feature","id":32,"geometry":{"type":"Point","coordinates":[80.466666667000084,8.3500000000000227]},"properties":{"objectid":32,"serial_number":"01AN0263","station_name":"KURUNDANKULAMA","district":"ANURADHAPURA","latitude":8.3499999999999996,"longitude":80.466666669999995,"begin_date":-923097600000,"end_date":-189475200000,"description":null,"qualifier":"Rainfall","elevation":16}},{"type":"Feature","id":33,"geometry":{"type":"Point","coordinates":[80.633333333000053,7.9500000000000455]},"properties":{"objectid":33,"serial_number":"01AN0282","station_name":"MADUTUGAMA","district":"ANURADHAPURA","latitude":7.9500000000000002,"longitude":80.633333329999999,"begin_date":-589248000000,"end_date":-252547200000,"description":null,"qualifier":"Rainfall","elevation":16}},{"type":"Feature","id":34,"geometry":{"type":"Point","coordinates":[80.500000000000057,8.5333333330000301]},"properties":{"objectid":34,"serial_number":"01AN0283","station_name":"MEDAWACHCHIYA-HOSPITAL","district":"ANURADHAPURA","latitude":8.5333333300000014,"longitude":80.5,"begin_date":-2508883200000,"end_date":596851200000,"description":null,"qualifier":"Rainfall","elevation":16}},{"type":"Feature","id":35,"geometry":{"type":"Point","coordinates":[80.483333333000076,8.5500000000000682]},"properties":{"objectid":35,"serial_number":"01AN0284","station_name":"MEDAWACHCHIYA-E.P.","district":"ANURADHAPURA","latitude":8.5500000000000007,"longitude":80.483333329999994,"begin_date":-599616000000,"end_date":253402214400000,"description":null,"qualifier":"Rainfall","elevation":16}},{"type":"Feature","id":36,"geometry":{"type":"Point","coordinates":[80.183333333000064,8.4833333330000755]},"properties":{"objectid":36,"serial_number":"01AN0298","station_name":"MAHAWILACHCHI","district":"ANURADHAPURA","latitude":8.4833333300000007,"longitude":80.183333329999996,"begin_date":-536457600000,"end_date":441676800000,"description":null,"qualifier":"Rainfall","elevation":16}},{"type":"Feature","id":37,"geometry":{"type":"Point","coordinates":[80.56666666700005,8.1333333330000528]},"properties":{"objectid":37,"serial_number":"01AN0312","station_name":"MARADANKADAWELA","district":"ANURADHAPURA","latitude":8.133333330000001,"longitude":80.566666669999989,"begin_date":-2558736000000,"end_date":253402214400000,"description":null,"qualifier":"Rainfall","elevation":16}},{"type":"Feature","id":38,"geometry":{"type":"Point","coordinates":[80.516666667000038,8.3500000000000227]},"properties":{"objectid":38,"serial_number":"01AN0333","station_name":"MIHINTALE","district":"ANURADHAPURA","latitude":8.3499999999999996,"longitude":80.516666669999992,"begin_date":-2840140800000,"end_date":253402214400000,"description":null,"qualifier":"Rainfall","elevation":16}},{"type":"Feature","id":39,"geometry":{"type":"Point","coordinates":[80.466666667000084,8.2500000000000568]},"properties":{"objectid":39,"serial_number":"01AN0358","station_name":"NACHCHADUWA","district":"ANURADHAPURA","latitude":8.25,"longitude":80.466666669999995,"begin_date":-2030227200000,"end_date":253402214400000,"description":null,"qualifier":"Rainfall","elevation":16}},{"type":"Feature","id":40,"geometry":{"type":"Point","coordinates":[80.200000000000045,8.2666666670000382]},"properties":{"objectid":40,"serial_number":"01AN0380","station_name":"NOCHCHIYAGAMA","district":"ANURADHAPURA","latitude":8.2666666700000011,"longitude":80.200000000000003,"begin_date":-694310400000,"end_date":253402214400000,"description":null,"qualifier":"Rainfall","elevation":16}},{"type":"Feature","id":41,"geometry":{"type":"Point","coordinates":[80.766666667000038,8.8333333330000414]},"properties":{"objectid":41,"serial_number":"01AN0393","station_name":"PADAWIYA","district":"ANURADHAPURA","latitude":8.8333333300000003,"longitude":80.766666669999992,"begin_date":-189388800000,"end_date":253402214400000,"description":null,"qualifier":"Rainfall","elevation":16}},{"type":"Feature","id":42,"geometry":{"type":"Point","coordinates":[80.433333333000064,8.4500000000000455]},"properties":{"objectid":42,"serial_number":"01AN0410","station_name":"PARASANGAHAWEWA","district":"ANURADHAPURA","latitude":8.4499999999999993,"longitude":80.433333329999996,"begin_date":-589248000000,"end_date":-163123200000,"description":null,"qualifier":"Rainfall","elevation":16}},{"type":"Feature","id":43,"geometry":{"type":"Point","coordinates":[80.233333333000076,8.3666666670000609]},"properties":{"objectid":43,"serial_number":"01AN0447","station_name":"RANORUWEWA","district":"ANURADHAPURA","latitude":8.3666666700000007,"longitude":80.233333329999994,"begin_date":-696988800000,"end_date":444355200000,"description":null,"qualifier":"Rainfall","elevation":16}},{"type":"Feature","id":44,"geometry":{"type":"Point","coordinates":[80.53333333300003,8.5166666670000382]},"properties":{"objectid":44,"serial_number":"01AN0461","station_name":"SANGILIKANDARAWA","district":"ANURADHAPURA","latitude":8.5166666700000011,"longitude":80.533333329999991,"begin_date":-1822521600000,"end_date":-71193600000,"description":null,"qualifier":"Rainfall","elevation":16}},{"type":"Feature","id":45,"geometry":{"type":"Point","coordinates":[80.35000000000008,8.2333333330000755]},"properties":{"objectid":45,"serial_number":"01AN0485","station_name":"TALAWA","district":"ANURADHAPURA","latitude":8.2333333300000007,"longitude":80.349999999999994,"begin_date":-568080000000,"end_date":-368409600000,"description":null,"qualifier":"Rainfall","elevation":16}},{"type":"Feature","id":46,"geometry":{"type":"Point","coordinates":[80.300000000000068,8.1500000000000341]},"properties":{"objectid":46,"serial_number":"01AN0487","station_name":"TAMBUTTEGAMA","district":"ANURADHAPURA","latitude":8.1500000000000004,"longitude":80.299999999999997,"begin_date":-596937600000,"end_date":253402214400000,"description":null,"qualifier":"Rainfall","elevation":16}},{"type":"Feature","id":47,"geometry":{"type":"Point","coordinates":[81.250000000000057,7.9500000000000455]},"properties":{"objectid":47,"serial_number":"01AN0538","station_name":"WELIKANDA","district":"POLONNARUWA","latitude":7.9500000000000002,"longitude":81.25,"begin_date":-883612800000,"end_date":110246400000,"description":null,"qualifier":"Rainfall","elevation":16}},{"type":"Feature","id":48,"geometry":{"type":"Point","coordinates":[80.833333333000041,8.9666666670000268]},"properties":{"objectid":48,"serial_number":"01AN104A","station_name":"EHETUGASWEWA","district":"ANURADHAPURA","latitude":8.9666666700000004,"longitude":80.833333329999988,"begin_date":636249600000,"end_date":253402214400000,"description":null,"qualifier":"Rainfall","elevation":1111}},{"type":"Feature","id":49,"geometry":{"type":"Point","coordinates":[80.31666666700005,8.4000000000000341]},"properties":{"objectid":49,"serial_number":"01AN105B","station_name":"ELAYAPATHTHUWA","district":"ANURADHAPURA","latitude":8.4000000000000004,"longitude":80.316666669999989,"begin_date":281318400000,"end_date":253402214400000,"description":null,"qualifier":"Rainfall","elevation":16}},{"type":"Feature","id":50,"geometry":{"type":"Point","coordinates":[80.258333333000053,8.4250000000000682]},"properties":{"objectid":50,"serial_number":"01AN109B","station_name":"ELAYAPATHUWA-NLDB FARM","district":"ANURADHAPURA","latitude":8.4250000000000007,"longitude":80.258333329999999,"begin_date":1072915200000,"end_date":253402214400000,"description":null,"qualifier":"Rainfall","elevation":0}},{"type":"Feature","id":51,"geometry":{"type":"Point","coordinates":[80.413888889000077,8.1486111110000365]},"properties":{"objectid":51,"serial_number":"01AN112A","station_name":"EPPAWALA WATER SUPPLY","district":"ANURADHAPURA","latitude":8.1486111100000009,"longitude":80.413888889999996,"begin_date":757382400000,"end_date":253402214400000,"description":null,"qualifier":"Rainfall","elevation":0}},{"type":"Feature","id":52,"geometry":{"type":"Point","coordinates":[80.568055556000047,7.9416666670000495]},"properties":{"objectid":52,"serial_number":"01AN124A","station_name":"GALKIRIYAGAMA","district":"ANURADHAPURA","latitude":7.94166667,"longitude":80.568055560000005,"begin_date":691545600000,"end_date":253402214400000,"description":null,"qualifier":"Rainfall","elevation":16}},{"type":"Feature","id":53,"geometry":{"type":"Point","coordinates":[80.483333333000076,8.0333333330000301]},"properties":{"objectid":53,"serial_number":"01AN126B","station_name":"GALNAVA","district":"ANURADHAPURA","latitude":8.0333333300000014,"longitude":80.483333329999994,"begin_date":688953600000,"end_date":725760000000,"description":null,"qualifier":"Rainfall","elevation":16}},{"type":"Feature","id":54,"geometry":{"type":"Point","coordinates":[80.150000000000034,8.5500000000000682]},"properties":{"objectid":54,"serial_number":"01AN172C","station_name":"HOROWUPATANA,AGA OFFICE","district":"ANURADHAPURA","latitude":8.5500000000000007,"longitude":80.150000000000006,"begin_date":244512000000,"end_date":253402214400000,"description":null,"qualifier":"Rainfall","elevation":16}},{"type":"Feature","id":55,"geometry":{"type":"Point","coordinates":[80.812500000000057,8.5347222220000276]},"properties":{"objectid":55,"serial_number":"01AN172D","station_name":"HOROWUPATANA,IHALAGAMA","district":"ANURADHAPURA","latitude":8.5347222200000008,"longitude":80.8125,"begin_date":498960000000,"end_date":253402214400000,"description":null,"qualifier":"Rainfall","elevation":0}},{"type":"Feature","id":56,"geometry":{"type":"Point","coordinates":[80.716666667000084,8.2166666670000268]},"properties":{"objectid":56,"serial_number":"01AN174A","station_name":"HURULUWEWA","district":"ANURADHAPURA","latitude":8.2166666700000004,"longitude":80.716666669999995,"begin_date":-694310400000,"end_date":-52790400000,"description":null,"qualifier":"Rainfall","elevation":16}},{"type":"Feature","id":57,"geometry":{"type":"Point","coordinates":[80.687500000000057,8.4236111110000707]},"properties":{"objectid":57,"serial_number":"01AN193A","station_name":"KAHATAGASDIGILIYA  W/S","district":"ANURADHAPURA","latitude":8.4236111100000013,"longitude":80.6875,"begin_date":757382400000,"end_date":253402214400000,"description":null,"qualifier":"Rainfall","elevation":0}},{"type":"Feature","id":58,"geometry":{"type":"Point","coordinates":[80.53333333300003,8.0291666670000268]},"properties":{"objectid":58,"serial_number":"01AN197A","station_name":"KALAWEWA COCONUT","district":"ANURADHAPURA","latitude":8.0291666700000004,"longitude":80.533333329999991,"begin_date":736214400000,"end_date":253402214400000,"description":null,"qualifier":"Rainfall","elevation":16}},{"type":"Feature","id":59,"geometry":{"type":"Point","coordinates":[80.483333333000076,7.9666666670000268]},"properties":{"objectid":59,"serial_number":"01AN210A","station_name":"KANDEGAMA","district":"ANURADHAPURA","latitude":7.9666666699999995,"longitude":80.483333329999994,"begin_date":-405129600000,"end_date":-310608000000,"description":null,"qualifier":"Rainfall","elevation":16}},{"type":"Feature","id":60,"geometry":{"type":"Point","coordinates":[80.666666667000072,8.6416666670000382]},"properties":{"objectid":60,"serial_number":"01AN227A","station_name":"KEBITHIGOLLEWA W/S","district":"ANURADHAPURA","latitude":8.6416666700000011,"longitude":80.666666669999998,"begin_date":791596800000,"end_date":253402214400000,"description":null,"qualifier":"Rainfall","elevation":0}},{"type":"Feature","id":61,"geometry":{"type":"Point","coordinates":[80.591666667000084,8.0416666670000723]},"properties":{"objectid":61,"serial_number":"01AN233A","station_name":"KEKIRAWA WATER SUPPLY","district":"ANURADHAPURA","latitude":8.0416666700000015,"longitude":80.591666669999995,"begin_date":757382400000,"end_date":253402214400000,"description":null,"qualifier":"Rainfall","elevation":0}},{"type":"Feature","id":62,"geometry":{"type":"Point","coordinates":[80.31666666700005,8.2833333330000301]},"properties":{"objectid":62,"serial_number":"01AN289A","station_name":"MAHA BULANKULAMA","district":"ANURADHAPURA","latitude":8.2833333300000014,"longitude":80.316666669999989,"begin_date":-407548800000,"end_date":-189475200000,"description":null,"qualifier":"Rainfall","elevation":16}},{"type":"Feature","id":63,"geometry":{"type":"Point","coordinates":[80.466666667000084,8.1000000000000227]},"properties":{"objectid":63,"serial_number":"01AN291A","station_name":"MAHA ILUPPALLAMA TANK","district":"ANURADHAPURA","latitude":8.0999999999999996,"longitude":80.466666669999995,"begin_date":-2051222400000,"end_date":-368409600000,"description":null,"qualifier":"Rainfall","elevation":16}},{"type":"Feature","id":64,"geometry":{"type":"Point","coordinates":[80.458333333000041,8.1116666670000654]},"properties":{"objectid":64,"serial_number":"01AN291B","station_name":"MAHAILLUPPALLAMA  S/F","district":"ANURADHAPURA","latitude":8.11166667,"longitude":80.458333329999988,"begin_date":757382400000,"end_date":253402214400000,"description":null,"qualifier":"Rainfall","elevation":0}},{"type":"Feature","id":65,"geometry":{"type":"Point","coordinates":[80.490277778000063,8.5416666670000723]},"properties":{"objectid":65,"serial_number":"01AN323A","station_name":"MEDAWACHCHIYA W/S","district":"ANURADHAPURA","latitude":8.5416666700000015,"longitude":80.49027778,"begin_date":757382400000,"end_date":253402214400000,"description":null,"qualifier":"Rainfall","elevation":0}},{"type":"Feature","id":66,"geometry":{"type":"Point","coordinates":[80.513888889000043,8.3666666670000609]},"properties":{"objectid":66,"serial_number":"01AN333B","station_name":"MIHINTALE W/S","district":"ANURADHAPURA","latitude":8.3666666700000007,"longitude":80.513888890000004,"begin_date":801964800000,"end_date":253402214400000,"description":null,"qualifier":"Rainfall","elevation":0}},{"type":"Feature","id":67,"geometry":{"type":"Point","coordinates":[80.583333333000041,8.0666666670000495]},"properties":{"objectid":67,"serial_number":"01AN385C","station_name":"OLUKARANDA","district":"ANURADHAPURA","latitude":8.06666667,"longitude":80.583333329999988,"begin_date":-568080000000,"end_date":-126316800000,"description":null,"qualifier":"Rainfall","elevation":16}},{"type":"Feature","id":68,"geometry":{"type":"Point","coordinates":[80.395833333000041,8.4625000000000341]},"properties":{"objectid":68,"serial_number":"01AN410A","station_name":"Parasangahawewa Farm","district":"ANURADHAPURA","latitude":8.4625000000000004,"longitude":80.395833329999988,"begin_date":1041379200000,"end_date":253402214400000,"description":null,"qualifier":"Rainfall","elevation":110}},{"type":"Feature","id":69,"geometry":{"type":"Point","coordinates":[80.866666667000061,8.9375000000000568]},"properties":{"objectid":69,"serial_number":"01AN466B","station_name":"SINGHAPURA","district":"TRINCOMALEE","latitude":8.9375,"longitude":80.866666670000001,"begin_date":883612800000,"end_date":253402214400000,"description":null,"qualifier":"Rainfall","elevation":0}},{"type":"Feature","id":70,"geometry":{"type":"Point","coordinates":[80.34583333300003,8.2333333330000755]},"properties":{"objectid":70,"serial_number":"01AN485C","station_name":"TALAWA, IRRIGATION","district":"ANURADHAPURA","latitude":8.2333333300000007,"longitude":80.345833329999991,"begin_date":757382400000,"end_date":253402214400000,"description":null,"qualifier":"Rainfall","elevation":0}},{"type":"Feature","id":71,"geometry":{"type":"Point","coordinates":[80.603055556000072,8.3763888890000544]},"properties":{"objectid":71,"serial_number":"01AN487A","station_name":"THAMMENNAWA","district":"ANURADHAPURA","latitude":8.3763888900000012,"longitude":80.603055560000001,"begin_date":725846400000,"end_date":253402214400000,"description":null,"qualifier":"Rainfall","elevation":0}},{"type":"Feature","id":72,"geometry":{"type":"Point","coordinates":[]},"properties":{"objectid":72,"serial_number":"01AN497A","station_name":"TIKKUVIL","district":"ANURADHAPURA","latitude":0,"longitude":0,"begin_date":-405129600000,"end_date":410140800000,"description":null,"qualifier":"Rainfall","elevation":16}},{"type":"Feature","id":73,"geometry":{"type":"Point","coordinates":[80.85000000000008,8.7333333330000755]},"properties":{"objectid":73,"serial_number":"01AN527B","station_name":"WAHALKADA","district":"ANURADHAPURA","latitude":8.7333333300000007,"longitude":80.849999999999994,"begin_date":880934400000,"end_date":253402214400000,"description":null,"qualifier":"Rainfall","elevation":0}},{"type":"Feature","id":74,"geometry":{"type":"Point","coordinates":[81.000000000000057,7.3166666670000495]},"properties":{"objectid":74,"serial_number":"01BD0006","station_name":"ALUTHNUWARA","district":"BADULLA","latitude":7.31666667,"longitude":81,"begin_date":-2216937600000,"end_date":253402214400000,"description":null,"qualifier":"Rainfall","elevation":16}},{"type":"Feature","id":75,"geometry":{"type":"Point","coordinates":[81.018055556000036,6.7888888890000203]},"properties":{"objectid":75,"serial_number":"01BD0034","station_name":"BANDARA ELIYA ESTATE","district":"BADULLA","latitude":6.78888889,"longitude":81.018055560000008,"begin_date":-1104537600000,"end_date":253402214400000,"description":null,"qualifier":"Rainfall","elevation":0}},{"type":"Feature","id":76,"geometry":{"type":"Point","coordinates":[80.983333333000076,6.8333333330000414]},"properties":{"objectid":76,"serial_number":"01BD0036","station_name":"BANDARAWELA-IRRIGATION","district":"BADULLA","latitude":6.8333333300000003,"longitude":80.983333329999994,"begin_date":-718070400000,"end_date":253402214400000,"description":null,"qualifier":"Rainfall","elevation":1219.5}},{"type":"Feature","id":77,"geometry":{"type":"Point","coordinates":[80.966666667000084,7.0666666670000495]},"properties":{"objectid":77,"serial_number":"01BD0039","station_name":"BATHMEDILLA","district":"BADULLA","latitude":7.06666667,"longitude":80.966666669999995,"begin_date":-888883200000,"end_date":99705600000,"description":null,"qualifier":"Rainfall","elevation":1219.5}},{"type":"Feature","id":78,"geometry":{"type":"Point","coordinates":[80.933333333000064,6.7666666670000382]},"properties":{"objectid":78,"serial_number":"01BD0047","station_name":"BLACKWOOD ESTATE (LOWER)","district":"BADULLA","latitude":6.7666666700000002,"longitude":80.933333329999996,"begin_date":-1478131200000,"end_date":215568000000,"description":null,"qualifier":"Rainfall","elevation":16}},{"type":"Feature","id":79,"geometry":{"type":"Point","coordinates":[81.03333333300003,6.8500000000000227]},"properties":{"objectid":79,"serial_number":"01BD0050","station_name":"BORALANDA","district":"BADULLA","latitude":6.8499999999999996,"longitude":81.033333329999991,"begin_date":-883612800000,"end_date":-470793600000,"description":null,"qualifier":"Rainfall","elevation":16}},{"type":"Feature","id":80,"geometry":{"type":"Point","coordinates":[81.250000000000057,7.2700000000000387]},"properties":{"objectid":80,"serial_number":"01BD0052","station_name":"BULUPITIYA SCHOOL","district":"BADULLA","latitude":7.2699999999999996,"longitude":81.25,"begin_date":-541728000000,"end_date":-65923200000,"description":null,"qualifier":"Rainfall","elevation":16}},{"type":"Feature","id":81,"geometry":{"type":"Point","coordinates":[81.118055556000058,6.9583333330000414]},"properties":{"objectid":81,"serial_number":"01BD0079","station_name":"DEBEDDE ESTATE","district":"BADULLA","latitude":6.9583333300000003,"longitude":81.118055560000002,"begin_date":-1393804800000,"end_date":253402214400000,"description":null,"qualifier":"Rainfall","elevation":16}},{"type":"Feature","id":82,"geometry":{"type":"Point","coordinates":[80.983333333000076,6.7500000000000568]},"properties":{"objectid":82,"serial_number":"01BD009A","station_name":"AMBARAGALA","district":"BADULLA","latitude":6.75,"longitude":80.983333329999994,"begin_date":896659200000,"end_date":253402214400000,"description":null,"qualifier":"Rainfall","elevation":0}},{"type":"Feature","id":83,"geometry":{"type":"Point","coordinates":[80.933333333000064,6.8833333330000528]},"properties":{"objectid":83,"serial_number":"01BD0102","station_name":"DYRABBA ESTATE","district":"BADULLA","latitude":6.8833333300000001,"longitude":80.933333329999996,"begin_date":-1762128000000,"end_date":253402214400000,"description":null,"qualifier":"Rainfall","elevation":1299.5}},{"type":"Feature","id":84,"geometry":{"type":"Point","coordinates":[81.233333333000076,7.3000000000000682]},"properties":{"objectid":84,"serial_number":"01BD0105","station_name":"EKIRIYANKUMBURA","district":"BADULLA","latitude":7.2999999999999998,"longitude":81.233333329999994,"begin_date":-852076800000,"end_date":239155200000,"description":null,"qualifier":"Rainfall","elevation":16}},{"type":"Feature","id":85,"geometry":{"type":"Point","coordinates":[81.050000000000068,6.8666666670000609]},"properties":{"objectid":85,"serial_number":"01BD0108","station_name":"ELLA (KINNELAN ESTATE)","district":"BADULLA","latitude":6.8666666699999999,"longitude":81.049999999999997,"begin_date":-1380758400000,"end_date":253402214400000,"description":null,"qualifier":"Rainfall","elevation":1006.1}},{"type":"Feature","id":86,"geometry":{"type":"Point","coordinates":[80.875000000000057,6.8827777780000474]},"properties":{"objectid":86,"serial_number":"01BD0112","station_name":"ERABEDDE EXPTL.STATION","district":"BADULLA","latitude":6.8827777799999996,"longitude":80.875,"begin_date":-915148800000,"end_date":247017600000,"description":null,"qualifier":"Rainfall","elevation":16}},{"type":"Feature","id":87,"geometry":{"type":"Point","coordinates":[80.833333333000041,6.8000000000000682]},"properties":{"objectid":87,"serial_number":"01BD0134","station_name":"GINNIHERIYA(HORTON PLNS)","district":"BADULLA","latitude":6.7999999999999998,"longitude":80.833333329999988,"begin_date":-1041379200000,"end_date":160358400000,"description":null,"qualifier":"Rainfall","elevation":16}},{"type":"Feature","id":88,"geometry":{"type":"Point","coordinates":[81.083333333000041,6.9000000000000341]},"properties":{"objectid":88,"serial_number":"01BD0140","station_name":"GOURRAKELLE","district":"BADULLA","latitude":6.9000000000000004,"longitude":81.083333329999988,"begin_date":-2934748800000,"end_date":675648000000,"description":null,"qualifier":"Rainfall","elevation":1189}},{"type":"Feature","id":89,"geometry":{"type":"Point","coordinates":[80.966666667000084,6.7833333330000301]},"properties":{"objectid":89,"serial_number":"01BD0152","station_name":"HAPUTALE HOSPITAL","district":"BADULLA","latitude":6.7833333299999996,"longitude":80.966666669999995,"begin_date":-2650752000000,"end_date":407462400000,"description":null,"qualifier":"Rainfall","elevation":16}},{"type":"Feature","id":90,"geometry":{"type":"Point","coordinates":[81.10000000000008,6.9666666670000268]},"properties":{"objectid":90,"serial_number":"01BD0164","station_name":"HINGURUGAMA WATER SUPPLY","district":"BADULLA","latitude":6.9666666699999995,"longitude":81.099999999999994,"begin_date":-986256000000,"end_date":328579200000,"description":null,"qualifier":"Rainfall","elevation":16}},{"type":"Feature","id":91,"geometry":{"type":"Point","coordinates":[81.000000000000057,7.3666666670000609]},"properties":{"objectid":91,"serial_number":"01BD0168","station_name":"HORABORAWEWA","district":"BADULLA","latitude":7.3666666699999999,"longitude":81,"begin_date":-1898726400000,"end_date":460080000000,"description":null,"qualifier":"Rainfall","elevation":16}},{"type":"Feature","id":92,"geometry":{"type":"Point","coordinates":[81.016666667000038,7.1666666670000723]},"properties":{"objectid":92,"serial_number":"01BD0207","station_name":"KANDAKETIYA","district":"BADULLA","latitude":7.1666666699999997,"longitude":81.016666669999992,"begin_date":-718070400000,"end_date":253402214400000,"description":null,"qualifier":"Rainfall","elevation":16}},{"type":"Feature","id":93,"geometry":{"type":"Point","coordinates":[81.016666667000038,7.0500000000000682]},"properties":{"objectid":93,"serial_number":"01BD0229","station_name":"KEENAKELLE ESTATE","district":"BADULLA","latitude":7.0499999999999998,"longitude":81.016666669999992,"begin_date":-1538524800000,"end_date":253402214400000,"description":null,"qualifier":"Rainfall","elevation":1432.9000000000001}},{"type":"Feature","id":94,"geometry":{"type":"Point","coordinates":[]},"properties":{"objectid":94,"serial_number":"01BD0231","station_name":"KEHELLANDAWEWA","district":"BADULLA","latitude":0,"longitude":0,"begin_date":-1199232000000,"end_date":-189475200000,"description":null,"qualifier":"Rainfall","elevation":16}},{"type":"Feature","id":95,"geometry":{"type":"Point","coordinates":[81.050000000000068,6.8333333330000414]},"properties":{"objectid":95,"serial_number":"01BD0242","station_name":"KINIGAMA","district":"BADULLA","latitude":6.8333333300000003,"longitude":81.049999999999997,"begin_date":-915148800000,"end_date":723081600000,"description":null,"qualifier":"Rainfall","elevation":16}},{"type":"Feature","id":96,"geometry":{"type":"Point","coordinates":[80.933333333000064,6.9833333330000755]},"properties":{"objectid":96,"serial_number":"01BD0247","station_name":"KIRKLEES ESTATE","district":"BADULLA","latitude":6.9833333299999998,"longitude":80.933333329999996,"begin_date":-1133395200000,"end_date":253402214400000,"description":null,"qualifier":"Rainfall","elevation":1432.9000000000001}},{"type":"Feature","id":97,"geometry":{"type":"Point","coordinates":[81.016666667000038,6.7333333330000755]},"properties":{"objectid":97,"serial_number":"01BD0254","station_name":"KOSLANDA,POLICE STATION","district":"BADULLA","latitude":6.7333333299999998,"longitude":81.016666669999992,"begin_date":-2319494400000,"end_date":253402214400000,"description":null,"qualifier":"Rainfall","elevation":16}},{"type":"Feature","id":98,"geometry":{"type":"Point","coordinates":[81.28333333300003,6.8000000000000682]},"properties":{"objectid":98,"serial_number":"01BD0260","station_name":"KUMBUKKAN","district":"MONARAGALA","latitude":6.7999999999999998,"longitude":81.283333329999991,"begin_date":-2490307200000,"end_date":-189475200000,"description":null,"qualifier":"Rainfall","elevation":16}},{"type":"Feature","id":99,"geometry":{"type":"Point","coordinates":[81.016666667000038,7.0333333330000301]},"properties":{"objectid":99,"serial_number":"01BD0271","station_name":"LEDGERWATTE ESTATE","district":"BADULLA","latitude":7.0333333299999996,"longitude":81.016666669999992,"begin_date":-2403561600000,"end_date":253402214400000,"description":null,"qualifier":"Rainfall","elevation":16}},{"type":"Feature","id":100,"geometry":{"type":"Point","coordinates":[81.000000000000057,6.7500000000000568]},"properties":{"objectid":100,"serial_number":"01BD0272","station_name":"LEMASTOTA","district":"BADULLA","latitude":6.75,"longitude":81,"begin_date":-1262304000000,"end_date":-189475200000,"description":null,"qualifier":"Rainfall","elevation":16}},{"type":"Feature","id":101,"geometry":{"type":"Point","coordinates":[81.10000000000008,6.9166666670000723]},"properties":{"objectid":101,"serial_number":"01BD0277","station_name":"LOWER SPRING VALLEY","district":"BADULLA","latitude":6.9166666699999997,"longitude":81.099999999999994,"begin_date":-2695507200000,"end_date":253402214400000,"description":null,"qualifier":"Rainfall","elevation":16}},{"type":"Feature","id":102,"geometry":{"type":"Point","coordinates":[81.121944444000064,7.2588888890000476]},"properties":{"objectid":102,"serial_number":"01BD0279","station_name":"LUGALOYA","district":"BADULLA","latitude":7.2588888899999997,"longitude":81.121944439999993,"begin_date":-1170288000000,"end_date":-202694400000,"description":null,"qualifier":"Rainfall","elevation":16}},{"type":"Feature","id":103,"geometry":{"type":"Point","coordinates":[81.050000000000068,6.8000000000000682]},"properties":{"objectid":103,"serial_number":"01BD0280","station_name":"LUNUGALA ESTATE","district":"BADULLA","latitude":6.7999999999999998,"longitude":81.049999999999997,"begin_date":-1762128000000,"end_date":-197424000000,"description":null,"qualifier":"Rainfall","elevation":16}},{"type":"Feature","id":104,"geometry":{"type":"Point","coordinates":[81.166666667000072,7.0166666670000382]},"properties":{"objectid":104,"serial_number":"01BD0290","station_name":"MAHADOWA ESTATE","district":"BADULLA","latitude":7.0166666700000002,"longitude":81.166666669999998,"begin_date":-2143238400000,"end_date":253402214400000,"description":null,"qualifier":"Rainfall","elevation":16}},{"type":"Feature","id":105,"geometry":{"type":"Point","coordinates":[]},"properties":{"objectid":105,"serial_number":"01BD0324","station_name":"MEDDEGODDE ESTATE","district":"BADULLA","latitude":0,"longitude":0,"begin_date":-1514764800000,"end_date":94608000000,"description":null,"qualifier":"Rainfall","elevation":16}},{"type":"Feature","id":106,"geometry":{"type":"Point","coordinates":[81.03333333300003,6.7666666670000382]},"properties":{"objectid":106,"serial_number":"01BD0327","station_name":"MEERIABEDDE","district":"BADULLA","latitude":6.7666666700000002,"longitude":81.033333329999991,"begin_date":-3071520000000,"end_date":-189475200000,"description":null,"qualifier":"Rainfall","elevation":16}},{"type":"Feature","id":107,"geometry":{"type":"Point","coordinates":[81.258000000000038,7.0777777780000406]},"properties":{"objectid":107,"serial_number":"01BD0363","station_name":"NANUPURAWA SCHOOL","district":"MONARAGALA","latitude":7.0777777799999999,"longitude":81.257999999999996,"begin_date":-541728000000,"end_date":18230400000,"description":null,"qualifier":"Rainfall","elevation":16}},{"type":"Feature","id":108,"geometry":{"type":"Point","coordinates":[80.96100000000007,7.0500000000000682]},"properties":{"objectid":108,"serial_number":"01BD0366","station_name":"NARANGALLA(BADULLA)","district":"BADULLA","latitude":7.0499999999999998,"longitude":80.960999999999999,"begin_date":-1286064000000,"end_date":253402214400000,"description":null,"qualifier":"Rainfall","elevation":16}},{"type":"Feature","id":109,"geometry":{"type":"Point","coordinates":[80.888000000000034,6.8166666670000495]},"properties":{"objectid":109,"serial_number":"01BD0384","station_name":"OHIYA","district":"BADULLA","latitude":6.81666667,"longitude":80.888000000000005,"begin_date":-1546300800000,"end_date":-86400000,"description":null,"qualifier":"Rainfall","elevation":16}},{"type":"Feature","id":110,"geometry":{"type":"Point","coordinates":[80.86200000000008,6.7666666670000382]},"properties":{"objectid":110,"serial_number":"01BD038A","station_name":"BATHGODA-HALDUMMULLA","district":"BADULLA","latitude":6.7666666700000002,"longitude":80.861999999999995,"begin_date":646790400000,"end_date":253402214400000,"description":null,"qualifier":"Rainfall","elevation":11}},{"type":"Feature","id":111,"geometry":{"type":"Point","coordinates":[81.126000000000033,6.9290000000000305]},"properties":{"objectid":111,"serial_number":"01BD0411","station_name":"PASSARA HOSPITAL","district":"BADULLA","latitude":6.9290000000000003,"longitude":81.126000000000005,"begin_date":-2222208000000,"end_date":-94780800000,"description":null,"qualifier":"Rainfall","elevation":16}},{"type":"Feature","id":112,"geometry":{"type":"Point","coordinates":[80.827000000000055,6.7902777780000747]},"properties":{"objectid":112,"serial_number":"01BD042B","station_name":"BEAUVAIS ESTATE","district":"BADULLA","latitude":6.7902777800000003,"longitude":80.826999999999998,"begin_date":838857600000,"end_date":253402214400000,"description":null,"qualifier":"Rainfall","elevation":0}},{"type":"Feature","id":113,"geometry":{"type":"Point","coordinates":[81.285000000000082,6.8833333330000528]},"properties":{"objectid":113,"serial_number":"01BD0479","station_name":"STRATHEDEN ESTATE","district":"BADULLA","latitude":6.8833333300000001,"longitude":81.284999999999997,"begin_date":-1819929600000,"end_date":126144000000,"description":null,"qualifier":"Rainfall","elevation":16}},{"type":"Feature","id":114,"geometry":{"type":"Point","coordinates":[81.10000000000008,6.7666666670000382]},"properties":{"objectid":114,"serial_number":"01BD0480","station_name":"SUDUPANAWELA","district":"MONARAGALA","latitude":6.7666666700000002,"longitude":81.099999999999994,"begin_date":-1919894400000,"end_date":244425600000,"description":null,"qualifier":"Rainfall","elevation":16}},{"type":"Feature","id":115,"geometry":{"type":"Point","coordinates":[80.909000000000049,6.9666666670000268]},"properties":{"objectid":115,"serial_number":"01BD048B","station_name":"BOGAHAMADITTA","district":"BADULLA","latitude":6.9666666699999995,"longitude":80.909000000000006,"begin_date":670464000000,"end_date":253402214400000,"description":null,"qualifier":"Rainfall","elevation":111}},{"type":"Feature","id":116,"geometry":{"type":"Point","coordinates":[81.060000000000059,6.7666666670000382]},"properties":{"objectid":116,"serial_number":"01BD0504","station_name":"UDAHENA ESTATE","district":"BADULLA","latitude":6.7666666700000002,"longitude":81.060000000000002,"begin_date":-2895436800000,"end_date":62985600000,"description":null,"qualifier":"Rainfall","elevation":16}},{"type":"Feature","id":117,"geometry":{"type":"Point","coordinates":[80.840000000000032,6.8190000000000737]},"properties":{"objectid":117,"serial_number":"01BD0511","station_name":"UPPER OHIYA ESTATE","district":"BADULLA","latitude":6.819,"longitude":80.840000000000003,"begin_date":-2135548800000,"end_date":717811200000,"description":null,"qualifier":"Rainfall","elevation":16}},{"type":"Feature","id":118,"geometry":{"type":"Point","coordinates":[81.004000000000076,6.9290000000000305]},"properties":{"objectid":118,"serial_number":"01BD0514","station_name":"UVA ESTATE","district":"BADULLA","latitude":6.9290000000000003,"longitude":81.004000000000005,"begin_date":-1435968000000,"end_date":-113270400000,"description":null,"qualifier":"Rainfall","elevation":16}},{"type":"Feature","id":119,"geometry":{"type":"Point","coordinates":[80.900000000000034,6.9000000000000341]},"properties":{"objectid":119,"serial_number":"01BD0539","station_name":"WELIMADA GROUP","district":"BADULLA","latitude":6.9000000000000004,"longitude":80.900000000000006,"begin_date":-915148800000,"end_date":253402214400000,"description":null,"qualifier":"Rainfall","elevation":16}},{"type":"Feature","id":120,"geometry":{"type":"Point","coordinates":[80.833333333000041,6.7833333330000301]},"properties":{"objectid":120,"serial_number":"01BD0541","station_name":"WEST HAPUTALE-UDAVERIYA","district":"BADULLA","latitude":6.7833333299999996,"longitude":80.833333329999988,"begin_date":-1412294400000,"end_date":253402214400000,"description":null,"qualifier":"Rainfall","elevation":1707}},{"type":"Feature","id":121,"geometry":{"type":"Point","coordinates":[81.112500000000068,6.9666666670000268]},"properties":{"objectid":121,"serial_number":"01BD0545","station_name":"WEWESSA ESTATE","district":"BADULLA","latitude":6.9666666699999995,"longitude":81.112499999999997,"begin_date":-1780444800000,"end_date":253402214400000,"description":null,"qualifier":"Rainfall","elevation":16}},{"type":"Feature","id":122,"geometry":{"type":"Point","coordinates":[81.116666667000061,6.9000000000000341]},"properties":{"objectid":122,"serial_number":"01BD058A","station_name":"CANAWARELLA GROUP","district":"BADULLA","latitude":6.9000000000000004,"longitude":81.116666670000001,"begin_date":-915148800000,"end_date":253402214400000,"description":null,"qualifier":"Rainfall","elevation":1237.8}},{"type":"Feature","id":123,"geometry":{"type":"Point","coordinates":[80.948611111000048,6.7513888890000544]},"properties":{"objectid":123,"serial_number":"01BD068B","station_name":"COLCONDA DIVISION","district":"BADULLA","latitude":6.7513888900000003,"longitude":80.948611110000002,"begin_date":838857600000,"end_date":253402214400000,"description":null,"qualifier":"Rainfall","elevation":0}},{"type":"Feature","id":124,"geometry":{"type":"Point","coordinates":[81.008333333000053,6.7888888890000203]},"properties":{"objectid":124,"serial_number":"01BD074D","station_name":"DAMBATENNE","district":"BADULLA","latitude":6.78888889,"longitude":81.008333329999999,"begin_date":838857600000,"end_date":253402214400000,"description":null,"qualifier":"Rainfall","elevation":1566}},{"type":"Feature","id":125,"geometry":{"type":"Point","coordinates":[80.960833333000039,6.9219444440000757]},"properties":{"objectid":125,"serial_number":"01BD082A","station_name":"DELIWA","district":"BADULLA","latitude":6.9219444399999999,"longitude":80.96083333,"begin_date":-536457600000,"end_date":-126316800000,"description":null,"qualifier":"Rainfall","elevation":16}},{"type":"Feature","id":126,"geometry":{"type":"Point","coordinates":[80.983333333000076,7.5777777780000406]},"properties":{"objectid":126,"serial_number":"01BD090A","station_name":"DIVULAPELLESSA","district":"BADULLA","latitude":7.5777777799999999,"longitude":80.983333329999994,"begin_date":825638400000,"end_date":253402214400000,"description":null,"qualifier":"Rainfall","elevation":0}},{"type":"Feature","id":127,"geometry":{"type":"Point","coordinates":[80.966666667000084,6.8166666670000495]},"properties":{"objectid":127,"serial_number":"01BD093A","station_name":"DIYATALAWA-SURVEY CAMP","district":"BADULLA","latitude":6.81666667,"longitude":80.966666669999995,"begin_date":654739200000,"end_date":253402214400000,"description":null,"qualifier":"Rainfall","elevation":111}},{"type":"Feature","id":128,"geometry":{"type":"Point","coordinates":[81.150000000000034,7.0666666670000495]},"properties":{"objectid":128,"serial_number":"01BD126A","station_name":"GALOOLA ESTATE","district":"BADULLA","latitude":7.06666667,"longitude":81.150000000000006,"begin_date":70934400000,"end_date":253402214400000,"description":null,"qualifier":"Rainfall","elevation":16}},{"type":"Feature","id":129,"geometry":{"type":"Point","coordinates":[81.019444444000044,7.4583333330000414]},"properties":{"objectid":129,"serial_number":"01BD127A","station_name":"Galpurayaya - G/Kotte","district":"BADULLA","latitude":7.4583333300000003,"longitude":81.019444440000001,"begin_date":1038700800000,"end_date":253402214400000,"description":null,"qualifier":"Rainfall","elevation":125}},{"type":"Feature","id":130,"geometry":{"type":"Point","coordinates":[80.922222222000073,6.7763888890000317]},"properties":{"objectid":130,"serial_number":"01BD131A","station_name":"GLENANORE","district":"BADULLA","latitude":6.7763888899999998,"longitude":80.922222220000009,"begin_date":838857600000,"end_date":253402214400000,"description":null,"qualifier":"Rainfall","elevation":1392}},{"type":"Feature","id":131,"geometry":{"type":"Point","coordinates":[81.086111111000037,7.4625000000000341]},"properties":{"objectid":131,"serial_number":"01BD134C","station_name":"GIRANDURUKOTTE W/S","district":"BADULLA","latitude":7.4625000000000004,"longitude":81.086111110000004,"begin_date":801964800000,"end_date":253402214400000,"description":null,"qualifier":"Rainfall","elevation":0}},{"type":"Feature","id":132,"geometry":{"type":"Point","coordinates":[81.083333333000041,6.9583333330000414]},"properties":{"objectid":132,"serial_number":"01BD135A","station_name":"GLEN ALPIN ESTATE","district":"BADULLA","latitude":6.9583333300000003,"longitude":81.083333329999988,"begin_date":725846400000,"end_date":253402214400000,"description":null,"qualifier":"Rainfall","elevation":0}},{"type":"Feature","id":133,"geometry":{"type":"Point","coordinates":[80.984722222000073,6.7986111110000707]},"properties":{"objectid":133,"serial_number":"01BD139B","station_name":"GONAMOTAVA","district":"BADULLA","latitude":6.7986111100000004,"longitude":80.984722220000009,"begin_date":838857600000,"end_date":253402214400000,"description":null,"qualifier":"Rainfall","elevation":1348}},{"type":"Feature","id":134,"geometry":{"type":"Point","coordinates":[80.958333333000041,6.7750000000000341]},"properties":{"objectid":134,"serial_number":"01BD152A","station_name":"HAPUTALE FACTORY","district":"BADULLA","latitude":6.7750000000000004,"longitude":80.958333329999988,"begin_date":838857600000,"end_date":253402214400000,"description":null,"qualifier":"Rainfall","elevation":1418}},{"type":"Feature","id":135,"geometry":{"type":"Point","coordinates":[80.97500000000008,6.7847222220000276]},"properties":{"objectid":135,"serial_number":"01BD152B","station_name":"HAPUTALE REGIONAL OFFICE","district":"BADULLA","latitude":6.7847222199999999,"longitude":80.974999999999994,"begin_date":838857600000,"end_date":253402214400000,"description":null,"qualifier":"Rainfall","elevation":0}},{"type":"Feature","id":136,"geometry":{"type":"Point","coordinates":[80.983333333000076,7.5166666670000382]},"properties":{"objectid":136,"serial_number":"01BD157A","station_name":"HEMBARAWA","district":"BADULLA","latitude":7.5166666700000002,"longitude":80.983333329999994,"begin_date":-512870400000,"end_date":-100051200000,"description":null,"qualifier":"Rainfall","elevation":16}},{"type":"Feature","id":137,"geometry":{"type":"Point","coordinates":[80.910000000000082,6.8900000000000432]},"properties":{"objectid":137,"serial_number":"01BD159B","station_name":"HILPANKANDURA ESTATE","district":"BADULLA","latitude":6.8899999999999997,"longitude":80.909999999999997,"begin_date":702086400000,"end_date":253402214400000,"description":null,"qualifier":"Rainfall","elevation":16}},{"type":"Feature","id":138,"geometry":{"type":"Point","coordinates":[81.53333333300003,7.2166666670000268]},"properties":{"objectid":138,"serial_number":"01BD180A","station_name":"INGINIYAGALA","district":"MONARAGALA","latitude":7.2166666699999995,"longitude":81.533333329999991,"begin_date":-441849600000,"end_date":241833600000,"description":null,"qualifier":"Rainfall","elevation":16}},{"type":"Feature","id":139,"geometry":{"type":"Point","coordinates":[80.972222222000084,6.7944444440000211]},"properties":{"objectid":139,"serial_number":"01BD193B","station_name":"KAHAGALLA ESTATE","district":"BADULLA","latitude":6.7944444399999995,"longitude":80.972222220000006,"begin_date":838857600000,"end_date":253402214400000,"description":null,"qualifier":"Rainfall","elevation":0}},{"type":"Feature","id":140,"geometry":{"type":"Point","coordinates":[81.233333333000076,6.9166666670000723]},"properties":{"objectid":140,"serial_number":"01BD218A","station_name":"KARANDAGAMA","district":"BADULLA","latitude":6.9166666699999997,"longitude":81.233333329999994,"begin_date":-497145600000,"end_date":-10627200000,"description":null,"qualifier":"Rainfall","elevation":16}},{"type":"Feature","id":141,"geometry":{"type":"Point","coordinates":[81.083333333000041,6.7333333330000755]},"properties":{"objectid":141,"serial_number":"01BD254A","station_name":"KOSLANDA ESTATE","district":"BADULLA","latitude":6.7333333299999998,"longitude":81.083333329999988,"begin_date":901929600000,"end_date":253402214400000,"description":null,"qualifier":"Rainfall","elevation":0}},{"type":"Feature","id":142,"geometry":{"type":"Point","coordinates":[81.03333333300003,7.2666666670000382]},"properties":{"objectid":142,"serial_number":"01BD310A","station_name":"MAPAKADAWEWA","district":"BADULLA","latitude":7.2666666700000002,"longitude":81.033333329999991,"begin_date":-915148800000,"end_date":253402214400000,"description":null,"qualifier":"Rainfall","elevation":16}},{"type":"Feature","id":143,"geometry":{"type":"Point","coordinates":[80.947777778000045,7.214444444000037]},"properties":{"objectid":143,"serial_number":"01BD317Q","station_name":"RANTEMBE","district":"BADULLA","latitude":7.2144444400000003,"longitude":80.947777779999996,"begin_date":859852800000,"end_date":253402214400000,"description":null,"qualifier":"Rainfall","elevation":0}},{"type":"Feature","id":144,"geometry":{"type":"Point","coordinates":[80.897222222000039,6.8625000000000682]},"properties":{"objectid":144,"serial_number":"01BD330C","station_name":"MICKLEFIELD FARM","district":"BADULLA","latitude":6.8624999999999998,"longitude":80.897222220000003,"begin_date":725846400000,"end_date":253402214400000,"description":null,"qualifier":"Rainfall","elevation":0}},{"type":"Feature","id":145,"geometry":{"type":"Point","coordinates":[80.887777778000043,6.9550000000000409]},"properties":{"objectid":145,"serial_number":"01BD353C","station_name":"MULLEGAMA","district":"BADULLA","latitude":6.9550000000000001,"longitude":80.887777779999993,"begin_date":-531360000000,"end_date":-315705600000,"description":null,"qualifier":"Rainfall","elevation":16}},{"type":"Feature","id":146,"geometry":{"type":"Point","coordinates":[80.994444444000067,6.8055555560000585]},"properties":{"objectid":146,"serial_number":"01BD368C","station_name":"NAYABEDDE BUNGALOW","district":"BADULLA","latitude":6.8055555600000002,"longitude":80.994444439999995,"begin_date":838857600000,"end_date":253402214400000,"description":null,"qualifier":"Rainfall","elevation":0}},{"type":"Feature","id":147,"geometry":{"type":"Point","coordinates":[80.900000000000034,6.8013888890000658]},"properties":{"objectid":147,"serial_number":"01BD368D","station_name":"NAYABEDDE","district":"BADULLA","latitude":6.8013888900000001,"longitude":80.900000000000006,"begin_date":838857600000,"end_date":253402214400000,"description":null,"qualifier":"Rainfall","elevation":0}},{"type":"Feature","id":148,"geometry":{"type":"Point","coordinates":[81.366666667000061,7.1833333330000642]},"properties":{"objectid":148,"serial_number":"01BD377A","station_name":"NILGALA","district":"MONARAGALA","latitude":7.18333333,"longitude":81.366666670000001,"begin_date":-441849600000,"end_date":60307200000,"description":null,"qualifier":"Rainfall","elevation":16}},{"type":"Feature","id":149,"geometry":{"type":"Point","coordinates":[81.170833333000076,6.9333333330000642]},"properties":{"objectid":149,"serial_number":"01BD411A","station_name":"PASSARA ESTATE","district":"BADULLA","latitude":6.93333333,"longitude":81.170833329999994,"begin_date":799286400000,"end_date":253402214400000,"description":null,"qualifier":"Rainfall","elevation":0}},{"type":"Feature","id":150,"geometry":{"type":"Point","coordinates":[80.991666667000061,6.7833333330000301]},"properties":{"objectid":150,"serial_number":"01BD424C","station_name":"PITARAT MALAI ESTATE","district":"BADULLA","latitude":6.7833333299999996,"longitude":80.991666670000001,"begin_date":838857600000,"end_date":253402214400000,"description":null,"qualifier":"Rainfall","elevation":1524}},{"type":"Feature","id":151,"geometry":{"type":"Point","coordinates":[81.050000000000068,6.7833333330000301]},"properties":{"objectid":151,"serial_number":"01BD428C","station_name":"POONAGALA, PG DIVISION","district":"BADULLA","latitude":6.7833333299999996,"longitude":81.049999999999997,"begin_date":852595200000,"end_date":253402214400000,"description":null,"qualifier":"Rainfall","elevation":0}},{"type":"Feature","id":152,"geometry":{"type":"Point","coordinates":[81.041666667000072,6.7750000000000341]},"properties":{"objectid":152,"serial_number":"01BD428D","station_name":"POONAGALA, LLG DIV","district":"BADULLA","latitude":6.7750000000000004,"longitude":81.041666669999998,"begin_date":852595200000,"end_date":253402214400000,"description":null,"qualifier":"Rainfall","elevation":0}},{"type":"Feature","id":153,"geometry":{"type":"Point","coordinates":[81.04527777800007,6.7583333330000528]},"properties":{"objectid":153,"serial_number":"01BD428E","station_name":"POONAGALA, CG DIVISION","district":"BADULLA","latitude":6.7583333300000001,"longitude":81.045277779999992,"begin_date":852595200000,"end_date":253402214400000,"description":null,"qualifier":"Rainfall","elevation":0}},{"type":"Feature","id":154,"geometry":{"type":"Point","coordinates":[81.045833333000076,6.7791666670000268]},"properties":{"objectid":154,"serial_number":"01BD428F","station_name":"POONAGALA GROUP, FACTORY","district":"BADULLA","latitude":6.7791666699999995,"longitude":81.045833329999994,"begin_date":852595200000,"end_date":253402214400000,"description":null,"qualifier":"Rainfall","elevation":0}},{"type":"Feature","id":155,"geometry":{"type":"Point","coordinates":[81.050000000000068,6.7416666670000609]},"properties":{"objectid":155,"serial_number":"01BD428G","station_name":"POONAGALA, MCL DIV","district":"BADULLA","latitude":6.7416666699999999,"longitude":81.049999999999997,"begin_date":852595200000,"end_date":253402214400000,"description":null,"qualifier":"Rainfall","elevation":0}},{"type":"Feature","id":156,"geometry":{"type":"Point","coordinates":[81.050000000000068,6.8000000000000682]},"properties":{"objectid":156,"serial_number":"01BD428H","station_name":"POONAGALA, BTN DIV","district":"BADULLA","latitude":6.7999999999999998,"longitude":81.049999999999997,"begin_date":852595200000,"end_date":253402214400000,"description":null,"qualifier":"Rainfall","elevation":0}},{"type":"Feature","id":157,"geometry":{"type":"Point","coordinates":[81.047222222000073,6.7916666670000723]},"properties":{"objectid":157,"serial_number":"01BD428I","station_name":"POONAGALA, ULG DIV","district":"BADULLA","latitude":6.7916666699999997,"longitude":81.047222220000009,"begin_date":852595200000,"end_date":253402214400000,"description":null,"qualifier":"Rainfall","elevation":0}},{"type":"Feature","id":158,"geometry":{"type":"Point","coordinates":[81.054166667000061,6.7819444440000325]},"properties":{"objectid":158,"serial_number":"01BD428J","station_name":"POONAGALA, FACTORY DIV","district":"BADULLA","latitude":6.7819444400000002,"longitude":81.054166670000001,"begin_date":852595200000,"end_date":253402214400000,"description":null,"qualifier":"Rainfall","elevation":0}},{"type":"Feature","id":159,"geometry":{"type":"Point","coordinates":[81.061111111000059,6.7625000000000455]},"properties":{"objectid":159,"serial_number":"01BD428K","station_name":"POONAGALA, UH DIVISION","district":"BADULLA","latitude":6.7625000000000002,"longitude":81.061111109999999,"begin_date":852595200000,"end_date":253402214400000,"description":null,"qualifier":"Rainfall","elevation":0}},{"type":"Feature","id":160,"geometry":{"type":"Point","coordinates":[81.016666667000038,6.7986111110000707]},"properties":{"objectid":160,"serial_number":"01BD473C","station_name":"ST.CATHERINE DIVISION","district":"BADULLA","latitude":6.7986111100000004,"longitude":81.016666669999992,"begin_date":838857600000,"end_date":253402214400000,"description":null,"qualifier":"Rainfall","elevation":0}},{"type":"Feature","id":161,"geometry":{"type":"Point","coordinates":[81.10000000000008,6.9583333330000414]},"properties":{"objectid":161,"serial_number":"01BD545A","station_name":"WEWESSE MIDDLE DIVISION","district":"BADULLA","latitude":6.9583333300000003,"longitude":81.099999999999994,"begin_date":862444800000,"end_date":253402214400000,"description":null,"qualifier":"Rainfall","elevation":0}},{"type":"Feature","id":162,"geometry":{"type":"Point","coordinates":[81.56666666700005,7.6666666670000723]},"properties":{"objectid":162,"serial_number":"01BT0027","station_name":"AYITHIYAMALAI","district":"BATTICALOA","latitude":7.6666666699999997,"longitude":81.566666669999989,"begin_date":-775872000000,"end_date":5011200000,"description":null,"qualifier":"Rainfall","elevation":16}},{"type":"Feature","id":163,"geometry":{"type":"Point","coordinates":[81.750000000000057,7.6000000000000227]},"properties":{"objectid":163,"serial_number":"01BT0191","station_name":"KADUKKAMUNAI","district":"BATTICALOA","latitude":7.5999999999999996,"longitude":81.75,"begin_date":-1927670400000,"end_date":253402214400000,"description":null,"qualifier":"Rainfall","elevation":3}},{"type":"Feature","id":164,"geometry":{"type":"Point","coordinates":[81.833333333000041,7.4166666670000723]},"properties":{"objectid":164,"serial_number":"01BT0198","station_name":"KALMUNAI","district":"BATTICALOA","latitude":7.4166666699999997,"longitude":81.833333329999988,"begin_date":-2871676800000,"end_date":253402214400000,"description":null,"qualifier":"Rainfall","elevation":3}},{"type":"Feature","id":165,"geometry":{"type":"Point","coordinates":[81.633333333000053,7.2500000000000568]},"properties":{"objectid":165,"serial_number":"01BT0206","station_name":"KANAKADU","district":"BATTICALOA","latitude":7.25,"longitude":81.633333329999999,"begin_date":-1843603200000,"end_date":-71193600000,"description":null,"qualifier":"Rainfall","elevation":16}},{"type":"Feature","id":166,"geometry":{"type":"Point","coordinates":[81.53333333300003,7.7000000000000455]},"properties":{"objectid":166,"serial_number":"01BT0217","station_name":"KARADIYAN ARU","district":"BATTICALOA","latitude":7.7000000000000002,"longitude":81.533333329999991,"begin_date":-1009843200000,"end_date":57715200000,"description":null,"qualifier":"Rainfall","elevation":16}},{"type":"Feature","id":167,"geometry":{"type":"Point","coordinates":[81.700000000000045,6.5166666670000382]},"properties":{"objectid":167,"serial_number":"01BT0261","station_name":"KUMANA","district":"AMPARAI","latitude":6.5166666700000002,"longitude":81.700000000000003,"begin_date":-846979200000,"end_date":-189475200000,"description":null,"qualifier":"Rainfall","elevation":16}},{"type":"Feature","id":168,"geometry":{"type":"Point","coordinates":[81.683333333000064,7.5666666670000495]},"properties":{"objectid":168,"serial_number":"01BT0304","station_name":"MANALPITI ARU ANICUT","district":"BATTICALOA","latitude":7.56666667,"longitude":81.683333329999996,"begin_date":-2361657600000,"end_date":468028800000,"description":null,"qualifier":"Rainfall","elevation":16}},{"type":"Feature","id":169,"geometry":{"type":"Point","coordinates":[81.633333333000053,7.7666666670000382]},"properties":{"objectid":169,"serial_number":"01BT0357","station_name":"MYLAMBAVELLY ESTATE","district":"BATTICALOA","latitude":7.7666666700000002,"longitude":81.633333329999999,"begin_date":-1096761600000,"end_date":-239500800000,"description":null,"qualifier":"Rainfall","elevation":16}},{"type":"Feature","id":170,"geometry":{"type":"Point","coordinates":[81.78333333300003,6.8000000000000682]},"properties":{"objectid":170,"serial_number":"01BT0368","station_name":"NAULA TANK","district":"BATTICALOA","latitude":6.7999999999999998,"longitude":81.783333329999991,"begin_date":-1859241600000,"end_date":-1054684800000,"description":null,"qualifier":"Rainfall","elevation":16}},{"type":"Feature","id":171,"geometry":{"type":"Point","coordinates":[81.716666667000084,7.4666666670000268]},"properties":{"objectid":171,"serial_number":"01BT0369","station_name":"NAVATKIRI AAR","district":"BATTICALOA","latitude":7.4666666699999995,"longitude":81.716666669999995,"begin_date":-1317600000000,"end_date":486345600000,"description":null,"qualifier":"Rainfall","elevation":16}},{"type":"Feature","id":172,"geometry":{"type":"Point","coordinates":[81.750000000000057,7.1833333330000642]},"properties":{"objectid":172,"serial_number":"01BT0372","station_name":"NEETHAIKULAM","district":"AMPARAI","latitude":7.18333333,"longitude":81.75,"begin_date":-1336003200000,"end_date":220838400000,"description":null,"qualifier":"Rainfall","elevation":16}},{"type":"Feature","id":173,"geometry":{"type":"Point","coordinates":[81.616666667000061,7.2500000000000568]},"properties":{"objectid":173,"serial_number":"01BT0408","station_name":"PARAGAHAKELLE","district":"BATTICALOA","latitude":7.25,"longitude":81.616666670000001,"begin_date":-347155200000,"end_date":-307843200000,"description":null,"qualifier":"Rainfall","elevation":16}},{"type":"Feature","id":174,"geometry":{"type":"Point","coordinates":[81.833333333000041,6.8833333330000528]},"properties":{"objectid":174,"serial_number":"01BT0431","station_name":"POTTUVIL ESTATE","district":"BATTICALOA","latitude":6.8833333300000001,"longitude":81.833333329999988,"begin_date":-1356998400000,"end_date":-476150400000,"description":null,"qualifier":"Rainfall","elevation":16}},{"type":"Feature","id":175,"geometry":{"type":"Point","coordinates":[81.35000000000008,7.9500000000000455]},"properties":{"objectid":175,"serial_number":"01BT0434","station_name":"PUNANI","district":"BATTICALOA","latitude":7.9500000000000002,"longitude":81.349999999999994,"begin_date":631152000000,"end_date":672969600000,"description":null,"qualifier":"Rainfall","elevation":16}},{"type":"Feature","id":176,"geometry":{"type":"Point","coordinates":[81.483333333000076,7.6666666670000723]},"properties":{"objectid":176,"serial_number":"01BT0457","station_name":"RUGAM TANK","district":"BATTICALOA","latitude":7.6666666699999997,"longitude":81.483333329999994,"begin_date":-3193776000000,"end_date":94608000000,"description":null,"qualifier":"Rainfall","elevation":16}},{"type":"Feature","id":177,"geometry":{"type":"Point","coordinates":[81.56666666700005,7.8166666670000495]},"properties":{"objectid":177,"serial_number":"01BT0468","station_name":"SITTANDIKUDI","district":"BATTICALOA","latitude":7.81666667,"longitude":81.566666669999989,"begin_date":-565401600000,"end_date":-165801600000,"description":null,"qualifier":"Rainfall","elevation":16}},{"type":"Feature","id":178,"geometry":{"type":"Point","coordinates":[81.683333333000064,7.1166666670000609]},"properties":{"objectid":178,"serial_number":"01BT0494","station_name":"THOTTAMA","district":"AMPARAI","latitude":7.1166666699999999,"longitude":81.683333329999996,"begin_date":-820540800000,"end_date":47088000000,"description":null,"qualifier":"Rainfall","elevation":16}},{"type":"Feature","id":179,"geometry":{"type":"Point","coordinates":[81.766666667000038,7.5333333330000301]},"properties":{"objectid":179,"serial_number":"01BT0495","station_name":"THUMPENKENI TANK","district":"BATTICALOA","latitude":7.5333333299999996,"longitude":81.766666669999992,"begin_date":-2161814400000,"end_date":638841600000,"description":null,"qualifier":"Rainfall","elevation":16}},{"type":"Feature","id":180,"geometry":{"type":"Point","coordinates":[81.550000000000068,7.6166666670000609]},"properties":{"objectid":180,"serial_number":"01BT0510","station_name":"UNICHCHAI TANK","district":"BATTICALOA","latitude":7.6166666699999999,"longitude":81.549999999999997,"begin_date":-2164406400000,"end_date":283910400000,"description":null,"qualifier":"Rainfall","elevation":16}},{"type":"Feature","id":181,"geometry":{"type":"Point","coordinates":[81.433333333000064,7.9166666670000723]},"properties":{"objectid":181,"serial_number":"01BT0515","station_name":"VAKANERI","district":"BATTICALOA","latitude":7.9166666699999997,"longitude":81.433333329999996,"begin_date":-2177452800000,"end_date":91929600000,"description":null,"qualifier":"Rainfall","elevation":16}},{"type":"Feature","id":182,"geometry":{"type":"Point","coordinates":[81.53333333300003,7.9166666670000723]},"properties":{"objectid":182,"serial_number":"01BT0516","station_name":"VALACHCHENAI","district":"BATTICALOA","latitude":7.9166666699999997,"longitude":81.533333329999991,"begin_date":-1002067200000,"end_date":253402214400000,"description":null,"qualifier":"Rainfall","elevation":16}},{"type":"Feature","id":183,"geometry":{"type":"Point","coordinates":[81.700000000000045,7.3666666670000609]},"properties":{"objectid":183,"serial_number":"01BT0524","station_name":"VIRAGODA","district":"BATTICALOA","latitude":7.3666666699999999,"longitude":81.700000000000003,"begin_date":-1924992000000,"end_date":220838400000,"description":null,"qualifier":"Rainfall","elevation":16}},{"type":"Feature","id":184,"geometry":{"type":"Point","coordinates":[81.56666666700005,7.2333333330000755]},"properties":{"objectid":184,"serial_number":"01BT0536","station_name":"WAWINNA","district":"AMPARAI","latitude":7.2333333299999998,"longitude":81.566666669999989,"begin_date":-568080000000,"end_date":-197424000000,"description":null,"qualifier":"Rainfall","elevation":16}},{"type":"Feature","id":185,"geometry":{"type":"Point","coordinates":[81.554166667000061,7.8930555560000357]},"properties":{"objectid":185,"serial_number":"01BT197B","station_name":"KALKUDAH","district":"BATTICALOA","latitude":7.8930555599999996,"longitude":81.554166670000001,"begin_date":836179200000,"end_date":253402214400000,"description":null,"qualifier":"Rainfall","elevation":0}},{"type":"Feature","id":186,"geometry":{"type":"Point","coordinates":[81.150000000000034,8.0666666670000495]},"properties":{"objectid":186,"serial_number":"01BT206A","station_name":"KANDAKADUTARAI","district":"BATTICALOA","latitude":8.06666667,"longitude":81.150000000000006,"begin_date":-510192000000,"end_date":-105321600000,"description":null,"qualifier":"Rainfall","elevation":16}},{"type":"Feature","id":187,"geometry":{"type":"Point","coordinates":[81.82000000000005,7.1100000000000705]},"properties":{"objectid":187,"serial_number":"01BT376A","station_name":"NEW TIRUKKOVIL","district":"BATTICALOA","latitude":7.1100000000000003,"longitude":81.819999999999993,"begin_date":-1388534400000,"end_date":-189475200000,"description":null,"qualifier":"Rainfall","elevation":16}},{"type":"Feature","id":188,"geometry":{"type":"Point","coordinates":[81.500000000000057,7.5000000000000568]},"properties":{"objectid":188,"serial_number":"01BT419A","station_name":"PERIYA ARU","district":"BATTICALOA","latitude":7.5,"longitude":81.5,"begin_date":-915148800000,"end_date":-189475200000,"description":null,"qualifier":"Rainfall","elevation":16}},{"type":"Feature","id":189,"geometry":{"type":"Point","coordinates":[81.633333333000053,7.5500000000000682]},"properties":{"objectid":189,"serial_number":"01BT433A","station_name":"PULUKUNAVI","district":"BATTICALOA","latitude":7.5499999999999998,"longitude":81.633333329999999,"begin_date":-1927670400000,"end_date":712540800000,"description":null,"qualifier":"Rainfall","elevation":16}},{"type":"Feature","id":190,"geometry":{"type":"Point","coordinates":[79.900000000000034,6.8333333330000414]},"properties":{"objectid":190,"serial_number":"01CB0003","station_name":"ALEXANDRA ESTATE","district":"COLOMBO","latitude":6.8333333300000003,"longitude":79.900000000000006,"begin_date":-978307200000,"end_date":315446400000,"description":null,"qualifier":"Rainfall","elevation":16}},{"type":"Feature","id":191,"geometry":{"type":"Point","coordinates":[79.916666667000072,6.9333333330000642]},"properties":{"objectid":191,"serial_number":"01CB0016","station_name":"ANGODA MENTAL HOSPITAL","district":"COLOMBO","latitude":6.93333333,"longitude":79.916666669999998,"begin_date":-1254528000000,"end_date":253402214400000,"description":null,"qualifier":"Rainfall","elevation":15.199999999999999}},{"type":"Feature","id":192,"geometry":{"type":"Point","coordinates":[80.183333333000064,6.9166666670000723]},"properties":{"objectid":192,"serial_number":"01CB0025","station_name":"AVISSAWELLA ESTATE","district":"COLOMBO","latitude":6.9166666699999997,"longitude":80.183333329999996,"begin_date":-2303596800000,"end_date":253402214400000,"description":null,"qualifier":"Rainfall","elevation":228.69999999999999}},{"type":"Feature","id":193,"geometry":{"type":"Point","coordinates":[80.216666667000084,6.9500000000000455]},"properties":{"objectid":193,"serial_number":"01CB0026","station_name":"AVISSAWELLA HOSPITAL","district":"COLOMBO","latitude":6.9500000000000002,"longitude":80.216666669999995,"begin_date":-2871676800000,"end_date":253402214400000,"description":null,"qualifier":"Rainfall","elevation":30.5}},{"type":"Feature","id":194,"geometry":{"type":"Point","coordinates":[79.866666667000061,6.9666666670000268]},"properties":{"objectid":194,"serial_number":"01CB0067","station_name":"COLOMBO-ELIE HOUSE","district":"COLOMBO","latitude":6.9666666699999995,"longitude":79.866666670000001,"begin_date":-1583193600000,"end_date":162777600000,"description":null,"qualifier":"Rainfall","elevation":16}},{"type":"Feature","id":195,"geometry":{"type":"Point","coordinates":[79.85000000000008,6.9333333330000642]},"properties":{"objectid":195,"serial_number":"01CB0068","station_name":"COLOMBO-FORT (S.G.O)","district":"COLOMBO","latitude":6.93333333,"longitude":79.849999999999994,"begin_date":-852076800000,"end_date":552009600000,"description":null,"qualifier":"Rainfall","elevation":16}},{"type":"Feature","id":196,"geometry":{"type":"Point","coordinates":[79.866666667000061,6.9833333330000755]},"properties":{"objectid":196,"serial_number":"01CB0069","station_name":"COLOMBO,MALIGAKANDA","district":"COLOMBO","latitude":6.9833333299999998,"longitude":79.866666670000001,"begin_date":-2398291200000,"end_date":99705600000,"description":null,"qualifier":"Rainfall","elevation":16}},{"type":"Feature","id":197,"geometry":{"type":"Point","coordinates":[79.866666667000061,6.8500000000000227]},"properties":{"objectid":197,"serial_number":"01CB0080","station_name":"DEHIWALA ZOO","district":"COLOMBO","latitude":6.8499999999999996,"longitude":79.866666670000001,"begin_date":-1051142400000,"end_date":253402214400000,"description":null,"qualifier":"Rainfall","elevation":16}},{"type":"Feature","id":198,"geometry":{"type":"Point","coordinates":[80.050000000000068,7.1833333330000642]},"properties":{"objectid":198,"serial_number":"01CB0119","station_name":"FRANKLANDS ESTATE","district":"GAMPAHA","latitude":7.18333333,"longitude":80.049999999999997,"begin_date":-2614118400000,"end_date":120873600000,"description":null,"qualifier":"Rainfall","elevation":16}},{"type":"Feature","id":199,"geometry":{"type":"Point","coordinates":[80.116666667000061,6.8833333330000528]},"properties":{"objectid":199,"serial_number":"01CB0150","station_name":"HANWELLA GROUP","district":"COLOMBO","latitude":6.8833333300000001,"longitude":80.116666670000001,"begin_date":-1186099200000,"end_date":253402214400000,"description":null,"qualifier":"Rainfall","elevation":16}},{"type":"Feature","id":200,"geometry":{"type":"Point","coordinates":[79.900000000000034,6.9833333330000755]},"properties":{"objectid":200,"serial_number":"01CB0174","station_name":"HUNUPITIYA","district":"GAMPAHA","latitude":6.9833333299999998,"longitude":79.900000000000006,"begin_date":-1041379200000,"end_date":-189475200000,"description":null,"qualifier":"Rainfall","elevation":16}},{"type":"Feature","id":201,"geometry":{"type":"Point","coordinates":[80.150000000000034,6.8833333330000528]},"properties":{"objectid":201,"serial_number":"01CB0179","station_name":"INDIKADE","district":"COLOMBO","latitude":6.8833333300000001,"longitude":80.150000000000006,"begin_date":-915148800000,"end_date":253402214400000,"description":null,"qualifier":"Rainfall","elevation":16}},{"type":"Feature","id":202,"geometry":{"type":"Point","coordinates":[80.183333333000064,6.8333333330000414]},"properties":{"objectid":202,"serial_number":"01CB0268","station_name":"LABUGAMA TANK","district":"COLOMBO","latitude":6.8333333300000003,"longitude":80.183333329999996,"begin_date":-2855433600000,"end_date":253402214400000,"description":null,"qualifier":"Rainfall","elevation":16}},{"type":"Feature","id":203,"geometry":{"type":"Point","coordinates":[79.883333333000053,6.7833333330000301]},"properties":{"objectid":203,"serial_number":"01CB0347","station_name":"MORATUWA","district":"COLOMBO","latitude":6.7833333299999996,"longitude":79.883333329999999,"begin_date":-1356998400000,"end_date":-189475200000,"description":null,"qualifier":"Rainfall","elevation":16}},{"type":"Feature","id":204,"geometry":{"type":"Point","coordinates":[80.000000000000057,6.8833333330000528]},"properties":{"objectid":204,"serial_number":"01CB0390","station_name":"ORUWALA","district":"COLOMBO","latitude":6.8833333300000001,"longitude":80,"begin_date":-92016000000,"end_date":253402214400000,"description":null,"qualifier":"Rainfall","elevation":16}},{"type":"Feature","id":205,"geometry":{"type":"Point","coordinates":[79.933333333000064,7.0333333330000301]},"properties":{"objectid":205,"serial_number":"01CB0391","station_name":"ORANGE HILL","district":"GAMPAHA","latitude":7.0333333299999996,"longitude":79.933333329999996,"begin_date":-2666649600000,"end_date":239155200000,"description":null,"qualifier":"Rainfall","elevation":16}},{"type":"Feature","id":206,"geometry":{"type":"Point","coordinates":[79.966666667000084,7.0166666670000382]},"properties":{"objectid":206,"serial_number":"01CB0446","station_name":"RANMUTHUGALA ESTATE","district":"GAMPAHA","latitude":7.0166666700000002,"longitude":79.966666669999995,"begin_date":-550800000000,"end_date":244425600000,"description":null,"qualifier":"Rainfall","elevation":16}},{"type":"Feature","id":207,"geometry":{"type":"Point","coordinates":[79.916666667000072,6.8333333330000414]},"properties":{"objectid":207,"serial_number":"01CB050A","station_name":"BORALESGAMUWA","district":"COLOMBO","latitude":6.8333333300000003,"longitude":79.916666669999998,"begin_date":652147200000,"end_date":253402214400000,"description":null,"qualifier":"Rainfall","elevation":11}},{"type":"Feature","id":208,"geometry":{"type":"Point","coordinates":[79.848611111000082,6.9305555560000585]},"properties":{"objectid":208,"serial_number":"01CB068A","station_name":"COLOMBO,RENNAISANCE HOTE","district":"COLOMBO","latitude":6.9305555600000002,"longitude":79.848611110000007,"begin_date":725846400000,"end_date":253402214400000,"description":null,"qualifier":"Rainfall","elevation":0}},{"type":"Feature","id":209,"geometry":{"type":"Point","coordinates":[79.950000000000045,6.8416666670000268]},"properties":{"objectid":209,"serial_number":"01CB087C","station_name":"PANNIPITIYA,DHARMAPALA V","district":"COLOMBO","latitude":6.8416666699999995,"longitude":79.950000000000003,"begin_date":738892800000,"end_date":253402214400000,"description":null,"qualifier":"Rainfall","elevation":0}},{"type":"Feature","id":210,"geometry":{"type":"Point","coordinates":[80.166666667000072,6.9333333330000642]},"properties":{"objectid":210,"serial_number":"01CB109A","station_name":"ELSTON","district":"COLOMBO","latitude":6.93333333,"longitude":80.166666669999998,"begin_date":441763200000,"end_date":253402214400000,"description":null,"qualifier":"Rainfall","elevation":16}},{"type":"Feature","id":211,"geometry":{"type":"Point","coordinates":[80.016666667000038,6.8333333330000414]},"properties":{"objectid":211,"serial_number":"01CB166A","station_name":"HOMAGAMA","district":"COLOMBO","latitude":6.8333333300000003,"longitude":80.016666669999992,"begin_date":657417600000,"end_date":253402214400000,"description":null,"qualifier":"Rainfall","elevation":11}},{"type":"Feature","id":212,"geometry":{"type":"Point","coordinates":[79.900000000000034,6.9166666670000723]},"properties":{"objectid":212,"serial_number":"01CB255B","station_name":"KOTTE","district":"COLOMBO","latitude":6.9166666699999997,"longitude":79.900000000000006,"begin_date":-473385600000,"end_date":126144000000,"description":null,"qualifier":"Rainfall","elevation":16}},{"type":"Feature","id":213,"geometry":{"type":"Point","coordinates":[79.861944444000073,6.925833333000071]},"properties":{"objectid":213,"serial_number":"01CB311A","station_name":"COLOMBO, MARADANA","district":"COLOMBO","latitude":6.9258333299999997,"longitude":79.861944440000002,"begin_date":725846400000,"end_date":772934400000,"description":null,"qualifier":"Rainfall","elevation":0}},{"type":"Feature","id":214,"geometry":{"type":"Point","coordinates":[80.047222222000073,6.8666666670000609]},"properties":{"objectid":214,"serial_number":"01CB369A","station_name":"Meegoda-Nawalamulla","district":"COLOMBO","latitude":6.8666666699999999,"longitude":80.047222220000009,"begin_date":1023062400000,"end_date":253402214400000,"description":null,"qualifier":"Rainfall","elevation":0}},{"type":"Feature","id":215,"geometry":{"type":"Point","coordinates":[80.016666667000038,6.7666666670000382]},"properties":{"objectid":215,"serial_number":"01CB385A","station_name":"OLABODUWA GROUP","district":"COLOMBO","latitude":6.7666666700000002,"longitude":80.016666669999992,"begin_date":-820540800000,"end_date":-473472000000,"description":null,"qualifier":"Rainfall","elevation":16}},{"type":"Feature","id":216,"geometry":{"type":"Point","coordinates":[80.016666667000038,6.7666666670000382]},"properties":{"objectid":216,"serial_number":"01CB385B","station_name":"OLABODUWA","district":"COLOMBO","latitude":6.7666666700000002,"longitude":80.016666669999992,"begin_date":-504921600000,"end_date":283910400000,"description":null,"qualifier":"Rainfall","elevation":16}},{"type":"Feature","id":217,"geometry":{"type":"Point","coordinates":[80.120833333000064,6.8250000000000455]},"properties":{"objectid":217,"serial_number":"01CB393A","station_name":"PADUKKA ESTATE","district":"COLOMBO","latitude":6.8250000000000002,"longitude":80.120833329999996,"begin_date":746841600000,"end_date":253402214400000,"description":null,"qualifier":"Rainfall","elevation":0}},{"type":"Feature","id":218,"geometry":{"type":"Point","coordinates":[80.016666667000038,6.8666666670000609]},"properties":{"objectid":218,"serial_number":"01CB403A","station_name":"PANAGODA","district":"COLOMBO","latitude":6.8666666699999999,"longitude":80.016666669999992,"begin_date":-489283200000,"end_date":-292032000000,"description":null,"qualifier":"Rainfall","elevation":16}},{"type":"Feature","id":219,"geometry":{"type":"Point","coordinates":[79.916666667000072,6.8000000000000682]},"properties":{"objectid":219,"serial_number":"01CB421A","station_name":"PILIYANDALA","district":"COLOMBO","latitude":6.7999999999999998,"longitude":79.916666669999998,"begin_date":-531360000000,"end_date":-189475200000,"description":null,"qualifier":"Rainfall","elevation":16}},{"type":"Feature","id":220,"geometry":{"type":"Point","coordinates":[80.03333333300003,6.7625000000000455]},"properties":{"objectid":220,"serial_number":"01CB424B","station_name":"PITIPANA","district":"COLOMBO","latitude":6.7625000000000002,"longitude":80.033333329999991,"begin_date":757382400000,"end_date":253402214400000,"description":null,"qualifier":"Rainfall","elevation":0}},{"type":"Feature","id":221,"geometry":{"type":"Point","coordinates":[79.85000000000008,6.9333333330000642]},"properties":{"objectid":221,"serial_number":"01CB469B","station_name":"COLOMBO PORT","district":"COLOMBO","latitude":6.93333333,"longitude":79.849999999999994,"begin_date":725846400000,"end_date":253402214400000,"description":null,"qualifier":"Rainfall","elevation":0}},{"type":"Feature","id":222,"geometry":{"type":"Point","coordinates":[79.933333333000064,6.8833333330000528]},"properties":{"objectid":222,"serial_number":"01CB478A","station_name":"ST.THOMAS ESTATE","district":"COLOMBO","latitude":6.8833333300000001,"longitude":79.933333329999996,"begin_date":-473385600000,"end_date":202348800000,"description":null,"qualifier":"Rainfall","elevation":16}},{"type":"Feature","id":223,"geometry":{"type":"Point","coordinates":[80.183333333000064,6.1833333330000642]},"properties":{"objectid":223,"serial_number":"01GL0030","station_name":"BADDEGAMA ESTATE","district":"GALLE","latitude":6.18333333,"longitude":80.183333329999996,"begin_date":-1932940800000,"end_date":253402214400000,"description":null,"qualifier":"Rainfall","elevation":15.199999999999999}},{"type":"Feature","id":224,"geometry":{"type":"Point","coordinates":[80.050000000000068,6.2833333330000301]},"properties":{"objectid":224,"serial_number":"01GL0033","station_name":"BALAPITIYA","district":"GALLE","latitude":6.2833333299999996,"longitude":80.049999999999997,"begin_date":-825811200000,"end_date":686188800000,"description":null,"qualifier":"Rainfall","elevation":16}},{"type":"Feature","id":225,"geometry":{"type":"Point","coordinates":[80.333333333000041,6.1500000000000341]},"properties":{"objectid":225,"serial_number":"01GL0041","station_name":"BEAUSEJOUR(LOWER)","district":"GALLE","latitude":6.1500000000000004,"longitude":80.333333329999988,"begin_date":-2051222400000,"end_date":253402214400000,"description":null,"qualifier":"Rainfall","elevation":61}},{"type":"Feature","id":226,"geometry":{"type":"Point","coordinates":[80.216666667000084,6.0500000000000682]},"properties":{"objectid":226,"serial_number":"01GL0045","station_name":"BIKKE RESERVOIR","district":"GALLE","latitude":6.0499999999999998,"longitude":80.216666669999995,"begin_date":-115862400000,"end_date":253402214400000,"description":null,"qualifier":"Rainfall","elevation":16}},{"type":"Feature","id":227,"geometry":{"type":"Point","coordinates":[80.050000000000068,6.2333333330000755]},"properties":{"objectid":227,"serial_number":"01GL007A","station_name":"AMBALANGODA","district":"GALLE","latitude":6.2333333299999998,"longitude":80.049999999999997,"begin_date":-110592000000,"end_date":607305600000,"description":null,"qualifier":"Rainfall","elevation":16}},{"type":"Feature","id":228,"geometry":{"type":"Point","coordinates":[80.083333333000041,6.2166666670000268]},"properties":{"objectid":228,"serial_number":"01GL0122","station_name":"GALAGODA","district":"GALLE","latitude":6.2166666699999995,"longitude":80.083333329999988,"begin_date":-1020384000000,"end_date":84067200000,"description":null,"qualifier":"Rainfall","elevation":16}},{"type":"Feature","id":229,"geometry":{"type":"Point","coordinates":[80.31666666700005,6.0666666670000495]},"properties":{"objectid":229,"serial_number":"01GL0165","station_name":"HIYARE","district":"GALLE","latitude":6.06666667,"longitude":80.316666669999989,"begin_date":-1893456000000,"end_date":253402214400000,"description":null,"qualifier":"Rainfall","elevation":100.59999999999999}},{"type":"Feature","id":230,"geometry":{"type":"Point","coordinates":[80.31666666700005,6.2000000000000455]},"properties":{"objectid":230,"serial_number":"01GL019A","station_name":"ARPTHORPE ESTATE","district":"GALLE","latitude":6.2000000000000002,"longitude":80.316666669999989,"begin_date":486432000000,"end_date":253402214400000,"description":null,"qualifier":"Rainfall","elevation":16}},{"type":"Feature","id":231,"geometry":{"type":"Point","coordinates":[80.300000000000068,6.1000000000000227]},"properties":{"objectid":231,"serial_number":"01GL0255","station_name":"KOTTAWA TANK-GALLE","district":"GALLE","latitude":6.0999999999999996,"longitude":80.299999999999997,"begin_date":-1030233600000,"end_date":304905600000,"description":null,"qualifier":"Rainfall","elevation":16}},{"type":"Feature","id":232,"geometry":{"type":"Point","coordinates":[80.233333333000076,6.0666666670000495]},"properties":{"objectid":232,"serial_number":"01GL0267","station_name":"LABUDUWA","district":"GALLE","latitude":6.06666667,"longitude":80.233333329999994,"begin_date":-1304380800000,"end_date":253402214400000,"description":null,"qualifier":"Rainfall","elevation":16}},{"type":"Feature","id":233,"geometry":{"type":"Point","coordinates":[80.216666667000084,6.3500000000000227]},"properties":{"objectid":233,"serial_number":"01GL0330","station_name":"METEWILIYA ESTATE","district":"GALLE","latitude":6.3499999999999996,"longitude":80.216666669999995,"begin_date":-549676800000,"end_date":-189475200000,"description":null,"qualifier":"Rainfall","elevation":16}},{"type":"Feature","id":234,"geometry":{"type":"Point","coordinates":[80.35000000000008,6.1666666670000723]},"properties":{"objectid":234,"serial_number":"01GL041A","station_name":"BEAUSEJOUR(UPPER)","district":"GALLE","latitude":6.1666666699999997,"longitude":80.349999999999994,"begin_date":-518140800000,"end_date":204940800000,"description":null,"qualifier":"Rainfall","elevation":16}},{"type":"Feature","id":235,"geometry":{"type":"Point","coordinates":[80.03333333300003,6.4166666670000723]},"properties":{"objectid":235,"serial_number":"01GL041B","station_name":"BENTOTA","district":"GALLE","latitude":6.4166666699999997,"longitude":80.033333329999991,"begin_date":-418176000000,"end_date":123465600000,"description":null,"qualifier":"Rainfall","elevation":16}},{"type":"Feature","id":236,"geometry":{"type":"Point","coordinates":[80.150000000000034,6.2833333330000301]},"properties":{"objectid":236,"serial_number":"01GL0476","station_name":"ST.LEONARDS ESTATE","district":"GALLE","latitude":6.2833333299999996,"longitude":80.150000000000006,"begin_date":-1293840000000,"end_date":633744000000,"description":null,"qualifier":"Rainfall","elevation":16}},{"type":"Feature","id":237,"geometry":{"type":"Point","coordinates":[80.35000000000008,6.2166666670000268]},"properties":{"objectid":237,"serial_number":"01GL0506","station_name":"UDUGAMA","district":"GALLE","latitude":6.2166666699999995,"longitude":80.349999999999994,"begin_date":-1087689600000,"end_date":-202694400000,"description":null,"qualifier":"Rainfall","elevation":16}},{"type":"Feature","id":238,"geometry":{"type":"Point","coordinates":[80.15833333300003,6.2611111110000479]},"properties":{"objectid":238,"serial_number":"01GL087C","station_name":"DEVITURAI ESTATE","district":"GALLE","latitude":6.2611111099999999,"longitude":80.158333329999991,"begin_date":757382400000,"end_date":253402214400000,"description":null,"qualifier":"Rainfall","elevation":0}},{"type":"Feature","id":239,"geometry":{"type":"Point","coordinates":[80.141944444000046,6.2919444440000234]},"properties":{"objectid":239,"serial_number":"01GL102A","station_name":"EDDUMA ESTATE","district":"GALLE","latitude":6.29194444,"longitude":80.141944440000003,"begin_date":-476064000000,"end_date":-86400000,"description":null,"qualifier":"Rainfall","elevation":16}},{"type":"Feature","id":240,"geometry":{"type":"Point","coordinates":[80.318055556000047,6.3055555560000585]},"properties":{"objectid":240,"serial_number":"01GL164A","station_name":"HINIDUMA","district":"GALLE","latitude":6.3055555600000002,"longitude":80.318055560000005,"begin_date":757382400000,"end_date":253402214400000,"description":null,"qualifier":"Rainfall","elevation":0}},{"type":"Feature","id":241,"geometry":{"type":"Point","coordinates":[80.391111111000043,6.0411111110000206]},"properties":{"objectid":241,"serial_number":"01GL177A","station_name":"ETHALHENA EST, IMADUWA","district":"GALLE","latitude":6.0411111100000001,"longitude":80.391111109999997,"begin_date":848448000000,"end_date":253402214400000,"description":null,"qualifier":"Rainfall","elevation":0}},{"type":"Feature","id":242,"geometry":{"type":"Point","coordinates":[80.333333333000041,6.2416666670000609]},"properties":{"objectid":242,"serial_number":"01GL252B","station_name":"KORELEGAMA","district":"GALLE","latitude":6.2416666699999999,"longitude":80.333333329999988,"begin_date":1001894400000,"end_date":253402214400000,"description":null,"qualifier":"Rainfall","elevation":350}},{"type":"Feature","id":243,"geometry":{"type":"Point","coordinates":[80.10000000000008,6.2000000000000455]},"properties":{"objectid":243,"serial_number":"01GL328B","station_name":"MEETIYAGODA","district":"GALLE","latitude":6.2000000000000002,"longitude":80.099999999999994,"begin_date":-5364662400000,"end_date":253402214400000,"description":null,"qualifier":"Rainfall","elevation":1}},{"type":"Feature","id":244,"geometry":{"type":"Point","coordinates":[80.150000000000034,6.0833333330000414]},"properties":{"objectid":244,"serial_number":"01GL343A","station_name":"MONROVIA GROUP","district":"GALLE","latitude":6.0833333300000003,"longitude":80.150000000000006,"begin_date":-476064000000,"end_date":253402214400000,"description":null,"qualifier":"Rainfall","elevation":16}},{"type":"Feature","id":245,"geometry":{"type":"Point","coordinates":[80.333333333000041,6.2666666670000382]},"properties":{"objectid":245,"serial_number":"01GL403B","station_name":"PANAGALA","district":"GALLE","latitude":6.2666666700000002,"longitude":80.333333329999988,"begin_date":-463017600000,"end_date":-118540800000,"description":null,"qualifier":"Rainfall","elevation":16}},{"type":"Feature","id":246,"geometry":{"type":"Point","coordinates":[80.350833333000082,6.105833333000021]},"properties":{"objectid":246,"serial_number":"01GL467A","station_name":"SIRIMEWANA GROUP","district":"GALLE","latitude":6.1058333300000003,"longitude":80.35083333,"begin_date":-470707200000,"end_date":504835200000,"description":null,"qualifier":"Rainfall","elevation":16}},{"type":"Feature","id":247,"geometry":{"type":"Point","coordinates":[80.344444444000032,6.1666666670000723]},"properties":{"objectid":247,"serial_number":"01GL478C","station_name":"STOKESLAND ESTATE","district":"GALLE","latitude":6.1666666699999997,"longitude":80.34444443999999,"begin_date":725846400000,"end_date":253402214400000,"description":null,"qualifier":"Rainfall","elevation":0}},{"type":"Feature","id":248,"geometry":{"type":"Point","coordinates":[80.333333333000041,6.3333333330000414]},"properties":{"objectid":248,"serial_number":"01GL490A","station_name":"TAWALAMA","district":"GALLE","latitude":6.3333333300000003,"longitude":80.333333329999988,"begin_date":-502243200000,"end_date":253402214400000,"description":null,"qualifier":"Rainfall","elevation":16}},{"type":"Feature","id":249,"geometry":{"type":"Point","coordinates":[80.301666667000063,6.0855555560000312]},"properties":{"objectid":249,"serial_number":"01GL491A","station_name":"WEWEGONA TEA FACTORY","district":"GALLE","latitude":6.0855555599999995,"longitude":80.301666669999989,"begin_date":848448000000,"end_date":253402214400000,"description":null,"qualifier":"Rainfall","elevation":0}},{"type":"Feature","id":250,"geometry":{"type":"Point","coordinates":[80.36000000000007,6.0166666670000382]},"properties":{"objectid":250,"serial_number":"01GL501A","station_name":"TITAGALLA, HANDUNGODA","district":"GALLE","latitude":6.0166666700000002,"longitude":80.359999999999999,"begin_date":848448000000,"end_date":253402214400000,"description":null,"qualifier":"Rainfall","elevation":0}},{"type":"Feature","id":251,"geometry":{"type":"Point","coordinates":[80.233333333000076,6.1000000000000227]},"properties":{"objectid":251,"serial_number":"01GL513B","station_name":"USGODAKANDA ESATE","district":"GALLE","latitude":6.0999999999999996,"longitude":80.233333329999994,"begin_date":612662400000,"end_date":253402214400000,"description":null,"qualifier":"Rainfall","elevation":16}},{"type":"Feature","id":252,"geometry":{"type":"Point","coordinates":[80.133333333000053,6.2666666670000382]},"properties":{"objectid":252,"serial_number":"01GL552A","station_name":"YAKKOTUWA","district":"GALLE","latitude":6.2666666700000002,"longitude":80.133333329999999,"begin_date":-1041379200000,"end_date":-86400000,"description":null,"qualifier":"Rainfall","elevation":16}},{"type":"Feature","id":253,"geometry":{"type":"Point","coordinates":[80.166666667000072,7.2833333330000301]},"properties":{"objectid":253,"serial_number":"01GM0011","station_name":"AMBEPUSSA GOVT FARM","district":"GAMPAHA","latitude":7.2833333299999996,"longitude":80.166666669999998,"begin_date":-1346630400000,"end_date":253402214400000,"description":null,"qualifier":"Rainfall","elevation":54.899999999999999}},{"type":"Feature","id":254,"geometry":{"type":"Point","coordinates":[80.083333333000041,7.0500000000000682]},"properties":{"objectid":254,"serial_number":"01GM0070","station_name":"COMMILA ESTATE","district":"GAMPAHA","latitude":7.0499999999999998,"longitude":80.083333329999988,"begin_date":-552355200000,"end_date":-121219200000,"description":null,"qualifier":"Rainfall","elevation":16}},{"type":"Feature","id":255,"geometry":{"type":"Point","coordinates":[79.800000000000068,7.3000000000000682]},"properties":{"objectid":255,"serial_number":"01GM0077","station_name":"DANKOTUWA","district":"PUTTALAM","latitude":7.2999999999999998,"longitude":79.799999999999997,"begin_date":-1002067200000,"end_date":-155174400000,"description":null,"qualifier":"Rainfall","elevation":16}},{"type":"Feature","id":256,"geometry":{"type":"Point","coordinates":[80.06666666700005,6.9500000000000455]},"properties":{"objectid":256,"serial_number":"01GM0095","station_name":"DOMPE","district":"GAMPAHA","latitude":6.9500000000000002,"longitude":80.066666669999989,"begin_date":-915148800000,"end_date":253402214400000,"description":null,"qualifier":"Rainfall","elevation":22.899999999999999}},{"type":"Feature","id":257,"geometry":{"type":"Point","coordinates":[79.983333333000076,7.1000000000000227]},"properties":{"objectid":257,"serial_number":"01GM0158","station_name":"HENARATHGODA BOT GRDNS","district":"GAMPAHA","latitude":7.0999999999999996,"longitude":79.983333329999994,"begin_date":-2492985600000,"end_date":253402214400000,"description":null,"qualifier":"Rainfall","elevation":9.0999999999999996}},