{"displayFieldName":"station_name","fieldAliases":{"objectid":"OBJECTID","serial_number":"Serial Number","station_name":"Station Name","district":"District","latitude":"Latitude","longitude":"Longitude","begin_date":"Begin Date","end_date":"End Date","description":"Description","qualifier":"qualifier","elevation":"elevation"},"geometryType":"esriGeometryPoint","spatialReference":{"wkid":4326,"latestWkid":4326},"fields":[{"name":"objectid","type":"esriFieldTypeOID","alias":"OBJECTID"},{"name":"serial_number","type":"esriFieldTypeString","alias":"Serial Number","length":50},{"name":"station_name","type":"esriFieldTypeString","alias":"Station Name","length":100},{"name":"district","type":"esriFieldTypeString","alias":"District","length":100},{"name":"latitude","type":"esriFieldTypeDouble","alias":"Latitude"},{"name":"longitude","type":"esriFieldTypeDouble","alias":"Longitude"},{"name":"begin_date","type":"esriFieldTypeDate","alias":"Begin Date","length":8},{"name":"end_date","type":"esriFieldTypeDate","alias":"End Date","length":8},{"name":"description","type":"esriFieldTypeString","alias":"Description","length":255},{"name":"qualifier","type":"esriFieldTypeString","alias":"qualifier","length":50},{"name":"elevation","type":"esriFieldTypeDouble","alias":"elevation"}],"features":[{"attributes":{"objectid":1,"serial_number":"43400","station_name":"KANKASANTURAI","district":"JAFFNA","latitude":9.8,"longitude":80.06666667,"begin_date":1401494400000,"end_date":1401494400000,"description":null,"qualifier":"Rainfall","elevation":16.0},"geometry":{"x":80.06666666700005,"y":9.8000000000000682}},{"attributes":{"objectid":2,"serial_number":"01AM0012","station_name":"AMPARAI TANK","district":"AMPARAI","latitude":7.28333333,"longitude":81.66666667,"begin_date":-2871676800000,"end_date":253402214400000,"description":null,"qualifier":"Rainfall","elevation":27.4},"geometry":{"x":81.666666667000072,"y":7.2833333330000301}},{"attributes":{"objectid":3,"serial_number":"01AM001C","station_name":"AKKARAIPATTU","district":"AMPARAI","latitude":7.21666667,"longitude":81.85,"begin_date":733622400000,"end_date":253402214400000,"description":null,"qualifier":"Rainfall","elevation":16.0},"geometry":{"x":81.85000000000008,"y":7.2166666670000268}},{"attributes":{"objectid":4,"serial_number":"01AM0060","station_name":"CHADIYANTALAWA","district":"AMPARAI","latitude":7.38333333,"longitude":81.73333333,"begin_date":-2871676800000,"end_date":-31622400000,"description":null,"qualifier":"Rainfall","elevation":16.0},"geometry":{"x":81.733333333000076,"y":7.3833333330000528}},{"attributes":{"objectid":5,"serial_number":"01AM012A","station_name":"AMPARA,HARDY TECHNICAL","district":"AMPARAI","latitude":7.28333333,"longitude":81.65,"begin_date":738892800000,"end_date":253402214400000,"description":null,"qualifier":"Rainfall","elevation":0.0},"geometry":{"x":81.650000000000034,"y":7.2833333330000301}},{"attributes":{"objectid":6,"serial_number":"01AM0182","station_name":"IRAKKAMAN","district":"AMPARAI","latitude":7.25,"longitude":81.73333333,"begin_date":-3187209600000,"end_date":253402214400000,"description":null,"qualifier":"Rainfall","elevation":12.2},"geometry":{"x":81.733333333000076,"y":7.2500000000000568}},{"attributes":{"objectid":7,"serial_number":"01AM0269","station_name":"LAHUGALA TANK","district":"AMPARAI","latitude":6.88333333,"longitude":81.7,"begin_date":-1859241600000,"end_date":544147200000,"description":null,"qualifier":"Rainfall","elevation":16.0},"geometry":{"x":81.700000000000045,"y":6.8833333330000528}},{"attributes":{"objectid":8,"serial_number":"01AM0293","station_name":"MAHA OYA","district":"AMPARAI","latitude":7.53333333,"longitude":81.36666667,"begin_date":-1764547200000,"end_date":253402214400000,"description":null,"qualifier":"Rainfall","elevation":16.0},"geometry":{"x":81.366666667000061,"y":7.5333333330000301}},{"attributes":{"objectid":9,"serial_number":"01AM0376","station_name":"TIRUKKOVIL ESTATE","district":"AMPARAI","latitude":7.11666667,"longitude":81.85,"begin_date":-1767225600000,"end_date":-441936000000,"description":null,"qualifier":"Rainfall","elevation":16.0},"geometry":{"x":81.85000000000008,"y":7.1166666670000609}},{"attributes":{"objectid":10,"serial_number":"01AM0404","station_name":"PANAWA TANK","district":"AMPARAI","latitude":6.75,"longitude":81.76666667,"begin_date":-1859241600000,"end_date":665280000000,"description":null,"qualifier":"Rainfall","elevation":16.0},"geometry":{"x":81.766666667000038,"y":6.7500000000000568}},{"attributes":{"objectid":11,"serial_number":"01AM0455","station_name":"ROTAWEWA TANK","district":"AMPARAI","latitude":6.91666667,"longitude":81.8,"begin_date":-2619216000000,"end_date":253402214400000,"description":null,"qualifier":"Rainfall","elevation":16.0},"geometry":{"x":81.800000000000068,"y":6.9166666670000723}},{"attributes":{"objectid":12,"serial_number":"00143476","station_name":"RUFUSKULAM TANK","district":"AMPARAI","latitude":7.08333333,"longitude":81.78333333,"begin_date":-1220400000000,"end_date":641433600000,"description":null,"qualifier":"Rainfall","elevation":16.0},"geometry":{"x":81.78333333300003,"y":7.0833333330000414}},{"attributes":{"objectid":13,"serial_number":"01AM0459","station_name":"SAGAMAM TANK","district":"AMPARAI","latitude":7.13333333,"longitude":81.8,"begin_date":-2871676800000,"end_date":253402214400000,"description":null,"qualifier":"Rainfall","elevation":16.0},"geometry":{"x":81.800000000000068,"y":7.1333333330000528}},{"attributes":{"objectid":14,"serial_number":"01AM0463","station_name":"SENGAPODDI","district":"AMPARAI","latitude":7.3,"longitude":81.78333333,"begin_date":-1007164800000,"end_date":253402214400000,"description":null,"qualifier":"Rainfall","elevation":16.0},"geometry":{"x":81.78333333300003,"y":7.3000000000000682}},{"attributes":{"objectid":15,"serial_number":"01AM0497","station_name":"TIMITAR ESTATE","district":"AMPARAI","latitude":7.01666667,"longitude":81.86666667,"begin_date":-1414972800000,"end_date":-197424000000,"description":null,"qualifier":"Rainfall","elevation":16.0},"geometry":{"x":81.866666667000061,"y":7.0166666670000382}},{"attributes":{"objectid":16,"serial_number":"01AM257A","station_name":"KUDASIGIRIYA","district":"AMPARAI","latitude":7.68333333,"longitude":81.13333333,"begin_date":725846400000,"end_date":253402214400000,"description":null,"qualifier":"Rainfall","elevation":0.0},"geometry":{"x":81.133333333000053,"y":7.6833333330000642}},{"attributes":{"objectid":17,"serial_number":"01AM361A","station_name":"NAMAL OYA","district":"AMPARAI","latitude":7.63333333,"longitude":81.13333333,"begin_date":852595200000,"end_date":253402214400000,"description":null,"qualifier":"Rainfall","elevation":0.0},"geometry":{"x":81.133333333000053,"y":7.6333333330000528}},{"attributes":{"objectid":18,"serial_number":"01AM368B","station_name":"NAVATKIRI ARU TANK","district":"AMPARAI","latitude":7.46666667,"longitude":81.71666667,"begin_date":-915148800000,"end_date":253402214400000,"description":null,"qualifier":"Rainfall","elevation":16.0},"geometry":{"x":81.716666667000084,"y":7.4666666670000268}},{"attributes":{"objectid":19,"serial_number":"01AM459A","station_name":"SAMANTHURAI","district":"AMPARAI","latitude":7.36666667,"longitude":81.68333333,"begin_date":1033430400000,"end_date":253402214400000,"description":null,"qualifier":"Rainfall","elevation":0.0},"geometry":{"x":81.683333333000064,"y":7.3666666670000609}},{"attributes":{"objectid":20,"serial_number":"01AM509B","station_name":"UHANA COCONUT","district":"AMPARAI","latitude":7.36666667,"longitude":81.61666667,"begin_date":691545600000,"end_date":253402214400000,"description":null,"qualifier":"Rainfall","elevation":16.0},"geometry":{"x":81.616666667000061,"y":7.3666666670000609}},{"attributes":{"objectid":21,"serial_number":"01AN0019","station_name":"ANURADHAPURA EXPL STN","district":"ANURADHAPURA","latitude":8.36666667,"longitude":80.41666667,"begin_date":-1577923200000,"end_date":253402214400000,"description":null,"qualifier":"Rainfall","elevation":91.5},"geometry":{"x":80.416666667000072,"y":8.3666666670000609}},{"attributes":{"objectid":22,"serial_number":"01AN0141","station_name":"HABARANA","district":"ANURADHAPURA","latitude":8.05,"longitude":80.76666667,"begin_date":-189388800000,"end_date":675648000000,"description":null,"qualifier":"Rainfall","elevation":16.0},"geometry":{"x":80.766666667000038,"y":8.0500000000000682}},{"attributes":{"objectid":23,"serial_number":"01AN0172","station_name":"HOROWUPATHANA,PERIPHERAL","district":"ANURADHAPURA","latitude":8.55,"longitude":80.83333333,"begin_date":-2535062400000,"end_date":-189475200000,"description":null,"qualifier":"Rainfall","elevation":60.0},"geometry":{"x":80.833333333000041,"y":8.5500000000000682}},{"attributes":{"objectid":24,"serial_number":"01AN0176","station_name":"IHALA HALMILLEWA","district":"ANURADHAPURA","latitude":8.15,"longitude":80.35,"begin_date":-1046649600000,"end_date":123465600000,"description":null,"qualifier":"Rainfall","elevation":16.0},"geometry":{"x":80.35000000000008,"y":8.1500000000000341}},{"attributes":{"objectid":25,"serial_number":"01AN0193","station_name":"KAHATAGASDIGILIYA","district":"ANURADHAPURA","latitude":8.43333333,"longitude":80.68333333,"begin_date":-915148800000,"end_date":120873600000,"description":null,"qualifier":"Rainfall","elevation":16.0},"geometry":{"x":80.683333333000064,"y":8.4333333330000642}},{"attributes":{"objectid":26,"serial_number":"01AN0197","station_name":"KALAWEWA TANK","district":"ANURADHAPURA","latitude":8.0,"longitude":80.53333333,"begin_date":-2558736000000,"end_date":253402214400000,"description":null,"qualifier":"Rainfall","elevation":122.0},"geometry":{"x":80.53333333300003,"y":8.0000000000000568}},{"attributes":{"objectid":27,"serial_number":"01AN019B","station_name":"ANURADHAPURA-MET 19B","district":"ANURADHAPURA","latitude":8.35,"longitude":80.38333333,"begin_date":-2871676800000,"end_date":253402214400000,"description":null,"qualifier":"Rainfall","elevation":102.0},"geometry":{"x":80.383333333000053,"y":8.3500000000000227}},{"attributes":{"objectid":28,"serial_number":"01AN0227","station_name":"KEBETHIGOLLEWA","district":"ANURADHAPURA","latitude":8.63333333,"longitude":80.66666667,"begin_date":-1570060800000,"end_date":504835200000,"description":null,"qualifier":"Rainfall","elevation":100.6},"geometry":{"x":80.666666667000072,"y":8.6333333330000528}},{"attributes":{"objectid":29,"serial_number":"01AN0233","station_name":"KEKIRAWA","district":"ANURADHAPURA","latitude":8.03333333,"longitude":80.6,"begin_date":-1002067200000,"end_date":-915235200000,"description":null,"qualifier":"Rainfall","elevation":16.0},"geometry":{"x":80.60000000000008,"y":8.0333333330000301}},{"attributes":{"objectid":30,"serial_number":"01AN0243","station_name":"KIRALOGAMA","district":"ANURADHAPURA","latitude":8.2,"longitude":80.38333333,"begin_date":-894153600000,"end_date":-218332800000,"description":null,"qualifier":"Rainfall","elevation":16.0},"geometry":{"x":80.383333333000053,"y":8.2000000000000455}},{"attributes":{"objectid":31,"serial_number":"01AN0252","station_name":"KOPAKULAMA","district":"ANURADHAPURA","latitude":8.4,"longitude":80.4,"begin_date":-599616000000,"end_date":-63244800000,"description":null,"qualifier":"Rainfall","elevation":16.0},"geometry":{"x":80.400000000000034,"y":8.4000000000000341}},{"attributes":{"objectid":32,"serial_number":"01AN0263","station_name":"KURUNDANKULAMA","district":"ANURADHAPURA","latitude":8.35,"longitude":80.46666667,"begin_date":-923097600000,"end_date":-189475200000,"description":null,"qualifier":"Rainfall","elevation":16.0},"geometry":{"x":80.466666667000084,"y":8.3500000000000227}},{"attributes":{"objectid":33,"serial_number":"01AN0282","station_name":"MADUTUGAMA","district":"ANURADHAPURA","latitude":7.95,"longitude":80.63333333,"begin_date":-589248000000,"end_date":-252547200000,"description":null,"qualifier":"Rainfall","elevation":16.0},"geometry":{"x":80.633333333000053,"y":7.9500000000000455}},{"attributes":{"objectid":34,"serial_number":"01AN0283","station_name":"MEDAWACHCHIYA-HOSPITAL","district":"ANURADHAPURA","latitude":8.53333333,"longitude":80.5,"begin_date":-2508883200000,"end_date":596851200000,"description":null,"qualifier":"Rainfall","elevation":16.0},"geometry":{"x":80.500000000000057,"y":8.5333333330000301}},{"attributes":{"objectid":35,"serial_number":"01AN0284","station_name":"MEDAWACHCHIYA-E.P.","district":"ANURADHAPURA","latitude":8.55,"longitude":80.48333333,"begin_date":-599616000000,"end_date":253402214400000,"description":null,"qualifier":"Rainfall","elevation":16.0},"geometry":{"x":80.483333333000076,"y":8.5500000000000682}},{"attributes":{"objectid":36,"serial_number":"01AN0298","station_name":"MAHAWILACHCHI","district":"ANURADHAPURA","latitude":8.48333333,"longitude":80.18333333,"begin_date":-536457600000,"end_date":441676800000,"description":null,"qualifier":"Rainfall","elevation":16.0},"geometry":{"x":80.183333333000064,"y":8.4833333330000755}},{"attributes":{"objectid":37,"serial_number":"01AN0312","station_name":"MARADANKADAWELA","district":"ANURADHAPURA","latitude":8.13333333,"longitude":80.56666667,"begin_date":-2558736000000,"end_date":253402214400000,"description":null,"qualifier":"Rainfall","elevation":16.0},"geometry":{"x":80.56666666700005,"y":8.1333333330000528}},{"attributes":{"objectid":38,"serial_number":"01AN0333","station_name":"MIHINTALE","district":"ANURADHAPURA","latitude":8.35,"longitude":80.51666667,"begin_date":-2840140800000,"end_date":253402214400000,"description":null,"qualifier":"Rainfall","elevation":16.0},"geometry":{"x":80.516666667000038,"y":8.3500000000000227}},{"attributes":{"objectid":39,"serial_number":"01AN0358","station_name":"NACHCHADUWA","district":"ANURADHAPURA","latitude":8.25,"longitude":80.46666667,"begin_date":-2030227200000,"end_date":253402214400000,"description":null,"qualifier":"Rainfall","elevation":16.0},"geometry":{"x":80.466666667000084,"y":8.2500000000000568}},{"attributes":{"objectid":40,"serial_number":"01AN0380","station_name":"NOCHCHIYAGAMA","district":"ANURADHAPURA","latitude":8.26666667,"longitude":80.2,"begin_date":-694310400000,"end_date":253402214400000,"description":null,"qualifier":"Rainfall","elevation":16.0},"geometry":{"x":80.200000000000045,"y":8.2666666670000382}},{"attributes":{"objectid":41,"serial_number":"01AN0393","station_name":"PADAWIYA","district":"ANURADHAPURA","latitude":8.83333333,"longitude":80.76666667,"begin_date":-189388800000,"end_date":253402214400000,"description":null,"qualifier":"Rainfall","elevation":16.0},"geometry":{"x":80.766666667000038,"y":8.8333333330000414}},{"attributes":{"objectid":42,"serial_number":"01AN0410","station_name":"PARASANGAHAWEWA","district":"ANURADHAPURA","latitude":8.45,"longitude":80.43333333,"begin_date":-589248000000,"end_date":-163123200000,"description":null,"qualifier":"Rainfall","elevation":16.0},"geometry":{"x":80.433333333000064,"y":8.4500000000000455}},{"attributes":{"objectid":43,"serial_number":"01AN0447","station_name":"RANORUWEWA","district":"ANURADHAPURA","latitude":8.36666667,"longitude":80.23333333,"begin_date":-696988800000,"end_date":444355200000,"description":null,"qualifier":"Rainfall","elevation":16.0},"geometry":{"x":80.233333333000076,"y":8.3666666670000609}},{"attributes":{"objectid":44,"serial_number":"01AN0461","station_name":"SANGILIKANDARAWA","district":"ANURADHAPURA","latitude":8.51666667,"longitude":80.53333333,"begin_date":-1822521600000,"end_date":-71193600000,"description":null,"qualifier":"Rainfall","elevation":16.0},"geometry":{"x":80.53333333300003,"y":8.5166666670000382}},{"attributes":{"objectid":45,"serial_number":"01AN0485","station_name":"TALAWA","district":"ANURADHAPURA","latitude":8.23333333,"longitude":80.35,"begin_date":-568080000000,"end_date":-368409600000,"description":null,"qualifier":"Rainfall","elevation":16.0},"geometry":{"x":80.35000000000008,"y":8.2333333330000755}},{"attributes":{"objectid":46,"serial_number":"01AN0487","station_name":"TAMBUTTEGAMA","district":"ANURADHAPURA","latitude":8.15,"longitude":80.3,"begin_date":-596937600000,"end_date":253402214400000,"description":null,"qualifier":"Rainfall","elevation":16.0},"geometry":{"x":80.300000000000068,"y":8.1500000000000341}},{"attributes":{"objectid":47,"serial_number":"01AN0538","station_name":"WELIKANDA","district":"POLONNARUWA","latitude":7.95,"longitude":81.25,"begin_date":-883612800000,"end_date":110246400000,"description":null,"qualifier":"Rainfall","elevation":16.0},"geometry":{"x":81.250000000000057,"y":7.9500000000000455}},{"attributes":{"objectid":48,"serial_number":"01AN104A","station_name":"EHETUGASWEWA","district":"ANURADHAPURA","latitude":8.96666667,"longitude":80.83333333,"begin_date":636249600000,"end_date":253402214400000,"description":null,"qualifier":"Rainfall","elevation":1111.0},"geometry":{"x":80.833333333000041,"y":8.9666666670000268}},{"attributes":{"objectid":49,"serial_number":"01AN105B","station_name":"ELAYAPATHTHUWA","district":"ANURADHAPURA","latitude":8.4,"longitude":80.31666667,"begin_date":281318400000,"end_date":253402214400000,"description":null,"qualifier":"Rainfall","elevation":16.0},"geometry":{"x":80.31666666700005,"y":8.4000000000000341}},{"attributes":{"objectid":50,"serial_number":"01AN109B","station_name":"ELAYAPATHUWA-NLDB FARM","district":"ANURADHAPURA","latitude":8.425,"longitude":80.25833333,"begin_date":1072915200000,"end_date":253402214400000,"description":null,"qualifier":"Rainfall","elevation":0.0},"geometry":{"x":80.258333333000053,"y":8.4250000000000682}},{"attributes":{"objectid":51,"serial_number":"01AN112A","station_name":"EPPAWALA WATER SUPPLY","district":"ANURADHAPURA","latitude":8.14861111,"longitude":80.41388889,"begin_date":757382400000,"end_date":253402214400000,"description":null,"qualifier":"Rainfall","elevation":0.0},"geometry":{"x":80.413888889000077,"y":8.1486111110000365}},{"attributes":{"objectid":52,"serial_number":"01AN124A","station_name":"GALKIRIYAGAMA","district":"ANURADHAPURA","latitude":7.94166667,"longitude":80.56805556,"begin_date":691545600000,"end_date":253402214400000,"description":null,"qualifier":"Rainfall","elevation":16.0},"geometry":{"x":80.568055556000047,"y":7.9416666670000495}},{"attributes":{"objectid":53,"serial_number":"01AN126B","station_name":"GALNAVA","district":"ANURADHAPURA","latitude":8.03333333,"longitude":80.48333333,"begin_date":688953600000,"end_date":725760000000,"description":null,"qualifier":"Rainfall","elevation":16.0},"geometry":{"x":80.483333333000076,"y":8.0333333330000301}},{"attributes":{"objectid":54,"serial_number":"01AN172C","station_name":"HOROWUPATANA,AGA OFFICE","district":"ANURADHAPURA","latitude":8.55,"longitude":80.15,"begin_date":244512000000,"end_date":253402214400000,"description":null,"qualifier":"Rainfall","elevation":16.0},"geometry":{"x":80.150000000000034,"y":8.5500000000000682}},{"attributes":{"objectid":55,"serial_number":"01AN172D","station_name":"HOROWUPATANA,IHALAGAMA","district":"ANURADHAPURA","latitude":8.53472222,"longitude":80.8125,"begin_date":498960000000,"end_date":253402214400000,"description":null,"qualifier":"Rainfall","elevation":0.0},"geometry":{"x":80.812500000000057,"y":8.5347222220000276}},{"attributes":{"objectid":56,"serial_number":"01AN174A","station_name":"HURULUWEWA","district":"ANURADHAPURA","latitude":8.21666667,"longitude":80.71666667,"begin_date":-694310400000,"end_date":-52790400000,"description":null,"qualifier":"Rainfall","elevation":16.0},"geometry":{"x":80.716666667000084,"y":8.2166666670000268}},{"attributes":{"objectid":57,"serial_number":"01AN193A","station_name":"KAHATAGASDIGILIYA  W/S","district":"ANURADHAPURA","latitude":8.42361111,"longitude":80.6875,"begin_date":757382400000,"end_date":253402214400000,"description":null,"qualifier":"Rainfall","elevation":0.0},"geometry":{"x":80.687500000000057,"y":8.4236111110000707}},{"attributes":{"objectid":58,"serial_number":"01AN197A","station_name":"KALAWEWA COCONUT","district":"ANURADHAPURA","latitude":8.02916667,"longitude":80.53333333,"begin_date":736214400000,"end_date":253402214400000,"description":null,"qualifier":"Rainfall","elevation":16.0},"geometry":{"x":80.53333333300003,"y":8.0291666670000268}},{"attributes":{"objectid":59,"serial_number":"01AN210A","station_name":"KANDEGAMA","district":"ANURADHAPURA","latitude":7.96666667,"longitude":80.48333333,"begin_date":-405129600000,"end_date":-310608000000,"description":null,"qualifier":"Rainfall","elevation":16.0},"geometry":{"x":80.483333333000076,"y":7.9666666670000268}},{"attributes":{"objectid":60,"serial_number":"01AN227A","station_name":"KEBITHIGOLLEWA W/S","district":"ANURADHAPURA","latitude":8.64166667,"longitude":80.66666667,"begin_date":791596800000,"end_date":253402214400000,"description":null,"qualifier":"Rainfall","elevation":0.0},"geometry":{"x":80.666666667000072,"y":8.6416666670000382}},{"attributes":{"objectid":61,"serial_number":"01AN233A","station_name":"KEKIRAWA WATER SUPPLY","district":"ANURADHAPURA","latitude":8.04166667,"longitude":80.59166667,"begin_date":757382400000,"end_date":253402214400000,"description":null,"qualifier":"Rainfall","elevation":0.0},"geometry":{"x":80.591666667000084,"y":8.0416666670000723}},{"attributes":{"objectid":62,"serial_number":"01AN289A","station_name":"MAHA BULANKULAMA","district":"ANURADHAPURA","latitude":8.28333333,"longitude":80.31666667,"begin_date":-407548800000,"end_date":-189475200000,"description":null,"qualifier":"Rainfall","elevation":16.0},"geometry":{"x":80.31666666700005,"y":8.2833333330000301}},{"attributes":{"objectid":63,"serial_number":"01AN291A","station_name":"MAHA ILUPPALLAMA TANK","district":"ANURADHAPURA","latitude":8.1,"longitude":80.46666667,"begin_date":-2051222400000,"end_date":-368409600000,"description":null,"qualifier":"Rainfall","elevation":16.0},"geometry":{"x":80.466666667000084,"y":8.1000000000000227}},{"attributes":{"objectid":64,"serial_number":"01AN291B","station_name":"MAHAILLUPPALLAMA  S/F","district":"ANURADHAPURA","latitude":8.11166667,"longitude":80.45833333,"begin_date":757382400000,"end_date":253402214400000,"description":null,"qualifier":"Rainfall","elevation":0.0},"geometry":{"x":80.458333333000041,"y":8.1116666670000654}},{"attributes":{"objectid":65,"serial_number":"01AN323A","station_name":"MEDAWACHCHIYA W/S","district":"ANURADHAPURA","latitude":8.54166667,"longitude":80.49027778,"begin_date":757382400000,"end_date":253402214400000,"description":null,"qualifier":"Rainfall","elevation":0.0},"geometry":{"x":80.490277778000063,"y":8.5416666670000723}},{"attributes":{"objectid":66,"serial_number":"01AN333B","station_name":"MIHINTALE W/S","district":"ANURADHAPURA","latitude":8.36666667,"longitude":80.51388889,"begin_date":801964800000,"end_date":253402214400000,"description":null,"qualifier":"Rainfall","elevation":0.0},"geometry":{"x":80.513888889000043,"y":8.3666666670000609}},{"attributes":{"objectid":67,"serial_number":"01AN385C","station_name":"OLUKARANDA","district":"ANURADHAPURA","latitude":8.06666667,"longitude":80.58333333,"begin_date":-568080000000,"end_date":-126316800000,"description":null,"qualifier":"Rainfall","elevation":16.0},"geometry":{"x":80.583333333000041,"y":8.0666666670000495}},{"attributes":{"objectid":68,"serial_number":"01AN410A","station_name":"Parasangahawewa Farm","district":"ANURADHAPURA","latitude":8.4625,"longitude":80.39583333,"begin_date":1041379200000,"end_date":253402214400000,"description":null,"qualifier":"Rainfall","elevation":110.0},"geometry":{"x":80.395833333000041,"y":8.4625000000000341}},{"attributes":{"objectid":69,"serial_number":"01AN466B","station_name":"SINGHAPURA","district":"TRINCOMALEE","latitude":8.9375,"longitude":80.86666667,"begin_date":883612800000,"end_date":253402214400000,"description":null,"qualifier":"Rainfall","elevation":0.0},"geometry":{"x":80.866666667000061,"y":8.9375000000000568}},{"attributes":{"objectid":70,"serial_number":"01AN485C","station_name":"TALAWA, IRRIGATION","district":"ANURADHAPURA","latitude":8.23333333,"longitude":80.34583333,"begin_date":757382400000,"end_date":253402214400000,"description":null,"qualifier":"Rainfall","elevation":0.0},"geometry":{"x":80.34583333300003,"y":8.2333333330000755}},{"attributes":{"objectid":71,"serial_number":"01AN487A","station_name":"THAMMENNAWA","district":"ANURADHAPURA","latitude":8.37638889,"longitude":80.60305556,"begin_date":725846400000,"end_date":253402214400000,"description":null,"qualifier":"Rainfall","elevation":0.0},"geometry":{"x":80.603055556000072,"y":8.3763888890000544}},{"attributes":{"objectid":72,"serial_number":"01AN497A","station_name":"TIKKUVIL","district":"ANURADHAPURA","latitude":0.0,"longitude":0.0,"begin_date":-405129600000,"end_date":410140800000,"description":null,"qualifier":"Rainfall","elevation":16.0},"geometry":{"x":"NaN","y":"NaN"}},{"attributes":{"objectid":73,"serial_number":"01AN527B","station_name":"WAHALKADA","district":"ANURADHAPURA","latitude":8.73333333,"longitude":80.85,"begin_date":880934400000,"end_date":253402214400000,"description":null,"qualifier":"Rainfall","elevation":0.0},"geometry":{"x":80.85000000000008,"y":8.7333333330000755}},{"attributes":{"objectid":74,"serial_number":"01BD0006","station_name":"ALUTHNUWARA","district":"BADULLA","latitude":7.31666667,"longitude":81.0,"begin_date":-2216937600000,"end_date":253402214400000,"description":null,"qualifier":"Rainfall","elevation":16.0},"geometry":{"x":81.000000000000057,"y":7.3166666670000495}},{"attributes":{"objectid":75,"serial_number":"01BD0034","station_name":"BANDARA ELIYA ESTATE","district":"BADULLA","latitude":6.78888889,"longitude":81.01805556,"begin_date":-1104537600000,"end_date":253402214400000,"description":null,"qualifier":"Rainfall","elevation":0.0},"geometry":{"x":81.018055556000036,"y":6.7888888890000203}},{"attributes":{"objectid":76,"serial_number":"01BD0036","station_name":"BANDARAWELA-IRRIGATION","district":"BADULLA","latitude":6.83333333,"longitude":80.98333333,"begin_date":-718070400000,"end_date":253402214400000,"description":null,"qualifier":"Rainfall","elevation":1219.5},"geometry":{"x":80.983333333000076,"y":6.8333333330000414}},{"attributes":{"objectid":77,"serial_number":"01BD0039","station_name":"BATHMEDILLA","district":"BADULLA","latitude":7.06666667,"longitude":80.96666667,"begin_date":-888883200000,"end_date":99705600000,"description":null,"qualifier":"Rainfall","elevation":1219.5},"geometry":{"x":80.966666667000084,"y":7.0666666670000495}},{"attributes":{"objectid":78,"serial_number":"01BD0047","station_name":"BLACKWOOD ESTATE (LOWER)","district":"BADULLA","latitude":6.76666667,"longitude":80.93333333,"begin_date":-1478131200000,"end_date":215568000000,"description":null,"qualifier":"Rainfall","elevation":16.0},"geometry":{"x":80.933333333000064,"y":6.7666666670000382}},{"attributes":{"objectid":79,"serial_number":"01BD0050","station_name":"BORALANDA","district":"BADULLA","latitude":6.85,"longitude":81.03333333,"begin_date":-883612800000,"end_date":-470793600000,"description":null,"qualifier":"Rainfall","elevation":16.0},"geometry":{"x":81.03333333300003,"y":6.8500000000000227}},{"attributes":{"objectid":80,"serial_number":"01BD0052","station_name":"BULUPITIYA SCHOOL","district":"BADULLA","latitude":7.27,"longitude":81.25,"begin_date":-541728000000,"end_date":-65923200000,"description":null,"qualifier":"Rainfall","elevation":16.0},"geometry":{"x":81.250000000000057,"y":7.2700000000000387}},{"attributes":{"objectid":81,"serial_number":"01BD0079","station_name":"DEBEDDE ESTATE","district":"BADULLA","latitude":6.95833333,"longitude":81.11805556,"begin_date":-1393804800000,"end_date":253402214400000,"description":null,"qualifier":"Rainfall","elevation":16.0},"geometry":{"x":81.118055556000058,"y":6.9583333330000414}},{"attributes":{"objectid":82,"serial_number":"01BD009A","station_name":"AMBARAGALA","district":"BADULLA","latitude":6.75,"longitude":80.98333333,"begin_date":896659200000,"end_date":253402214400000,"description":null,"qualifier":"Rainfall","elevation":0.0},"geometry":{"x":80.983333333000076,"y":6.7500000000000568}},{"attributes":{"objectid":83,"serial_number":"01BD0102","station_name":"DYRABBA ESTATE","district":"BADULLA","latitude":6.88333333,"longitude":80.93333333,"begin_date":-1762128000000,"end_date":253402214400000,"description":null,"qualifier":"Rainfall","elevation":1299.5},"geometry":{"x":80.933333333000064,"y":6.8833333330000528}},{"attributes":{"objectid":84,"serial_number":"01BD0105","station_name":"EKIRIYANKUMBURA","district":"BADULLA","latitude":7.3,"longitude":81.23333333,"begin_date":-852076800000,"end_date":239155200000,"description":null,"qualifier":"Rainfall","elevation":16.0},"geometry":{"x":81.233333333000076,"y":7.3000000000000682}},{"attributes":{"objectid":85,"serial_number":"01BD0108","station_name":"ELLA (KINNELAN ESTATE)","district":"BADULLA","latitude":6.86666667,"longitude":81.05,"begin_date":-1380758400000,"end_date":253402214400000,"description":null,"qualifier":"Rainfall","elevation":1006.1},"geometry":{"x":81.050000000000068,"y":6.8666666670000609}},{"attributes":{"objectid":86,"serial_number":"01BD0112","station_name":"ERABEDDE EXPTL.STATION","district":"BADULLA","latitude":6.88277778,"longitude":80.875,"begin_date":-915148800000,"end_date":247017600000,"description":null,"qualifier":"Rainfall","elevation":16.0},"geometry":{"x":80.875000000000057,"y":6.8827777780000474}},{"attributes":{"objectid":87,"serial_number":"01BD0134","station_name":"GINNIHERIYA(HORTON PLNS)","district":"BADULLA","latitude":6.8,"longitude":80.83333333,"begin_date":-1041379200000,"end_date":160358400000,"description":null,"qualifier":"Rainfall","elevation":16.0},"geometry":{"x":80.833333333000041,"y":6.8000000000000682}},{"attributes":{"objectid":88,"serial_number":"01BD0140","station_name":"GOURRAKELLE","district":"BADULLA","latitude":6.9,"longitude":81.08333333,"begin_date":-2934748800000,"end_date":675648000000,"description":null,"qualifier":"Rainfall","elevation":1189.0},"geometry":{"x":81.083333333000041,"y":6.9000000000000341}},{"attributes":{"objectid":89,"serial_number":"01BD0152","station_name":"HAPUTALE HOSPITAL","district":"BADULLA","latitude":6.78333333,"longitude":80.96666667,"begin_date":-2650752000000,"end_date":407462400000,"description":null,"qualifier":"Rainfall","elevation":16.0},"geometry":{"x":80.966666667000084,"y":6.7833333330000301}},{"attributes":{"objectid":90,"serial_number":"01BD0164","station_name":"HINGURUGAMA WATER SUPPLY","district":"BADULLA","latitude":6.96666667,"longitude":81.1,"begin_date":-986256000000,"end_date":328579200000,"description":null,"qualifier":"Rainfall","elevation":16.0},"geometry":{"x":81.10000000000008,"y":6.9666666670000268}},{"attributes":{"objectid":91,"serial_number":"01BD0168","station_name":"HORABORAWEWA","district":"BADULLA","latitude":7.36666667,"longitude":81.0,"begin_date":-1898726400000,"end_date":460080000000,"description":null,"qualifier":"Rainfall","elevation":16.0},"geometry":{"x":81.000000000000057,"y":7.3666666670000609}},{"attributes":{"objectid":92,"serial_number":"01BD0207","station_name":"KANDAKETIYA","district":"BADULLA","latitude":7.16666667,"longitude":81.01666667,"begin_date":-718070400000,"end_date":253402214400000,"description":null,"qualifier":"Rainfall","elevation":16.0},"geometry":{"x":81.016666667000038,"y":7.1666666670000723}},{"attributes":{"objectid":93,"serial_number":"01BD0229","station_name":"KEENAKELLE ESTATE","district":"BADULLA","latitude":7.05,"longitude":81.01666667,"begin_date":-1538524800000,"end_date":253402214400000,"description":null,"qualifier":"Rainfall","elevation":1432.9},"geometry":{"x":81.016666667000038,"y":7.0500000000000682}},{"attributes":{"objectid":94,"serial_number":"01BD0231","station_name":"KEHELLANDAWEWA","district":"BADULLA","latitude":0.0,"longitude":0.0,"begin_date":-1199232000000,"end_date":-189475200000,"description":null,"qualifier":"Rainfall","elevation":16.0},"geometry":{"x":"NaN","y":"NaN"}},{"attributes":{"objectid":95,"serial_number":"01BD0242","station_name":"KINIGAMA","district":"BADULLA","latitude":6.83333333,"longitude":81.05,"begin_date":-915148800000,"end_date":723081600000,"description":null,"qualifier":"Rainfall","elevation":16.0},"geometry":{"x":81.050000000000068,"y":6.8333333330000414}},{"attributes":{"objectid":96,"serial_number":"01BD0247","station_name":"KIRKLEES ESTATE","district":"BADULLA","latitude":6.98333333,"longitude":80.93333333,"begin_date":-1133395200000,"end_date":253402214400000,"description":null,"qualifier":"Rainfall","elevation":1432.9},"geometry":{"x":80.933333333000064,"y":6.9833333330000755}},{"attributes":{"objectid":97,"serial_number":"01BD0254","station_name":"KOSLANDA,POLICE STATION","district":"BADULLA","latitude":6.73333333,"longitude":81.01666667,"begin_date":-2319494400000,"end_date":253402214400000,"description":null,"qualifier":"Rainfall","elevation":16.0},"geometry":{"x":81.016666667000038,"y":6.7333333330000755}},{"attributes":{"objectid":98,"serial_number":"01BD0260","station_name":"KUMBUKKAN","district":"MONARAGALA","latitude":6.8,"longitude":81.28333333,"begin_date":-2490307200000,"end_date":-189475200000,"description":null,"qualifier":"Rainfall","elevation":16.0},"geometry":{"x":81.28333333300003,"y":6.8000000000000682}},{"attributes":{"objectid":99,"serial_number":"01BD0271","station_name":"LEDGERWATTE ESTATE","district":"BADULLA","latitude":7.03333333,"longitude":81.01666667,"begin_date":-2403561600000,"end_date":253402214400000,"description":null,"qualifier":"Rainfall","elevation":16.0},"geometry":{"x":81.016666667000038,"y":7.0333333330000301}},{"attributes":{"objectid":100,"serial_number":"01BD0272","station_name":"LEMASTOTA","district":"BADULLA","latitude":6.75,"longitude":81.0,"begin_date":-1262304000000,"end_date":-189475200000,"description":null,"qualifier":"Rainfall","elevation":16.0},"geometry":{"x":81.000000000000057,"y":6.7500000000000568}},{"attributes":{"objectid":101,"serial_number":"01BD0277","station_name":"LOWER SPRING VALLEY","district":"BADULLA","latitude":6.91666667,"longitude":81.1,"begin_date":-2695507200000,"end_date":253402214400000,"description":null,"qualifier":"Rainfall","elevation":16.0},"geometry":{"x":81.10000000000008,"y":6.9166666670000723}},{"attributes":{"objectid":102,"serial_number":"01BD0279","station_name":"LUGALOYA","district":"BADULLA","latitude":7.25888889,"longitude":81.12194444,"begin_date":-1170288000000,"end_date":-202694400000,"description":null,"qualifier":"Rainfall","elevation":16.0},"geometry":{"x":81.121944444000064,"y":7.2588888890000476}},{"attributes":{"objectid":103,"serial_number":"01BD0280","station_name":"LUNUGALA ESTATE","district":"BADULLA","latitude":6.8,"longitude":81.05,"begin_date":-1762128000000,"end_date":-197424000000,"description":null,"qualifier":"Rainfall","elevation":16.0},"geometry":{"x":81.050000000000068,"y":6.8000000000000682}},{"attributes":{"objectid":104,"serial_number":"01BD0290","station_name":"MAHADOWA ESTATE","district":"BADULLA","latitude":7.01666667,"longitude":81.16666667,"begin_date":-2143238400000,"end_date":253402214400000,"description":null,"qualifier":"Rainfall","elevation":16.0},"geometry":{"x":81.166666667000072,"y":7.0166666670000382}},{"attributes":{"objectid":105,"serial_number":"01BD0324","station_name":"MEDDEGODDE ESTATE","district":"BADULLA","latitude":0.0,"longitude":0.0,"begin_date":-1514764800000,"end_date":94608000000,"description":null,"qualifier":"Rainfall","elevation":16.0},"geometry":{"x":"NaN","y":"NaN"}},{"attributes":{"objectid":106,"serial_number":"01BD0327","station_name":"MEERIABEDDE","district":"BADULLA","latitude":6.76666667,"longitude":81.03333333,"begin_date":-3071520000000,"end_date":-189475200000,"description":null,"qualifier":"Rainfall","elevation":16.0},"geometry":{"x":81.03333333300003,"y":6.7666666670000382}},{"attributes":{"objectid":107,"serial_number":"01BD0363","station_name":"NANUPURAWA SCHOOL","district":"MONARAGALA","latitude":7.07777778,"longitude":81.258,"begin_date":-541728000000,"end_date":18230400000,"description":null,"qualifier":"Rainfall","elevation":16.0},"geometry":{"x":81.258000000000038,"y":7.0777777780000406}},{"attributes":{"objectid":108,"serial_number":"01BD0366","station_name":"NARANGALLA(BADULLA)","district":"BADULLA","latitude":7.05,"longitude":80.961,"begin_date":-1286064000000,"end_date":253402214400000,"description":null,"qualifier":"Rainfall","elevation":16.0},"geometry":{"x":80.96100000000007,"y":7.0500000000000682}},{"attributes":{"objectid":109,"serial_number":"01BD0384","station_name":"OHIYA","district":"BADULLA","latitude":6.81666667,"longitude":80.888,"begin_date":-1546300800000,"end_date":-86400000,"description":null,"qualifier":"Rainfall","elevation":16.0},"geometry":{"x":80.888000000000034,"y":6.8166666670000495}},{"attributes":{"objectid":110,"serial_number":"01BD038A","station_name":"BATHGODA-HALDUMMULLA","district":"BADULLA","latitude":6.76666667,"longitude":80.862,"begin_date":646790400000,"end_date":253402214400000,"description":null,"qualifier":"Rainfall","elevation":11.0},"geometry":{"x":80.86200000000008,"y":6.7666666670000382}},{"attributes":{"objectid":111,"serial_number":"01BD0411","station_name":"PASSARA HOSPITAL","district":"BADULLA","latitude":6.929,"longitude":81.126,"begin_date":-2222208000000,"end_date":-94780800000,"description":null,"qualifier":"Rainfall","elevation":16.0},"geometry":{"x":81.126000000000033,"y":6.9290000000000305}},{"attributes":{"objectid":112,"serial_number":"01BD042B","station_name":"BEAUVAIS ESTATE","district":"BADULLA","latitude":6.79027778,"longitude":80.827,"begin_date":838857600000,"end_date":253402214400000,"description":null,"qualifier":"Rainfall","elevation":0.0},"geometry":{"x":80.827000000000055,"y":6.7902777780000747}},{"attributes":{"objectid":113,"serial_number":"01BD0479","station_name":"STRATHEDEN ESTATE","district":"BADULLA","latitude":6.88333333,"longitude":81.285,"begin_date":-1819929600000,"end_date":126144000000,"description":null,"qualifier":"Rainfall","elevation":16.0},"geometry":{"x":81.285000000000082,"y":6.8833333330000528}},{"attributes":{"objectid":114,"serial_number":"01BD0480","station_name":"SUDUPANAWELA","district":"MONARAGALA","latitude":6.76666667,"longitude":81.1,"begin_date":-1919894400000,"end_date":244425600000,"description":null,"qualifier":"Rainfall","elevation":16.0},"geometry":{"x":81.10000000000008,"y":6.7666666670000382}},{"attributes":{"objectid":115,"serial_number":"01BD048B","station_name":"BOGAHAMADITTA","district":"BADULLA","latitude":6.96666667,"longitude":80.909,"begin_date":670464000000,"end_date":253402214400000,"description":null,"qualifier":"Rainfall","elevation":111.0},"geometry":{"x":80.909000000000049,"y":6.9666666670000268}},{"attributes":{"objectid":116,"serial_number":"01BD0504","station_name":"UDAHENA ESTATE","district":"BADULLA","latitude":6.76666667,"longitude":81.06,"begin_date":-2895436800000,"end_date":62985600000,"description":null,"qualifier":"Rainfall","elevation":16.0},"geometry":{"x":81.060000000000059,"y":6.7666666670000382}},{"attributes":{"objectid":117,"serial_number":"01BD0511","station_name":"UPPER OHIYA ESTATE","district":"BADULLA","latitude":6.819,"longitude":80.84,"begin_date":-2135548800000,"end_date":717811200000,"description":null,"qualifier":"Rainfall","elevation":16.0},"geometry":{"x":80.840000000000032,"y":6.8190000000000737}},{"attributes":{"objectid":118,"serial_number":"01BD0514","station_name":"UVA ESTATE","district":"BADULLA","latitude":6.929,"longitude":81.004,"begin_date":-1435968000000,"end_date":-113270400000,"description":null,"qualifier":"Rainfall","elevation":16.0},"geometry":{"x":81.004000000000076,"y":6.9290000000000305}},{"attributes":{"objectid":119,"serial_number":"01BD0539","station_name":"WELIMADA GROUP","district":"BADULLA","latitude":6.9,"longitude":80.9,"begin_date":-915148800000,"end_date":253402214400000,"description":null,"qualifier":"Rainfall","elevation":16.0},"geometry":{"x":80.900000000000034,"y":6.9000000000000341}},{"attributes":{"objectid":120,"serial_number":"01BD0541","station_name":"WEST HAPUTALE-UDAVERIYA","district":"BADULLA","latitude":6.78333333,"longitude":80.83333333,"begin_date":-1412294400000,"end_date":253402214400000,"description":null,"qualifier":"Rainfall","elevation":1707.0},"geometry":{"x":80.833333333000041,"y":6.7833333330000301}},{"attributes":{"objectid":121,"serial_number":"01BD0545","station_name":"WEWESSA ESTATE","district":"BADULLA","latitude":6.96666667,"longitude":81.1125,"begin_date":-1780444800000,"end_date":253402214400000,"description":null,"qualifier":"Rainfall","elevation":16.0},"geometry":{"x":81.112500000000068,"y":6.9666666670000268}},{"attributes":{"objectid":122,"serial_number":"01BD058A","station_name":"CANAWARELLA GROUP","district":"BADULLA","latitude":6.9,"longitude":81.11666667,"begin_date":-915148800000,"end_date":253402214400000,"description":null,"qualifier":"Rainfall","elevation":1237.8},"geometry":{"x":81.116666667000061,"y":6.9000000000000341}},{"attributes":{"objectid":123,"serial_number":"01BD068B","station_name":"COLCONDA DIVISION","district":"BADULLA","latitude":6.75138889,"longitude":80.94861111,"begin_date":838857600000,"end_date":253402214400000,"description":null,"qualifier":"Rainfall","elevation":0.0},"geometry":{"x":80.948611111000048,"y":6.7513888890000544}},{"attributes":{"objectid":124,"serial_number":"01BD074D","station_name":"DAMBATENNE","district":"BADULLA","latitude":6.78888889,"longitude":81.00833333,"begin_date":838857600000,"end_date":253402214400000,"description":null,"qualifier":"Rainfall","elevation":1566.0},"geometry":{"x":81.008333333000053,"y":6.7888888890000203}},{"attributes":{"objectid":125,"serial_number":"01BD082A","station_name":"DELIWA","district":"BADULLA","latitude":6.92194444,"longitude":80.96083333,"begin_date":-536457600000,"end_date":-126316800000,"description":null,"qualifier":"Rainfall","elevation":16.0},"geometry":{"x":80.960833333000039,"y":6.9219444440000757}},{"attributes":{"objectid":126,"serial_number":"01BD090A","station_name":"DIVULAPELLESSA","district":"BADULLA","latitude":7.57777778,"longitude":80.98333333,"begin_date":825638400000,"end_date":253402214400000,"description":null,"qualifier":"Rainfall","elevation":0.0},"geometry":{"x":80.983333333000076,"y":7.5777777780000406}},{"attributes":{"objectid":127,"serial_number":"01BD093A","station_name":"DIYATALAWA-SURVEY CAMP","district":"BADULLA","latitude":6.81666667,"longitude":80.96666667,"begin_date":654739200000,"end_date":253402214400000,"description":null,"qualifier":"Rainfall","elevation":111.0},"geometry":{"x":80.966666667000084,"y":6.8166666670000495}},{"attributes":{"objectid":128,"serial_number":"01BD126A","station_name":"GALOOLA ESTATE","district":"BADULLA","latitude":7.06666667,"longitude":81.15,"begin_date":70934400000,"end_date":253402214400000,"description":null,"qualifier":"Rainfall","elevation":16.0},"geometry":{"x":81.150000000000034,"y":7.0666666670000495}},{"attributes":{"objectid":129,"serial_number":"01BD127A","station_name":"Galpurayaya - G/Kotte","district":"BADULLA","latitude":7.45833333,"longitude":81.01944444,"begin_date":1038700800000,"end_date":253402214400000,"description":null,"qualifier":"Rainfall","elevation":125.0},"geometry":{"x":81.019444444000044,"y":7.4583333330000414}},{"attributes":{"objectid":130,"serial_number":"01BD131A","station_name":"GLENANORE","district":"BADULLA","latitude":6.77638889,"longitude":80.92222222,"begin_date":838857600000,"end_date":253402214400000,"description":null,"qualifier":"Rainfall","elevation":1392.0},"geometry":{"x":80.922222222000073,"y":6.7763888890000317}},{"attributes":{"objectid":131,"serial_number":"01BD134C","station_name":"GIRANDURUKOTTE W/S","district":"BADULLA","latitude":7.4625,"longitude":81.08611111,"begin_date":801964800000,"end_date":253402214400000,"description":null,"qualifier":"Rainfall","elevation":0.0},"geometry":{"x":81.086111111000037,"y":7.4625000000000341}},{"attributes":{"objectid":132,"serial_number":"01BD135A","station_name":"GLEN ALPIN ESTATE","district":"BADULLA","latitude":6.95833333,"longitude":81.08333333,"begin_date":725846400000,"end_date":253402214400000,"description":null,"qualifier":"Rainfall","elevation":0.0},"geometry":{"x":81.083333333000041,"y":6.9583333330000414}},{"attributes":{"objectid":133,"serial_number":"01BD139B","station_name":"GONAMOTAVA","district":"BADULLA","latitude":6.79861111,"longitude":80.98472222,"begin_date":838857600000,"end_date":253402214400000,"description":null,"qualifier":"Rainfall","elevation":1348.0},"geometry":{"x":80.984722222000073,"y":6.7986111110000707}},{"attributes":{"objectid":134,"serial_number":"01BD152A","station_name":"HAPUTALE FACTORY","district":"BADULLA","latitude":6.775,"longitude":80.95833333,"begin_date":838857600000,"end_date":253402214400000,"description":null,"qualifier":"Rainfall","elevation":1418.0},"geometry":{"x":80.958333333000041,"y":6.7750000000000341}},{"attributes":{"objectid":135,"serial_number":"01BD152B","station_name":"HAPUTALE REGIONAL OFFICE","district":"BADULLA","latitude":6.78472222,"longitude":80.975,"begin_date":838857600000,"end_date":253402214400000,"description":null,"qualifier":"Rainfall","elevation":0.0},"geometry":{"x":80.97500000000008,"y":6.7847222220000276}},{"attributes":{"objectid":136,"serial_number":"01BD157A","station_name":"HEMBARAWA","district":"BADULLA","latitude":7.51666667,"longitude":80.98333333,"begin_date":-512870400000,"end_date":-100051200000,"description":null,"qualifier":"Rainfall","elevation":16.0},"geometry":{"x":80.983333333000076,"y":7.5166666670000382}},{"attributes":{"objectid":137,"serial_number":"01BD159B","station_name":"HILPANKANDURA ESTATE","district":"BADULLA","latitude":6.89,"longitude":80.91,"begin_date":702086400000,"end_date":253402214400000,"description":null,"qualifier":"Rainfall","elevation":16.0},"geometry":{"x":80.910000000000082,"y":6.8900000000000432}},{"attributes":{"objectid":138,"serial_number":"01BD180A","station_name":"INGINIYAGALA","district":"MONARAGALA","latitude":7.21666667,"longitude":81.53333333,"begin_date":-441849600000,"end_date":241833600000,"description":null,"qualifier":"Rainfall","elevation":16.0},"geometry":{"x":81.53333333300003,"y":7.2166666670000268}},{"attributes":{"objectid":139,"serial_number":"01BD193B","station_name":"KAHAGALLA ESTATE","district":"BADULLA","latitude":6.79444444,"longitude":80.97222222,"begin_date":838857600000,"end_date":253402214400000,"description":null,"qualifier":"Rainfall","elevation":0.0},"geometry":{"x":80.972222222000084,"y":6.7944444440000211}},{"attributes":{"objectid":140,"serial_number":"01BD218A","station_name":"KARANDAGAMA","district":"BADULLA","latitude":6.91666667,"longitude":81.23333333,"begin_date":-497145600000,"end_date":-10627200000,"description":null,"qualifier":"Rainfall","elevation":16.0},"geometry":{"x":81.233333333000076,"y":6.9166666670000723}},{"attributes":{"objectid":141,"serial_number":"01BD254A","station_name":"KOSLANDA ESTATE","district":"BADULLA","latitude":6.73333333,"longitude":81.08333333,"begin_date":901929600000,"end_date":253402214400000,"description":null,"qualifier":"Rainfall","elevation":0.0},"geometry":{"x":81.083333333000041,"y":6.7333333330000755}},{"attributes":{"objectid":142,"serial_number":"01BD310A","station_name":"MAPAKADAWEWA","district":"BADULLA","latitude":7.26666667,"longitude":81.03333333,"begin_date":-915148800000,"end_date":253402214400000,"description":null,"qualifier":"Rainfall","elevation":16.0},"geometry":{"x":81.03333333300003,"y":7.2666666670000382}},{"attributes":{"objectid":143,"serial_number":"01BD317Q","station_name":"RANTEMBE","district":"BADULLA","latitude":7.21444444,"longitude":80.94777778,"begin_date":859852800000,"end_date":253402214400000,"description":null,"qualifier":"Rainfall","elevation":0.0},"geometry":{"x":80.947777778000045,"y":7.214444444000037}},{"attributes":{"objectid":144,"serial_number":"01BD330C","station_name":"MICKLEFIELD FARM","district":"BADULLA","latitude":6.8625,"longitude":80.89722222,"begin_date":725846400000,"end_date":253402214400000,"description":null,"qualifier":"Rainfall","elevation":0.0},"geometry":{"x":80.897222222000039,"y":6.8625000000000682}},{"attributes":{"objectid":145,"serial_number":"01BD353C","station_name":"MULLEGAMA","district":"BADULLA","latitude":6.955,"longitude":80.88777778,"begin_date":-531360000000,"end_date":-315705600000,"description":null,"qualifier":"Rainfall","elevation":16.0},"geometry":{"x":80.887777778000043,"y":6.9550000000000409}},{"attributes":{"objectid":146,"serial_number":"01BD368C","station_name":"NAYABEDDE BUNGALOW","district":"BADULLA","latitude":6.80555556,"longitude":80.99444444,"begin_date":838857600000,"end_date":253402214400000,"description":null,"qualifier":"Rainfall","elevation":0.0},"geometry":{"x":80.994444444000067,"y":6.8055555560000585}},{"attributes":{"objectid":147,"serial_number":"01BD368D","station_name":"NAYABEDDE","district":"BADULLA","latitude":6.80138889,"longitude":80.9,"begin_date":838857600000,"end_date":253402214400000,"description":null,"qualifier":"Rainfall","elevation":0.0},"geometry":{"x":80.900000000000034,"y":6.8013888890000658}},{"attributes":{"objectid":148,"serial_number":"01BD377A","station_name":"NILGALA","district":"MONARAGALA","latitude":7.18333333,"longitude":81.36666667,"begin_date":-441849600000,"end_date":60307200000,"description":null,"qualifier":"Rainfall","elevation":16.0},"geometry":{"x":81.366666667000061,"y":7.1833333330000642}},{"attributes":{"objectid":149,"serial_number":"01BD411A","station_name":"PASSARA ESTATE","district":"BADULLA","latitude":6.93333333,"longitude":81.17083333,"begin_date":799286400000,"end_date":253402214400000,"description":null,"qualifier":"Rainfall","elevation":0.0},"geometry":{"x":81.170833333000076,"y":6.9333333330000642}},{"attributes":{"objectid":150,"serial_number":"01BD424C","station_name":"PITARAT MALAI ESTATE","district":"BADULLA","latitude":6.78333333,"longitude":80.99166667,"begin_date":838857600000,"end_date":253402214400000,"description":null,"qualifier":"Rainfall","elevation":1524.0},"geometry":{"x":80.991666667000061,"y":6.7833333330000301}},{"attributes":{"objectid":151,"serial_number":"01BD428C","station_name":"POONAGALA, PG DIVISION","district":"BADULLA","latitude":6.78333333,"longitude":81.05,"begin_date":852595200000,"end_date":253402214400000,"description":null,"qualifier":"Rainfall","elevation":0.0},"geometry":{"x":81.050000000000068,"y":6.7833333330000301}},{"attributes":{"objectid":152,"serial_number":"01BD428D","station_name":"POONAGALA, LLG DIV","district":"BADULLA","latitude":6.775,"longitude":81.04166667,"begin_date":852595200000,"end_date":253402214400000,"description":null,"qualifier":"Rainfall","elevation":0.0},"geometry":{"x":81.041666667000072,"y":6.7750000000000341}},{"attributes":{"objectid":153,"serial_number":"01BD428E","station_name":"POONAGALA, CG DIVISION","district":"BADULLA","latitude":6.75833333,"longitude":81.04527778,"begin_date":852595200000,"end_date":253402214400000,"description":null,"qualifier":"Rainfall","elevation":0.0},"geometry":{"x":81.04527777800007,"y":6.7583333330000528}},{"attributes":{"objectid":154,"serial_number":"01BD428F","station_name":"POONAGALA GROUP, FACTORY","district":"BADULLA","latitude":6.77916667,"longitude":81.04583333,"begin_date":852595200000,"end_date":253402214400000,"description":null,"qualifier":"Rainfall","elevation":0.0},"geometry":{"x":81.045833333000076,"y":6.7791666670000268}},{"attributes":{"objectid":155,"serial_number":"01BD428G","station_name":"POONAGALA, MCL DIV","district":"BADULLA","latitude":6.74166667,"longitude":81.05,"begin_date":852595200000,"end_date":253402214400000,"description":null,"qualifier":"Rainfall","elevation":0.0},"geometry":{"x":81.050000000000068,"y":6.7416666670000609}},{"attributes":{"objectid":156,"serial_number":"01BD428H","station_name":"POONAGALA, BTN DIV","district":"BADULLA","latitude":6.8,"longitude":81.05,"begin_date":852595200000,"end_date":253402214400000,"description":null,"qualifier":"Rainfall","elevation":0.0},"geometry":{"x":81.050000000000068,"y":6.8000000000000682}},{"attributes":{"objectid":157,"serial_number":"01BD428I","station_name":"POONAGALA, ULG DIV","district":"BADULLA","latitude":6.79166667,"longitude":81.04722222,"begin_date":852595200000,"end_date":253402214400000,"description":null,"qualifier":"Rainfall","elevation":0.0},"geometry":{"x":81.047222222000073,"y":6.7916666670000723}},{"attributes":{"objectid":158,"serial_number":"01BD428J","station_name":"POONAGALA, FACTORY DIV","district":"BADULLA","latitude":6.78194444,"longitude":81.05416667,"begin_date":852595200000,"end_date":253402214400000,"description":null,"qualifier":"Rainfall","elevation":0.0},"geometry":{"x":81.054166667000061,"y":6.7819444440000325}},{"attributes":{"objectid":159,"serial_number":"01BD428K","station_name":"POONAGALA, UH DIVISION","district":"BADULLA","latitude":6.7625,"longitude":81.06111111,"begin_date":852595200000,"end_date":253402214400000,"description":null,"qualifier":"Rainfall","elevation":0.0},"geometry":{"x":81.061111111000059,"y":6.7625000000000455}},{"attributes":{"objectid":160,"serial_number":"01BD473C","station_name":"ST.CATHERINE DIVISION","district":"BADULLA","latitude":6.79861111,"longitude":81.01666667,"begin_date":838857600000,"end_date":253402214400000,"description":null,"qualifier":"Rainfall","elevation":0.0},"geometry":{"x":81.016666667000038,"y":6.7986111110000707}},{"attributes":{"objectid":161,"serial_number":"01BD545A","station_name":"WEWESSE MIDDLE DIVISION","district":"BADULLA","latitude":6.95833333,"longitude":81.1,"begin_date":862444800000,"end_date":253402214400000,"description":null,"qualifier":"Rainfall","elevation":0.0},"geometry":{"x":81.10000000000008,"y":6.9583333330000414}},{"attributes":{"objectid":162,"serial_number":"01BT0027","station_name":"AYITHIYAMALAI","district":"BATTICALOA","latitude":7.66666667,"longitude":81.56666667,"begin_date":-775872000000,"end_date":5011200000,"description":null,"qualifier":"Rainfall","elevation":16.0},"geometry":{"x":81.56666666700005,"y":7.6666666670000723}},{"attributes":{"objectid":163,"serial_number":"01BT0191","station_name":"KADUKKAMUNAI","district":"BATTICALOA","latitude":7.6,"longitude":81.75,"begin_date":-1927670400000,"end_date":253402214400000,"description":null,"qualifier":"Rainfall","elevation":3.0},"geometry":{"x":81.750000000000057,"y":7.6000000000000227}},{"attributes":{"objectid":164,"serial_number":"01BT0198","station_name":"KALMUNAI","district":"BATTICALOA","latitude":7.41666667,"longitude":81.83333333,"begin_date":-2871676800000,"end_date":253402214400000,"description":null,"qualifier":"Rainfall","elevation":3.0},"geometry":{"x":81.833333333000041,"y":7.4166666670000723}},{"attributes":{"objectid":165,"serial_number":"01BT0206","station_name":"KANAKADU","district":"BATTICALOA","latitude":7.25,"longitude":81.63333333,"begin_date":-1843603200000,"end_date":-71193600000,"description":null,"qualifier":"Rainfall","elevation":16.0},"geometry":{"x":81.633333333000053,"y":7.2500000000000568}},{"attributes":{"objectid":166,"serial_number":"01BT0217","station_name":"KARADIYAN ARU","district":"BATTICALOA","latitude":7.7,"longitude":81.53333333,"begin_date":-1009843200000,"end_date":57715200000,"description":null,"qualifier":"Rainfall","elevation":16.0},"geometry":{"x":81.53333333300003,"y":7.7000000000000455}},{"attributes":{"objectid":167,"serial_number":"01BT0261","station_name":"KUMANA","district":"AMPARAI","latitude":6.51666667,"longitude":81.7,"begin_date":-846979200000,"end_date":-189475200000,"description":null,"qualifier":"Rainfall","elevation":16.0},"geometry":{"x":81.700000000000045,"y":6.5166666670000382}},{"attributes":{"objectid":168,"serial_number":"01BT0304","station_name":"MANALPITI ARU ANICUT","district":"BATTICALOA","latitude":7.56666667,"longitude":81.68333333,"begin_date":-2361657600000,"end_date":468028800000,"description":null,"qualifier":"Rainfall","elevation":16.0},"geometry":{"x":81.683333333000064,"y":7.5666666670000495}},{"attributes":{"objectid":169,"serial_number":"01BT0357","station_name":"MYLAMBAVELLY ESTATE","district":"BATTICALOA","latitude":7.76666667,"longitude":81.63333333,"begin_date":-1096761600000,"end_date":-239500800000,"description":null,"qualifier":"Rainfall","elevation":16.0},"geometry":{"x":81.633333333000053,"y":7.7666666670000382}},{"attributes":{"objectid":170,"serial_number":"01BT0368","station_name":"NAULA TANK","district":"BATTICALOA","latitude":6.8,"longitude":81.78333333,"begin_date":-1859241600000,"end_date":-1054684800000,"description":null,"qualifier":"Rainfall","elevation":16.0},"geometry":{"x":81.78333333300003,"y":6.8000000000000682}},{"attributes":{"objectid":171,"serial_number":"01BT0369","station_name":"NAVATKIRI AAR","district":"BATTICALOA","latitude":7.46666667,"longitude":81.71666667,"begin_date":-1317600000000,"end_date":486345600000,"description":null,"qualifier":"Rainfall","elevation":16.0},"geometry":{"x":81.716666667000084,"y":7.4666666670000268}},{"attributes":{"objectid":172,"serial_number":"01BT0372","station_name":"NEETHAIKULAM","district":"AMPARAI","latitude":7.18333333,"longitude":81.75,"begin_date":-1336003200000,"end_date":220838400000,"description":null,"qualifier":"Rainfall","elevation":16.0},"geometry":{"x":81.750000000000057,"y":7.1833333330000642}},{"attributes":{"objectid":173,"serial_number":"01BT0408","station_name":"PARAGAHAKELLE","district":"BATTICALOA","latitude":7.25,"longitude":81.61666667,"begin_date":-347155200000,"end_date":-307843200000,"description":null,"qualifier":"Rainfall","elevation":16.0},"geometry":{"x":81.616666667000061,"y":7.2500000000000568}},{"attributes":{"objectid":174,"serial_number":"01BT0431","station_name":"POTTUVIL ESTATE","district":"BATTICALOA","latitude":6.88333333,"longitude":81.83333333,"begin_date":-1356998400000,"end_date":-476150400000,"description":null,"qualifier":"Rainfall","elevation":16.0},"geometry":{"x":81.833333333000041,"y":6.8833333330000528}},{"attributes":{"objectid":175,"serial_number":"01BT0434","station_name":"PUNANI","district":"BATTICALOA","latitude":7.95,"longitude":81.35,"begin_date":631152000000,"end_date":672969600000,"description":null,"qualifier":"Rainfall","elevation":16.0},"geometry":{"x":81.35000000000008,"y":7.9500000000000455}},{"attributes":{"objectid":176,"serial_number":"01BT0457","station_name":"RUGAM TANK","district":"BATTICALOA","latitude":7.66666667,"longitude":81.48333333,"begin_date":-3193776000000,"end_date":94608000000,"description":null,"qualifier":"Rainfall","elevation":16.0},"geometry":{"x":81.483333333000076,"y":7.6666666670000723}},{"attributes":{"objectid":177,"serial_number":"01BT0468","station_name":"SITTANDIKUDI","district":"BATTICALOA","latitude":7.81666667,"longitude":81.56666667,"begin_date":-565401600000,"end_date":-165801600000,"description":null,"qualifier":"Rainfall","elevation":16.0},"geometry":{"x":81.56666666700005,"y":7.8166666670000495}},{"attributes":{"objectid":178,"serial_number":"01BT0494","station_name":"THOTTAMA","district":"AMPARAI","latitude":7.11666667,"longitude":81.68333333,"begin_date":-820540800000,"end_date":47088000000,"description":null,"qualifier":"Rainfall","elevation":16.0},"geometry":{"x":81.683333333000064,"y":7.1166666670000609}},{"attributes":{"objectid":179,"serial_number":"01BT0495","station_name":"THUMPENKENI TANK","district":"BATTICALOA","latitude":7.53333333,"longitude":81.76666667,"begin_date":-2161814400000,"end_date":638841600000,"description":null,"qualifier":"Rainfall","elevation":16.0},"geometry":{"x":81.766666667000038,"y":7.5333333330000301}},{"attributes":{"objectid":180,"serial_number":"01BT0510","station_name":"UNICHCHAI TANK","district":"BATTICALOA","latitude":7.61666667,"longitude":81.55,"begin_date":-2164406400000,"end_date":283910400000,"description":null,"qualifier":"Rainfall","elevation":16.0},"geometry":{"x":81.550000000000068,"y":7.6166666670000609}},{"attributes":{"objectid":181,"serial_number":"01BT0515","station_name":"VAKANERI","district":"BATTICALOA","latitude":7.91666667,"longitude":81.43333333,"begin_date":-2177452800000,"end_date":91929600000,"description":null,"qualifier":"Rainfall","elevation":16.0},"geometry":{"x":81.433333333000064,"y":7.9166666670000723}},{"attributes":{"objectid":182,"serial_number":"01BT0516","station_name":"VALACHCHENAI","district":"BATTICALOA","latitude":7.91666667,"longitude":81.53333333,"begin_date":-1002067200000,"end_date":253402214400000,"description":null,"qualifier":"Rainfall","elevation":16.0},"geometry":{"x":81.53333333300003,"y":7.9166666670000723}},{"attributes":{"objectid":183,"serial_number":"01BT0524","station_name":"VIRAGODA","district":"BATTICALOA","latitude":7.36666667,"longitude":81.7,"begin_date":-1924992000000,"end_date":220838400000,"description":null,"qualifier":"Rainfall","elevation":16.0},"geometry":{"x":81.700000000000045,"y":7.3666666670000609}},{"attributes":{"objectid":184,"serial_number":"01BT0536","station_name":"WAWINNA","district":"AMPARAI","latitude":7.23333333,"longitude":81.56666667,"begin_date":-568080000000,"end_date":-197424000000,"description":null,"qualifier":"Rainfall","elevation":16.0},"geometry":{"x":81.56666666700005,"y":7.2333333330000755}},{"attributes":{"objectid":185,"serial_number":"01BT197B","station_name":"KALKUDAH","district":"BATTICALOA","latitude":7.89305556,"longitude":81.55416667,"begin_date":836179200000,"end_date":253402214400000,"description":null,"qualifier":"Rainfall","elevation":0.0},"geometry":{"x":81.554166667000061,"y":7.8930555560000357}},{"attributes":{"objectid":186,"serial_number":"01BT206A","station_name":"KANDAKADUTARAI","district":"BATTICALOA","latitude":8.06666667,"longitude":81.15,"begin_date":-510192000000,"end_date":-105321600000,"description":null,"qualifier":"Rainfall","elevation":16.0},"geometry":{"x":81.150000000000034,"y":8.0666666670000495}},{"attributes":{"objectid":187,"serial_number":"01BT376A","station_name":"NEW TIRUKKOVIL","district":"BATTICALOA","latitude":7.11,"longitude":81.82,"begin_date":-1388534400000,"end_date":-189475200000,"description":null,"qualifier":"Rainfall","elevation":16.0},"geometry":{"x":81.82000000000005,"y":7.1100000000000705}},{"attributes":{"objectid":188,"serial_number":"01BT419A","station_name":"PERIYA ARU","district":"BATTICALOA","latitude":7.5,"longitude":81.5,"begin_date":-915148800000,"end_date":-189475200000,"description":null,"qualifier":"Rainfall","elevation":16.0},"geometry":{"x":81.500000000000057,"y":7.5000000000000568}},{"attributes":{"objectid":189,"serial_number":"01BT433A","station_name":"PULUKUNAVI","district":"BATTICALOA","latitude":7.55,"longitude":81.63333333,"begin_date":-1927670400000,"end_date":712540800000,"description":null,"qualifier":"Rainfall","elevation":16.0},"geometry":{"x":81.633333333000053,"y":7.5500000000000682}},{"attributes":{"objectid":190,"serial_number":"01CB0003","station_name":"ALEXANDRA ESTATE","district":"COLOMBO","latitude":6.83333333,"longitude":79.9,"begin_date":-978307200000,"end_date":315446400000,"description":null,"qualifier":"Rainfall","elevation":16.0},"geometry":{"x":79.900000000000034,"y":6.8333333330000414}},{"attributes":{"objectid":191,"serial_number":"01CB0016","station_name":"ANGODA MENTAL HOSPITAL","district":"COLOMBO","latitude":6.93333333,"longitude":79.91666667,"begin_date":-1254528000000,"end_date":253402214400000,"description":null,"qualifier":"Rainfall","elevation":15.2},"geometry":{"x":79.916666667000072,"y":6.9333333330000642}},{"attributes":{"objectid":192,"serial_number":"01CB0025","station_name":"AVISSAWELLA ESTATE","district":"COLOMBO","latitude":6.91666667,"longitude":80.18333333,"begin_date":-2303596800000,"end_date":253402214400000,"description":null,"qualifier":"Rainfall","elevation":228.7},"geometry":{"x":80.183333333000064,"y":6.9166666670000723}},{"attributes":{"objectid":193,"serial_number":"01CB0026","station_name":"AVISSAWELLA HOSPITAL","district":"COLOMBO","latitude":6.95,"longitude":80.21666667,"begin_date":-2871676800000,"end_date":253402214400000,"description":null,"qualifier":"Rainfall","elevation":30.5},"geometry":{"x":80.216666667000084,"y":6.9500000000000455}},{"attributes":{"objectid":194,"serial_number":"01CB0067","station_name":"COLOMBO-ELIE HOUSE","district":"COLOMBO","latitude":6.96666667,"longitude":79.86666667,"begin_date":-1583193600000,"end_date":162777600000,"description":null,"qualifier":"Rainfall","elevation":16.0},"geometry":{"x":79.866666667000061,"y":6.9666666670000268}},{"attributes":{"objectid":195,"serial_number":"01CB0068","station_name":"COLOMBO-FORT (S.G.O)","district":"COLOMBO","latitude":6.93333333,"longitude":79.85,"begin_date":-852076800000,"end_date":552009600000,"description":null,"qualifier":"Rainfall","elevation":16.0},"geometry":{"x":79.85000000000008,"y":6.9333333330000642}},{"attributes":{"objectid":196,"serial_number":"01CB0069","station_name":"COLOMBO,MALIGAKANDA","district":"COLOMBO","latitude":6.98333333,"longitude":79.86666667,"begin_date":-2398291200000,"end_date":99705600000,"description":null,"qualifier":"Rainfall","elevation":16.0},"geometry":{"x":79.866666667000061,"y":6.9833333330000755}},{"attributes":{"objectid":197,"serial_number":"01CB0080","station_name":"DEHIWALA ZOO","district":"COLOMBO","latitude":6.85,"longitude":79.86666667,"begin_date":-1051142400000,"end_date":253402214400000,"description":null,"qualifier":"Rainfall","elevation":16.0},"geometry":{"x":79.866666667000061,"y":6.8500000000000227}},{"attributes":{"objectid":198,"serial_number":"01CB0119","station_name":"FRANKLANDS ESTATE","district":"GAMPAHA","latitude":7.18333333,"longitude":80.05,"begin_date":-2614118400000,"end_date":120873600000,"description":null,"qualifier":"Rainfall","elevation":16.0},"geometry":{"x":80.050000000000068,"y":7.1833333330000642}},{"attributes":{"objectid":199,"serial_number":"01CB0150","station_name":"HANWELLA GROUP","district":"COLOMBO","latitude":6.88333333,"longitude":80.11666667,"begin_date":-1186099200000,"end_date":253402214400000,"description":null,"qualifier":"Rainfall","elevation":16.0},"geometry":{"x":80.116666667000061,"y":6.8833333330000528}},{"attributes":{"objectid":200,"serial_number":"01CB0174","station_name":"HUNUPITIYA","district":"GAMPAHA","latitude":6.98333333,"longitude":79.9,"begin_date":-1041379200000,"end_date":-189475200000,"description":null,"qualifier":"Rainfall","elevation":16.0},"geometry":{"x":79.900000000000034,"y":6.9833333330000755}},{"attributes":{"objectid":201,"serial_number":"01CB0179","station_name":"INDIKADE","district":"COLOMBO","latitude":6.88333333,"longitude":80.15,"begin_date":-915148800000,"end_date":253402214400000,"description":null,"qualifier":"Rainfall","elevation":16.0},"geometry":{"x":80.150000000000034,"y":6.8833333330000528}},{"attributes":{"objectid":202,"serial_number":"01CB0268","station_name":"LABUGAMA TANK","district":"COLOMBO","latitude":6.83333333,"longitude":80.18333333,"begin_date":-2855433600000,"end_date":253402214400000,"description":null,"qualifier":"Rainfall","elevation":16.0},"geometry":{"x":80.183333333000064,"y":6.8333333330000414}},{"attributes":{"objectid":203,"serial_number":"01CB0347","station_name":"MORATUWA","district":"COLOMBO","latitude":6.78333333,"longitude":79.88333333,"begin_date":-1356998400000,"end_date":-189475200000,"description":null,"qualifier":"Rainfall","elevation":16.0},"geometry":{"x":79.883333333000053,"y":6.7833333330000301}},{"attributes":{"objectid":204,"serial_number":"01CB0390","station_name":"ORUWALA","district":"COLOMBO","latitude":6.88333333,"longitude":80.0,"begin_date":-92016000000,"end_date":253402214400000,"description":null,"qualifier":"Rainfall","elevation":16.0},"geometry":{"x":80.000000000000057,"y":6.8833333330000528}},{"attributes":{"objectid":205,"serial_number":"01CB0391","station_name":"ORANGE HILL","district":"GAMPAHA","latitude":7.03333333,"longitude":79.93333333,"begin_date":-2666649600000,"end_date":239155200000,"description":null,"qualifier":"Rainfall","elevation":16.0},"geometry":{"x":79.933333333000064,"y":7.0333333330000301}},{"attributes":{"objectid":206,"serial_number":"01CB0446","station_name":"RANMUTHUGALA ESTATE","district":"GAMPAHA","latitude":7.01666667,"longitude":79.96666667,"begin_date":-550800000000,"end_date":244425600000,"description":null,"qualifier":"Rainfall","elevation":16.0},"geometry":{"x":79.966666667000084,"y":7.0166666670000382}},{"attributes":{"objectid":207,"serial_number":"01CB050A","station_name":"BORALESGAMUWA","district":"COLOMBO","latitude":6.83333333,"longitude":79.91666667,"begin_date":652147200000,"end_date":253402214400000,"description":null,"qualifier":"Rainfall","elevation":11.0},"geometry":{"x":79.916666667000072,"y":6.8333333330000414}},{"attributes":{"objectid":208,"serial_number":"01CB068A","station_name":"COLOMBO,RENNAISANCE HOTE","district":"COLOMBO","latitude":6.93055556,"longitude":79.84861111,"begin_date":725846400000,"end_date":253402214400000,"description":null,"qualifier":"Rainfall","elevation":0.0},"geometry":{"x":79.848611111000082,"y":6.9305555560000585}},{"attributes":{"objectid":209,"serial_number":"01CB087C","station_name":"PANNIPITIYA,DHARMAPALA V","district":"COLOMBO","latitude":6.84166667,"longitude":79.95,"begin_date":738892800000,"end_date":253402214400000,"description":null,"qualifier":"Rainfall","elevation":0.0},"geometry":{"x":79.950000000000045,"y":6.8416666670000268}},{"attributes":{"objectid":210,"serial_number":"01CB109A","station_name":"ELSTON","district":"COLOMBO","latitude":6.93333333,"longitude":80.16666667,"begin_date":441763200000,"end_date":253402214400000,"description":null,"qualifier":"Rainfall","elevation":16.0},"geometry":{"x":80.166666667000072,"y":6.9333333330000642}},{"attributes":{"objectid":211,"serial_number":"01CB166A","station_name":"HOMAGAMA","district":"COLOMBO","latitude":6.83333333,"longitude":80.01666667,"begin_date":657417600000,"end_date":253402214400000,"description":null,"qualifier":"Rainfall","elevation":11.0},"geometry":{"x":80.016666667000038,"y":6.8333333330000414}},{"attributes":{"objectid":212,"serial_number":"01CB255B","station_name":"KOTTE","district":"COLOMBO","latitude":6.91666667,"longitude":79.9,"begin_date":-473385600000,"end_date":126144000000,"description":null,"qualifier":"Rainfall","elevation":16.0},"geometry":{"x":79.900000000000034,"y":6.9166666670000723}},{"attributes":{"objectid":213,"serial_number":"01CB311A","station_name":"COLOMBO, MARADANA","district":"COLOMBO","latitude":6.92583333,"longitude":79.86194444,"begin_date":725846400000,"end_date":772934400000,"description":null,"qualifier":"Rainfall","elevation":0.0},"geometry":{"x":79.861944444000073,"y":6.925833333000071}},{"attributes":{"objectid":214,"serial_number":"01CB369A","station_name":"Meegoda-Nawalamulla","district":"COLOMBO","latitude":6.86666667,"longitude":80.04722222,"begin_date":1023062400000,"end_date":253402214400000,"description":null,"qualifier":"Rainfall","elevation":0.0},"geometry":{"x":80.047222222000073,"y":6.8666666670000609}},{"attributes":{"objectid":215,"serial_number":"01CB385A","station_name":"OLABODUWA GROUP","district":"COLOMBO","latitude":6.76666667,"longitude":80.01666667,"begin_date":-820540800000,"end_date":-473472000000,"description":null,"qualifier":"Rainfall","elevation":16.0},"geometry":{"x":80.016666667000038,"y":6.7666666670000382}},{"attributes":{"objectid":216,"serial_number":"01CB385B","station_name":"OLABODUWA","district":"COLOMBO","latitude":6.76666667,"longitude":80.01666667,"begin_date":-504921600000,"end_date":283910400000,"description":null,"qualifier":"Rainfall","elevation":16.0},"geometry":{"x":80.016666667000038,"y":6.7666666670000382}},{"attributes":{"objectid":217,"serial_number":"01CB393A","station_name":"PADUKKA ESTATE","district":"COLOMBO","latitude":6.825,"longitude":80.12083333,"begin_date":746841600000,"end_date":253402214400000,"description":null,"qualifier":"Rainfall","elevation":0.0},"geometry":{"x":80.120833333000064,"y":6.8250000000000455}},{"attributes":{"objectid":218,"serial_number":"01CB403A","station_name":"PANAGODA","district":"COLOMBO","latitude":6.86666667,"longitude":80.01666667,"begin_date":-489283200000,"end_date":-292032000000,"description":null,"qualifier":"Rainfall","elevation":16.0},"geometry":{"x":80.016666667000038,"y":6.8666666670000609}},{"attributes":{"objectid":219,"serial_number":"01CB421A","station_name":"PILIYANDALA","district":"COLOMBO","latitude":6.8,"longitude":79.91666667,"begin_date":-531360000000,"end_date":-189475200000,"description":null,"qualifier":"Rainfall","elevation":16.0},"geometry":{"x":79.916666667000072,"y":6.8000000000000682}},{"attributes":{"objectid":220,"serial_number":"01CB424B","station_name":"PITIPANA","district":"COLOMBO","latitude":6.7625,"longitude":80.03333333,"begin_date":757382400000,"end_date":253402214400000,"description":null,"qualifier":"Rainfall","elevation":0.0},"geometry":{"x":80.03333333300003,"y":6.7625000000000455}},{"attributes":{"objectid":221,"serial_number":"01CB469B","station_name":"COLOMBO PORT","district":"COLOMBO","latitude":6.93333333,"longitude":79.85,"begin_date":725846400000,"end_date":253402214400000,"description":null,"qualifier":"Rainfall","elevation":0.0},"geometry":{"x":79.85000000000008,"y":6.9333333330000642}},{"attributes":{"objectid":222,"serial_number":"01CB478A","station_name":"ST.THOMAS ESTATE","district":"COLOMBO","latitude":6.88333333,"longitude":79.93333333,"begin_date":-473385600000,"end_date":202348800000,"description":null,"qualifier":"Rainfall","elevation":16.0},"geometry":{"x":79.933333333000064,"y":6.8833333330000528}},{"attributes":{"objectid":223,"serial_number":"01GL0030","station_name":"BADDEGAMA ESTATE","district":"GALLE","latitude":6.18333333,"longitude":80.18333333,"begin_date":-1932940800000,"end_date":253402214400000,"description":null,"qualifier":"Rainfall","elevation":15.2},"geometry":{"x":80.183333333000064,"y":6.1833333330000642}},{"attributes":{"objectid":224,"serial_number":"01GL0033","station_name":"BALAPITIYA","district":"GALLE","latitude":6.28333333,"longitude":80.05,"begin_date":-825811200000,"end_date":686188800000,"description":null,"qualifier":"Rainfall","elevation":16.0},"geometry":{"x":80.050000000000068,"y":6.2833333330000301}},{"attributes":{"objectid":225,"serial_number":"01GL0041","station_name":"BEAUSEJOUR(LOWER)","district":"GALLE","latitude":6.15,"longitude":80.33333333,"begin_date":-2051222400000,"end_date":253402214400000,"description":null,"qualifier":"Rainfall","elevation":61.0},"geometry":{"x":80.333333333000041,"y":6.1500000000000341}},{"attributes":{"objectid":226,"serial_number":"01GL0045","station_name":"BIKKE RESERVOIR","district":"GALLE","latitude":6.05,"longitude":80.21666667,"begin_date":-115862400000,"end_date":253402214400000,"description":null,"qualifier":"Rainfall","elevation":16.0},"geometry":{"x":80.216666667000084,"y":6.0500000000000682}},{"attributes":{"objectid":227,"serial_number":"01GL007A","station_name":"AMBALANGODA","district":"GALLE","latitude":6.23333333,"longitude":80.05,"begin_date":-110592000000,"end_date":607305600000,"description":null,"qualifier":"Rainfall","elevation":16.0},"geometry":{"x":80.050000000000068,"y":6.2333333330000755}},{"attributes":{"objectid":228,"serial_number":"01GL0122","station_name":"GALAGODA","district":"GALLE","latitude":6.21666667,"longitude":80.08333333,"begin_date":-1020384000000,"end_date":84067200000,"description":null,"qualifier":"Rainfall","elevation":16.0},"geometry":{"x":80.083333333000041,"y":6.2166666670000268}},{"attributes":{"objectid":229,"serial_number":"01GL0165","station_name":"HIYARE","district":"GALLE","latitude":6.06666667,"longitude":80.31666667,"begin_date":-1893456000000,"end_date":253402214400000,"description":null,"qualifier":"Rainfall","elevation":100.6},"geometry":{"x":80.31666666700005,"y":6.0666666670000495}},{"attributes":{"objectid":230,"serial_number":"01GL019A","station_name":"ARPTHORPE ESTATE","district":"GALLE","latitude":6.2,"longitude":80.31666667,"begin_date":486432000000,"end_date":253402214400000,"description":null,"qualifier":"Rainfall","elevation":16.0},"geometry":{"x":80.31666666700005,"y":6.2000000000000455}},{"attributes":{"objectid":231,"serial_number":"01GL0255","station_name":"KOTTAWA TANK-GALLE","district":"GALLE","latitude":6.1,"longitude":80.3,"begin_date":-1030233600000,"end_date":304905600000,"description":null,"qualifier":"Rainfall","elevation":16.0},"geometry":{"x":80.300000000000068,"y":6.1000000000000227}},{"attributes":{"objectid":232,"serial_number":"01GL0267","station_name":"LABUDUWA","district":"GALLE","latitude":6.06666667,"longitude":80.23333333,"begin_date":-1304380800000,"end_date":253402214400000,"description":null,"qualifier":"Rainfall","elevation":16.0},"geometry":{"x":80.233333333000076,"y":6.0666666670000495}},{"attributes":{"objectid":233,"serial_number":"01GL0330","station_name":"METEWILIYA ESTATE","district":"GALLE","latitude":6.35,"longitude":80.21666667,"begin_date":-549676800000,"end_date":-189475200000,"description":null,"qualifier":"Rainfall","elevation":16.0},"geometry":{"x":80.216666667000084,"y":6.3500000000000227}},{"attributes":{"objectid":234,"serial_number":"01GL041A","station_name":"BEAUSEJOUR(UPPER)","district":"GALLE","latitude":6.16666667,"longitude":80.35,"begin_date":-518140800000,"end_date":204940800000,"description":null,"qualifier":"Rainfall","elevation":16.0},"geometry":{"x":80.35000000000008,"y":6.1666666670000723}},{"attributes":{"objectid":235,"serial_number":"01GL041B","station_name":"BENTOTA","district":"GALLE","latitude":6.41666667,"longitude":80.03333333,"begin_date":-418176000000,"end_date":123465600000,"description":null,"qualifier":"Rainfall","elevation":16.0},"geometry":{"x":80.03333333300003,"y":6.4166666670000723}},{"attributes":{"objectid":236,"serial_number":"01GL0476","station_name":"ST.LEONARDS ESTATE","district":"GALLE","latitude":6.28333333,"longitude":80.15,"begin_date":-1293840000000,"end_date":633744000000,"description":null,"qualifier":"Rainfall","elevation":16.0},"geometry":{"x":80.150000000000034,"y":6.2833333330000301}},{"attributes":{"objectid":237,"serial_number":"01GL0506","station_name":"UDUGAMA","district":"GALLE","latitude":6.21666667,"longitude":80.35,"begin_date":-1087689600000,"end_date":-202694400000,"description":null,"qualifier":"Rainfall","elevation":16.0},"geometry":{"x":80.35000000000008,"y":6.2166666670000268}},{"attributes":{"objectid":238,"serial_number":"01GL087C","station_name":"DEVITURAI ESTATE","district":"GALLE","latitude":6.26111111,"longitude":80.15833333,"begin_date":757382400000,"end_date":253402214400000,"description":null,"qualifier":"Rainfall","elevation":0.0},"geometry":{"x":80.15833333300003,"y":6.2611111110000479}},{"attributes":{"objectid":239,"serial_number":"01GL102A","station_name":"EDDUMA ESTATE","district":"GALLE","latitude":6.29194444,"longitude":80.14194444,"begin_date":-476064000000,"end_date":-86400000,"description":null,"qualifier":"Rainfall","elevation":16.0},"geometry":{"x":80.141944444000046,"y":6.2919444440000234}},{"attributes":{"objectid":240,"serial_number":"01GL164A","station_name":"HINIDUMA","district":"GALLE","latitude":6.30555556,"longitude":80.31805556,"begin_date":757382400000,"end_date":253402214400000,"description":null,"qualifier":"Rainfall","elevation":0.0},"geometry":{"x":80.318055556000047,"y":6.3055555560000585}},{"attributes":{"objectid":241,"serial_number":"01GL177A","station_name":"ETHALHENA EST, IMADUWA","district":"GALLE","latitude":6.04111111,"longitude":80.39111111,"begin_date":848448000000,"end_date":253402214400000,"description":null,"qualifier":"Rainfall","elevation":0.0},"geometry":{"x":80.391111111000043,"y":6.0411111110000206}},{"attributes":{"objectid":242,"serial_number":"01GL252B","station_name":"KORELEGAMA","district":"GALLE","latitude":6.24166667,"longitude":80.33333333,"begin_date":1001894400000,"end_date":253402214400000,"description":null,"qualifier":"Rainfall","elevation":350.0},"geometry":{"x":80.333333333000041,"y":6.2416666670000609}},{"attributes":{"objectid":243,"serial_number":"01GL328B","station_name":"MEETIYAGODA","district":"GALLE","latitude":6.2,"longitude":80.1,"begin_date":-5364662400000,"end_date":253402214400000,"description":null,"qualifier":"Rainfall","elevation":1.0},"geometry":{"x":80.10000000000008,"y":6.2000000000000455}},{"attributes":{"objectid":244,"serial_number":"01GL343A","station_name":"MONROVIA GROUP","district":"GALLE","latitude":6.08333333,"longitude":80.15,"begin_date":-476064000000,"end_date":253402214400000,"description":null,"qualifier":"Rainfall","elevation":16.0},"geometry":{"x":80.150000000000034,"y":6.0833333330000414}},{"attributes":{"objectid":245,"serial_number":"01GL403B","station_name":"PANAGALA","district":"GALLE","latitude":6.26666667,"longitude":80.33333333,"begin_date":-463017600000,"end_date":-118540800000,"description":null,"qualifier":"Rainfall","elevation":16.0},"geometry":{"x":80.333333333000041,"y":6.2666666670000382}},{"attributes":{"objectid":246,"serial_number":"01GL467A","station_name":"SIRIMEWANA GROUP","district":"GALLE","latitude":6.10583333,"longitude":80.35083333,"begin_date":-470707200000,"end_date":504835200000,"description":null,"qualifier":"Rainfall","elevation":16.0},"geometry":{"x":80.350833333000082,"y":6.105833333000021}},{"attributes":{"objectid":247,"serial_number":"01GL478C","station_name":"STOKESLAND ESTATE","district":"GALLE","latitude":6.16666667,"longitude":80.34444444,"begin_date":725846400000,"end_date":253402214400000,"description":null,"qualifier":"Rainfall","elevation":0.0},"geometry":{"x":80.344444444000032,"y":6.1666666670000723}},{"attributes":{"objectid":248,"serial_number":"01GL490A","station_name":"TAWALAMA","district":"GALLE","latitude":6.33333333,"longitude":80.33333333,"begin_date":-502243200000,"end_date":253402214400000,"description":null,"qualifier":"Rainfall","elevation":16.0},"geometry":{"x":80.333333333000041,"y":6.3333333330000414}},{"attributes":{"objectid":249,"serial_number":"01GL491A","station_name":"WEWEGONA TEA FACTORY","district":"GALLE","latitude":6.08555556,"longitude":80.30166667,"begin_date":848448000000,"end_date":253402214400000,"description":null,"qualifier":"Rainfall","elevation":0.0},"geometry":{"x":80.301666667000063,"y":6.0855555560000312}},{"attributes":{"objectid":250,"serial_number":"01GL501A","station_name":"TITAGALLA, HANDUNGODA","district":"GALLE","latitude":6.01666667,"longitude":80.36,"begin_date":848448000000,"end_date":253402214400000,"description":null,"qualifier":"Rainfall","elevation":0.0},"geometry":{"x":80.36000000000007,"y":6.0166666670000382}},{"attributes":{"objectid":251,"serial_number":"01GL513B","station_name":"USGODAKANDA ESATE","district":"GALLE","latitude":6.1,"longitude":80.23333333,"begin_date":612662400000,"end_date":253402214400000,"description":null,"qualifier":"Rainfall","elevation":16.0},"geometry":{"x":80.233333333000076,"y":6.1000000000000227}},{"attributes":{"objectid":252,"serial_number":"01GL552A","station_name":"YAKKOTUWA","district":"GALLE","latitude":6.26666667,"longitude":80.13333333,"begin_date":-1041379200000,"end_date":-86400000,"description":null,"qualifier":"Rainfall","elevation":16.0},"geometry":{"x":80.133333333000053,"y":6.2666666670000382}},{"attributes":{"objectid":253,"serial_number":"01GM0011","station_name":"AMBEPUSSA GOVT FARM","district":"GAMPAHA","latitude":7.28333333,"longitude":80.16666667,"begin_date":-1346630400000,"end_date":253402214400000,"description":null,"qualifier":"Rainfall","elevation":54.9},"geometry":{"x":80.166666667000072,"y":7.2833333330000301}},{"attributes":{"objectid":254,"serial_number":"01GM0070","station_name":"COMMILA ESTATE","district":"GAMPAHA","latitude":7.05,"longitude":80.08333333,"begin_date":-552355200000,"end_date":-121219200000,"description":null,"qualifier":"Rainfall","elevation":16.0},"geometry":{"x":80.083333333000041,"y":7.0500000000000682}},{"attributes":{"objectid":255,"serial_number":"01GM0077","station_name":"DANKOTUWA","district":"PUTTALAM","latitude":7.3,"longitude":79.8,"begin_date":-1002067200000,"end_date":-155174400000,"description":null,"qualifier":"Rainfall","elevation":16.0},"geometry":{"x":79.800000000000068,"y":7.3000000000000682}},{"attributes":{"objectid":256,"serial_number":"01GM0095","station_name":"DOMPE","district":"GAMPAHA","latitude":6.95,"longitude":80.06666667,"begin_date":-915148800000,"end_date":253402214400000,"description":null,"qualifier":"Rainfall","elevation":22.9},"geometry":{"x":80.06666666700005,"y":6.9500000000000455}},{"attributes":{"objectid":257,"serial_number":"01GM0158","station_name":"HENARATHGODA BOT GRDNS","district":"GAMPAHA","latitude":7.1,"longitude":79.98333333,"begin_date":-2492985600000,"end_date":253402214400000,"description":null,"qualifier":"Rainfall","elevation":9.1},"geometry":{"x":79.983333333000076,"y":7.1000000000000227}},{"attributes":{"objectid":258,"serial_number":"01GM0169","station_name":"HORAGAHALANDA","district":"GAMPAHA","latitude":7.05,"longitude":80.03333333,"begin_date":-1117756800000,"end_date":253402214400000,"description":null,"qualifier":"Rainfall","elevation":15.2},"geometry":{"x":80.03333333300003,"y":7.0500000000000682}},{"attributes":{"objectid":259,"serial_number":"01GM0173","station_name":"HUNUMULLA","district":"GAMPAHA","latitude":7.25,"longitude":80.0,"begin_date":-915148800000,"end_date":253402214400000,"description":null,"qualifier":"Rainfall","elevation":15.2},"geometry":{"x":80.000000000000057,"y":7.2500000000000568}},{"attributes":{"objectid":260,"serial_number":"01GM0291","station_name":"MAHAGODELLA","district":"GAMPAHA","latitude":7.23333333,"longitude":79.93333333,"begin_date":-568080000000,"end_date":-192153600000,"description":null,"qualifier":"Rainfall","elevation":16.0},"geometry":{"x":79.933333333000064,"y":7.2333333330000755}},{"attributes":{"objectid":261,"serial_number":"01GM0373","station_name":"NEGOMBO","district":"GAMPAHA","latitude":7.21666667,"longitude":79.83333333,"begin_date":-2871676800000,"end_date":253402214400000,"description":null,"qualifier":"Rainfall","elevation":3.1},"geometry":{"x":79.833333333000041,"y":7.2166666670000268}},{"attributes":{"objectid":262,"serial_number":"01GM0412","station_name":"PASYALA","district":"GAMPAHA","latitude":7.15,"longitude":80.13333333,"begin_date":-765331200000,"end_date":253402214400000,"description":null,"qualifier":"Rainfall","elevation":16.0},"geometry":{"x":80.133333333000053,"y":7.1500000000000341}},{"attributes":{"objectid":263,"serial_number":"01GM0441","station_name":"RAGAMA CAMP","district":"GAMPAHA","latitude":7.01666667,"longitude":79.93333333,"begin_date":-1814659200000,"end_date":253402214400000,"description":null,"qualifier":"Rainfall","elevation":16.0},"geometry":{"x":79.933333333000064,"y":7.0166666670000382}},{"attributes":{"objectid":264,"serial_number":"01GM0475","station_name":"ST.JOSEPHS COLLEGE FARM","district":"GAMPAHA","latitude":6.99,"longitude":79.88,"begin_date":-941587200000,"end_date":-65923200000,"description":null,"qualifier":"Rainfall","elevation":16.0},"geometry":{"x":79.880000000000052,"y":6.9900000000000659}},{"attributes":{"objectid":265,"serial_number":"01GM0528","station_name":"WALPITA","district":"GAMPAHA","latitude":7.26666667,"longitude":80.05,"begin_date":-912470400000,"end_date":253402214400000,"description":null,"qualifier":"Rainfall","elevation":16.0},"geometry":{"x":80.050000000000068,"y":7.2666666670000382}},{"attributes":{"objectid":266,"serial_number":"01GM0542","station_name":"WESTER SEATON FARM","district":"GAMPAHA","latitude":7.21666667,"longitude":79.88333333,"begin_date":-915148800000,"end_date":557366400000,"description":null,"qualifier":"Rainfall","elevation":16.0},"geometry":{"x":79.883333333000053,"y":7.2166666670000268}},{"attributes":{"objectid":267,"serial_number":"01GM0549","station_name":"YAKALA","district":"GAMPAHA","latitude":7.1,"longitude":80.05,"begin_date":-694310400000,"end_date":-473472000000,"description":null,"qualifier":"Rainfall","elevation":16.0},"geometry":{"x":80.050000000000068,"y":7.1000000000000227}},{"attributes":{"objectid":268,"serial_number":"01GM142A","station_name":"HALGAHAPITIYA GROUP","district":"GAMPAHA","latitude":7.23333333,"longitude":80.1,"begin_date":-476064000000,"end_date":253402214400000,"description":null,"qualifier":"Rainfall","elevation":16.0},"geometry":{"x":80.10000000000008,"y":7.2333333330000755}},{"attributes":{"objectid":269,"serial_number":"01GM221B","station_name":"KATUNAYAKE AIR FORCE","district":"GAMPAHA","latitude":7.18555556,"longitude":79.89444444,"begin_date":843004800000,"end_date":253402214400000,"description":null,"qualifier":"Rainfall","elevation":0.0},"geometry":{"x":79.894444444000044,"y":7.1855555560000539}},{"attributes":{"objectid":270,"serial_number":"01GM234A","station_name":"KELEPITIMULLA","district":"GAMPAHA","latitude":7.23611111,"longitude":79.95277778,"begin_date":830908800000,"end_date":253402214400000,"description":null,"qualifier":"Rainfall","elevation":0.0},"geometry":{"x":79.952777778000041,"y":7.2361111110000707}},{"attributes":{"objectid":271,"serial_number":"01GM244A","station_name":"KIRILLAWALA,KADAWATA","district":"GAMPAHA","latitude":7.01666667,"longitude":79.98333333,"begin_date":599616000000,"end_date":253402214400000,"description":null,"qualifier":"Rainfall","elevation":16.0},"geometry":{"x":79.983333333000076,"y":7.0166666670000382}},{"attributes":{"objectid":272,"serial_number":"01GM246A","station_name":"KIRINDIWELA (COCONUT)","district":"GAMPAHA","latitude":7.04166667,"longitude":80.12777778,"begin_date":702086400000,"end_date":253402214400000,"description":null,"qualifier":"Rainfall","elevation":16.0},"geometry":{"x":80.127777778000052,"y":7.0416666670000723}},{"attributes":{"objectid":273,"serial_number":"01GM340A","station_name":"MINUWANGODA","district":"GAMPAHA","latitude":7.16666667,"longitude":79.95,"begin_date":-852076800000,"end_date":-568166400000,"description":null,"qualifier":"Rainfall","elevation":16.0},"geometry":{"x":79.950000000000045,"y":7.1666666670000723}},{"attributes":{"objectid":274,"serial_number":"01GM378A","station_name":"NITTAMBUWA","district":"GAMPAHA","latitude":7.13333333,"longitude":80.1,"begin_date":725846400000,"end_date":253402214400000,"description":null,"qualifier":"Rainfall","elevation":16.0},"geometry":{"x":80.10000000000008,"y":7.1333333330000528}},{"attributes":{"objectid":275,"serial_number":"01GM400A","station_name":"PALUGAHAWATTE","district":"GAMPAHA","latitude":7.15,"longitude":79.88333333,"begin_date":-483926400000,"end_date":-189475200000,"description":null,"qualifier":"Rainfall","elevation":16.0},"geometry":{"x":79.883333333000053,"y":7.1500000000000341}},{"attributes":{"objectid":276,"serial_number":"01GM463A","station_name":"SERUKELLE","district":"PUTTALAM","latitude":7.76666667,"longitude":79.95,"begin_date":631152000000,"end_date":253402214400000,"description":null,"qualifier":"Rainfall","elevation":1.0},"geometry":{"x":79.950000000000045,"y":7.7666666670000382}},{"attributes":{"objectid":277,"serial_number":"01GM467D","station_name":"SIRIMALWATTA","district":"GAMPAHA","latitude":7.30833333,"longitude":80.10416667,"begin_date":986083200000,"end_date":253402214400000,"description":null,"qualifier":"Rainfall","elevation":30.0},"geometry":{"x":80.104166667000072,"y":7.3083333330000642}},{"attributes":{"objectid":278,"serial_number":"01GM487B","station_name":"THAMMITA","district":"GAMPAHA","latitude":7.10694444,"longitude":79.95138889,"begin_date":830908800000,"end_date":253402214400000,"description":null,"qualifier":"Rainfall","elevation":0.0},"geometry":{"x":79.951388889000043,"y":7.1069444440000211}},{"attributes":{"objectid":279,"serial_number":"01GM527A","station_name":"WALJAPALA GROUP","district":"GAMPAHA","latitude":7.15,"longitude":79.95,"begin_date":-473385600000,"end_date":549417600000,"description":null,"qualifier":"Rainfall","elevation":16.0},"geometry":{"x":79.950000000000045,"y":7.1500000000000341}},{"attributes":{"objectid":280,"serial_number":"01GM528A","station_name":"WALPITA COCONUT","district":"GAMPAHA","latitude":7.25972222,"longitude":80.04583333,"begin_date":694224000000,"end_date":253402214400000,"description":null,"qualifier":"Rainfall","elevation":16.0},"geometry":{"x":80.045833333000076,"y":7.2597222220000504}},{"attributes":{"objectid":281,"serial_number":"01GM538B","station_name":"WELISARA-NAVY","district":"GAMPAHA","latitude":7.01666667,"longitude":79.90333333,"begin_date":870912000000,"end_date":253402214400000,"description":null,"qualifier":"Rainfall","elevation":0.0},"geometry":{"x":79.903333333000035,"y":7.0166666670000382}},{"attributes":{"objectid":282,"serial_number":"01HT0008","station_name":"AMBALANTOTA GOVT. FARM","district":"HAMBANTOTA","latitude":6.11666667,"longitude":81.01666667,"begin_date":-1522713600000,"end_date":253402214400000,"description":null,"qualifier":"Rainfall","elevation":6.1},"geometry":{"x":81.016666667000038,"y":6.1166666670000609}},{"attributes":{"objectid":283,"serial_number":"01HT0037","station_name":"BATA ATA","district":"HAMBANTOTA","latitude":6.1,"longitude":80.91666667,"begin_date":-1364947200000,"end_date":253402214400000,"description":null,"qualifier":"Rainfall","elevation":24.4},"geometry":{"x":80.916666667000072,"y":6.1000000000000227}},{"attributes":{"objectid":284,"serial_number":"01HT0053","station_name":"BUNDALA LEWAYA","district":"HAMBANTOTA","latitude":6.2,"longitude":81.25,"begin_date":-710208000000,"end_date":253402214400000,"description":null,"qualifier":"Rainfall","elevation":16.0},"geometry":{"x":81.250000000000057,"y":6.2000000000000455}},{"attributes":{"objectid":285,"serial_number":"01HT0056","station_name":"BUTTAWA","district":"HAMBANTOTA","latitude":6.4,"longitude":81.14,"begin_date":-539136000000,"end_date":-536544000000,"description":null,"qualifier":"Rainfall","elevation":16.0},"geometry":{"x":81.140000000000043,"y":6.4000000000000341}},{"attributes":{"objectid":286,"serial_number":"01HT005A","station_name":"ANGUNAKOLAPELESSA","district":"HAMBANTOTA","latitude":6.16666667,"longitude":80.89166667,"begin_date":-23760000000,"end_date":253402214400000,"description":null,"qualifier":"Rainfall","elevation":16.0},"geometry":{"x":80.891666667000038,"y":6.1666666670000723}},{"attributes":{"objectid":287,"serial_number":"01HT008A","station_name":"AMBALANTOTA PADDY RESEAR","district":"HAMBANTOTA","latitude":6.12361111,"longitude":81.02361111,"begin_date":804556800000,"end_date":253402214400000,"description":null,"qualifier":"Rainfall","elevation":0.0},"geometry":{"x":81.023611111000037,"y":6.1236111110000593}},{"attributes":{"objectid":288,"serial_number":"01HT0146","station_name":"HAMBANTOTA-COTTON STN","district":"HAMBANTOTA","latitude":6.15,"longitude":81.13333333,"begin_date":-581299200000,"end_date":541468800000,"description":null,"qualifier":"Rainfall","elevation":16.0},"geometry":{"x":81.133333333000053,"y":6.1500000000000341}},{"attributes":{"objectid":289,"serial_number":"01HT0244","station_name":"KIRAMA","district":"HAMBANTOTA","latitude":6.21666667,"longitude":80.66666667,"begin_date":-2871676800000,"end_date":253402214400000,"description":null,"qualifier":"Rainfall","elevation":122.0},"geometry":{"x":80.666666667000072,"y":6.2166666670000268}},{"attributes":{"objectid":290,"serial_number":"01HT0246","station_name":"KIRINDA","district":"MATARA","latitude":6.06666667,"longitude":80.63333333,"begin_date":-581299200000,"end_date":107654400000,"description":null,"qualifier":"Rainfall","elevation":16.0},"geometry":{"x":80.633333333000053,"y":6.0666666670000495}},{"attributes":{"objectid":291,"serial_number":"01HT0276","station_name":"LIYANGAHATOTA","district":"HAMBANTOTA","latitude":6.23333333,"longitude":80.93333333,"begin_date":-1796083200000,"end_date":253402214400000,"description":null,"qualifier":"Rainfall","elevation":16.0},"geometry":{"x":80.933333333000064,"y":6.2333333330000755}},{"attributes":{"objectid":292,"serial_number":"01HT028A","station_name":"BADAGIRIYA TANK","district":"HAMBANTOTA","latitude":6.23333333,"longitude":81.15,"begin_date":-468288000000,"end_date":253402214400000,"description":null,"qualifier":"Rainfall","elevation":16.0},"geometry":{"x":81.150000000000034,"y":6.2333333330000755}},{"attributes":{"objectid":293,"serial_number":"01HT0292","station_name":"MAHA LEWAYA (HAMBANTOTA)","district":"HAMBANTOTA","latitude":6.13333333,"longitude":81.13333333,"begin_date":-1041379200000,"end_date":253402214400000,"description":null,"qualifier":"Rainfall","elevation":16.0},"geometry":{"x":81.133333333000053,"y":6.1333333330000528}},{"attributes":{"objectid":294,"serial_number":"01HT0303","station_name":"MAMADOLA","district":"HAMBANTOTA","latitude":6.14583333,"longitude":80.97777778,"begin_date":-2397772800000,"end_date":253402214400000,"description":null,"qualifier":"Rainfall","elevation":16.0},"geometry":{"x":80.977777778000075,"y":6.1458333330000414}},{"attributes":{"objectid":295,"serial_number":"01HT0331","station_name":"MIDDENIYA","district":"HAMBANTOTA","latitude":6.25,"longitude":80.76666667,"begin_date":-1364947200000,"end_date":-486691200000,"description":null,"qualifier":"Rainfall","elevation":16.0},"geometry":{"x":80.766666667000038,"y":6.2500000000000568}},{"attributes":{"objectid":296,"serial_number":"01HT0332","station_name":"MIGAHAJANDURA SCHOOL","district":"HAMBANTOTA","latitude":6.36666667,"longitude":81.03333333,"begin_date":-1259625600000,"end_date":604627200000,"description":null,"qualifier":"Rainfall","elevation":16.0},"geometry":{"x":81.03333333300003,"y":6.3666666670000609}},{"attributes":{"objectid":297,"serial_number":"01HT0396","station_name":"PALATUPANA SALTERN","district":"HAMBANTOTA","latitude":6.25,"longitude":81.38333333,"begin_date":-1199232000000,"end_date":253402214400000,"description":null,"qualifier":"Rainfall","elevation":16.0},"geometry":{"x":81.383333333000053,"y":6.2500000000000568}},{"attributes":{"objectid":298,"serial_number":"01HT0453","station_name":"RIDIYAGAMA FARM","district":"HAMBANTOTA","latitude":6.21666667,"longitude":80.98333333,"begin_date":-1478131200000,"end_date":253402214400000,"description":null,"qualifier":"Rainfall","elevation":16.0},"geometry":{"x":80.983333333000076,"y":6.2166666670000268}},{"attributes":{"objectid":299,"serial_number":"01HT0486","station_name":"TALDENA AGRICULTURE","district":"BADULLA","latitude":7.08333333,"longitude":81.05,"begin_date":-725846400000,"end_date":-505008000000,"description":null,"qualifier":"Rainfall","elevation":16.0},"geometry":{"x":81.050000000000068,"y":7.0833333330000414}},{"attributes":{"objectid":300,"serial_number":"01HT0490","station_name":"TANGALLA","district":"HAMBANTOTA","latitude":6.01666667,"longitude":80.8,"begin_date":-2871676800000,"end_date":253402214400000,"description":null,"qualifier":"Rainfall","elevation":16.0},"geometry":{"x":80.800000000000068,"y":6.0166666670000382}},{"attributes":{"objectid":301,"serial_number":"01HT0500","station_name":"TISSAMAHARAMA AGRI","district":"HAMBANTOTA","latitude":6.28277778,"longitude":81.285,"begin_date":-1225670400000,"end_date":307497600000,"description":null,"qualifier":"Rainfall","elevation":16.0},"geometry":{"x":81.285000000000082,"y":6.2827777780000247}},{"attributes":{"objectid":302,"serial_number":"01HT0501","station_name":"TISSAMAHARAMA IRRIGATION","district":"HAMBANTOTA","latitude":6.28333333,"longitude":81.3,"begin_date":-2871676800000,"end_date":253402214400000,"description":null,"qualifier":"Rainfall","elevation":16.0},"geometry":{"x":81.300000000000068,"y":6.2833333330000301}},{"attributes":{"objectid":303,"serial_number":"01HT0507","station_name":"UDUKIRIWILA","district":"HAMBANTOTA","latitude":6.15,"longitude":80.76666667,"begin_date":-2871676800000,"end_date":-92102400000,"description":null,"qualifier":"Rainfall","elevation":16.0},"geometry":{"x":80.766666667000038,"y":6.1500000000000341}},