{"type":"FeatureCollection","features":[{"type":"Feature","id":1,"geometry":{"type":"Point","coordinates":[79.864464000000055,6.8386710000000335]},"properties":{"objectid":1,"name":"COTTAGE GARDEN BUNGALOWS","address":"42-48, COLLEGE AVENUE, MOUNT LAVINIA","rooms":3,"grade":"STANDARD","district":"Colombo","aga_division":"Colombo","ps_mc_uc":"Colombo Divisional Secretariat","logitiute":79.864463999999998,"latitude":6.8386709999999997,"orig_fid":-1}},{"type":"Feature","id":2,"geometry":{"type":"Point","coordinates":[79.848080000000039,6.9179280000000745]},"properties":{"objectid":2,"name":"CINNAMON PENTHOUSE","address":"24-3F CRESCAT RESIDANCIES, NO75, GALLE ROAD, COLOMBO 03.","rooms":5,"grade":"DELUXE","district":"Colombo","aga_division":"Colombo","ps_mc_uc":"Thimbirigasyaya Divisional Secretariat","logitiute":79.848079999999996,"latitude":6.9179280000000007,"orig_fid":-1}},{"type":"Feature","id":3,"geometry":{"type":"Point","coordinates":[79.862908000000061,6.8691390000000752]},"properties":{"objectid":3,"name":"MILAN SQUARE","address":"7/5, 10, 37TH LANE, COLOMBO 06","rooms":3,"grade":"SUPERIOR","district":"Colombo","aga_division":"Colombo","ps_mc_uc":"Colombo Divisional Secretariat","logitiute":79.86290799999999,"latitude":6.8691390000000006,"orig_fid":-1}},{"type":"Feature","id":4,"geometry":{"type":"Point","coordinates":[79.858294300000068,6.8746633000000656]},"properties":{"objectid":4,"name":"STATION COURT","address":"3/3, 19, WELLAWATTE ROAD, COLOMBO 6","rooms":3,"grade":"SUPERIOR","district":"Colombo","aga_division":"Colombo","ps_mc_uc":"Colombo Divisional Secretariat","logitiute":79.858294299999997,"latitude":6.8746632999999999,"orig_fid":-1}},{"type":"Feature","id":5,"geometry":{"type":"Point","coordinates":[79.886749000000066,6.871861000000024]},"properties":{"objectid":5,"name":"NIRANA APARTMENT","address":"21, CHAPEL ROAD, NUGEGODA","rooms":2,"grade":"SUPERIOR","district":"Colombo","aga_division":"Kotte Muncipal Council","ps_mc_uc":"Nugegoda Divisional Secretariat","logitiute":79.886749000000009,"latitude":6.871861,"orig_fid":-1}},{"type":"Feature","id":6,"geometry":{"type":"Point","coordinates":[80.617781000000036,7.2596490000000244]},"properties":{"objectid":6,"name":"AMALI HOME STAY","address":"258/C, BOWALAWATTE, KANDY","rooms":1,"grade":"STANDARD","district":"Kandy","aga_division":"Kandy","ps_mc_uc":"Gagawata","logitiute":80.617780999999994,"latitude":7.2596489999999996,"orig_fid":-1}},{"type":"Feature","id":7,"geometry":{"type":"Point","coordinates":[80.76960100000008,6.9762320000000386]},"properties":{"objectid":7,"name":"PINE STUDIO","address":"15/3, ASHLEY HILLS RESIDENCIES, LADY MACCULUM DRIVE, NUWARA ELIYA","rooms":1,"grade":"DELUXE","district":"Nuwara Eliya","aga_division":"Nuwara Eliya","ps_mc_uc":"Nuwara Eliya Divisional Secretariat","logitiute":80.769600999999994,"latitude":6.9762320000000004,"orig_fid":-1}},{"type":"Feature","id":8,"geometry":{"type":"Point","coordinates":[80.619390000000067,7.2873610000000326]},"properties":{"objectid":8,"name":"ANNIWATTE COTTAGE","address":"4/36, PITAKANDA ROAD, ANNIWATTE, KANDY","rooms":2,"grade":"SUPERIOR","district":"Kandy","aga_division":"Kandy","ps_mc_uc":"GANGAWATA KORALAYA","logitiute":80.619389999999996,"latitude":7.2873609999999998,"orig_fid":-1}},{"type":"Feature","id":9,"geometry":{"type":"Point","coordinates":[80.561313000000041,5.9431120000000419]},"properties":{"objectid":9,"name":"HOME STAY MATARA","address":"1/9 B, BROWNS HILL, MATARA","rooms":3,"grade":"SUPERIOR","district":"Matara","aga_division":"Matara","ps_mc_uc":"Matara Divisional Secretariat","logitiute":80.561312999999998,"latitude":5.9431120000000002,"orig_fid":-1}},{"type":"Feature","id":10,"geometry":{"type":"Point","coordinates":[79.831006000000059,7.3916750000000206]},"properties":{"objectid":10,"name":"NORTHWOOD RESIDENCE","address":"NO 414/1, ROMEN PARK, MUDUKATUWA, MARAWILA","rooms":3,"grade":"SUPERIOR","district":"Puttalam","aga_division":"Nattandiya Pradeshiya Sabha","ps_mc_uc":"Nattandiya Divisional Secretariat","logitiute":79.831006000000002,"latitude":7.3916750000000002,"orig_fid":-1}},{"type":"Feature","id":11,"geometry":{"type":"Point","coordinates":[80.651033000000041,7.2855200000000764]},"properties":{"objectid":11,"name":"SELFCATE-KANDY","address":"NO. 29/262A, SHANTHI KUMAR RAMASINGHE MAWATHA, AMPITIYA ROAD, KANDY","rooms":6,"grade":"SUPERIOR","district":"Kandy","aga_division":"Kandy","ps_mc_uc":"Gagawata","logitiute":80.651032999999998,"latitude":7.28552,"orig_fid":-1}},{"type":"Feature","id":12,"geometry":{"type":"Point","coordinates":[79.998414000000082,6.4164310000000455]},"properties":{"objectid":12,"name":"ERONEE VILLA","address":"SRI DHARMA VIJAYARAMA MAWATHA, SOORIYAGODA, BENTOTA.","rooms":1,"grade":"STANDARD","district":"Galle","aga_division":"Bentota Pradeshiya Sabha","ps_mc_uc":"Benthota Divisional Secretariat","logitiute":79.998413999999997,"latitude":6.4164310000000002,"orig_fid":-1}},{"type":"Feature","id":13,"geometry":{"type":"Point","coordinates":[80.210731000000067,6.0572490000000698]},"properties":{"objectid":13,"name":"VILLA MOUNT ROSE","address":"NO:9/22 E,WEWALWALA ROAD,BATAGANVILA,GALLE.","rooms":3,"grade":"DELUXE","district":"Galle","aga_division":"Galle","ps_mc_uc":"Galle Divisional Secretariat","logitiute":80.21073100000001,"latitude":6.0572489999999997,"orig_fid":-1}},{"type":"Feature","id":14,"geometry":{"type":"Point","coordinates":[79.865395000000035,6.8426280000000475]},"properties":{"objectid":14,"name":"THE NUMBER 8 APARTMENTS","address":"NO:08, BEACH ROAD, MOUNT LAVINIA","rooms":4,"grade":"STANDARD","district":"Colombo","aga_division":"Dehiwala-Mount Lavinia","ps_mc_uc":"Dehiwala Divisional Secretariat","logitiute":79.865395000000007,"latitude":6.8426280000000004,"orig_fid":-1}},{"type":"Feature","id":15,"geometry":{"type":"Point","coordinates":[79.879081000000042,6.8274570000000381]},"properties":{"objectid":15,"name":"@ IDDAMAL","address":"10A, IDDAMAL MAWATHA, OFF TEMPLERS ROAD, MT LAVANIA","rooms":4,"grade":"SUPERIOR","district":"Colombo","aga_division":"MC","ps_mc_uc":"Ratmalana Divisional Secretariat","logitiute":79.879080999999999,"latitude":6.8274569999999999,"orig_fid":-1}},{"type":"Feature","id":16,"geometry":{"type":"Point","coordinates":[79.88008300000007,6.8301180000000272]},"properties":{"objectid":16,"name":"SEA LION APARTMENT","address":"APARTMENT NO.3/4, (THIRD FLOOR), NO.34, EBENEZER PLACE, DEHIWALA.","rooms":3,"grade":"SUPERIOR","district":"Colombo","aga_division":"Dehiwala-Mount Lavinia","ps_mc_uc":"Dehiwala Divisional Secretariat","logitiute":79.880082999999999,"latitude":6.8301179999999997,"orig_fid":-1}},{"type":"Feature","id":17,"geometry":{"type":"Point","coordinates":[79.850682000000063,6.9128150000000232]},"properties":{"objectid":17,"name":"SUNLIGHT APARTMENT","address":"NO.18,ABDUL GAFOOR MAWATHA,COLOMBO 03","rooms":4,"grade":"SUPERIOR","district":"Colombo","aga_division":"Colombo","ps_mc_uc":"Colombo Divisional Secretariat","logitiute":79.850682000000006,"latitude":6.9128150000000002,"orig_fid":-1}},{"type":"Feature","id":18,"geometry":{"type":"Point","coordinates":[79.884600000000034,6.8512710000000538]},"properties":{"objectid":18,"name":"RANMAL HOLIDAYS","address":"122/5 2/1, LAKE EDGE RESIDENCIES,ATTIDIYA ROAD,BELANTHARA,DEHIWALA","rooms":2,"grade":"STANDARD","district":"Colombo","aga_division":"Dehiwala-Mount Lavinia","ps_mc_uc":"Dehiwala Divisional Secretariat","logitiute":79.884600000000006,"latitude":6.8512710000000006,"orig_fid":-1}},{"type":"Feature","id":19,"geometry":{"type":"Point","coordinates":[80.602142000000072,7.2375520000000506]},"properties":{"objectid":19,"name":"CHAYA HILLS KANDY","address":"ROSLIN HILL ESTATE,HINDAGALA,PERADENIYA,KANDY","rooms":6,"grade":"SUPERIOR","district":"Kandy","aga_division":"Kandy","ps_mc_uc":"Gagawata","logitiute":80.602142000000001,"latitude":7.237552,"orig_fid":-1}},{"type":"Feature","id":20,"geometry":{"type":"Point","coordinates":[79.876824000000056,6.8890270000000555]},"properties":{"objectid":20,"name":"STAR CITY VILLA","address":"475/15, ELVITIGALA MAWATHA, COLOMBO 05","rooms":4,"grade":"SUPERIOR","district":"Colombo","aga_division":"Colombo","ps_mc_uc":"Thimbirigasyaya Divisional Secretariat","logitiute":79.876823999999999,"latitude":6.8890270000000005,"orig_fid":-1}},{"type":"Feature","id":21,"geometry":{"type":"Point","coordinates":[79.854882000000032,6.9009960000000206]},"properties":{"objectid":21,"name":"COLOMBO SEA VIEW APARTMENT","address":"48-8/1,HAIG ROAD,BAMBALAPITIYA","rooms":3,"grade":"DELUXE","district":"Colombo","aga_division":"Colombo","ps_mc_uc":"Thimbirigasyaya Divisional Secretariat","logitiute":79.854882000000003,"latitude":6.9009960000000001,"orig_fid":-1}}]}