{"type":"FeatureCollection","features":[{"type":"Feature","id":1,"geometry":{"type":"Point","coordinates":[80.560632300000066,7.1593573000000674]},"properties":{"objectid":1,"name":"TRAVELLERS REST HOME","address":"13C, BUWANEKABA ROAD, SINGHEPITIYA, GAMPOLA","rooms":3,"grade":"STANDARD","district":"Kandy","aga_division":"Gampola","ps_mc_uc":"Kandy Divisional Secretariat","logitiute":80.560632299999995,"latitude":7.1593572999999999,"orig_fid":-1}},{"type":"Feature","id":2,"geometry":{"type":"Point","coordinates":[79.875283200000069,7.1366583000000219]},"properties":{"objectid":2,"name":"AIRPORT NEAR REST","address":"245/31, CHURCH ROAD, RANAWIRU MAWATHA, LIYANAGEMULLA, SEEDUWA","rooms":1,"grade":"STANDARD","district":"Gampaha","aga_division":"Seeduwa","ps_mc_uc":"Katana Divisional Secretariat","logitiute":79.875283200000013,"latitude":7.1366582999999997,"orig_fid":-1}},{"type":"Feature","id":3,"geometry":{"type":"Point","coordinates":[80.100697000000082,6.1391110000000708]},"properties":{"objectid":3,"name":"AVON VILLA","address":"NO. 61/30, THUDUWEGODA ROAD, AMARASENA MAWATHA, HIKKADUWA","rooms":3,"grade":"STANDARD","district":"Galle","aga_division":"Hikkaduwa","ps_mc_uc":"Hikkaduwa Divisional Secretariat","logitiute":80.100696999999997,"latitude":6.1391109999999998,"orig_fid":-1}},{"type":"Feature","id":4,"geometry":{"type":"Point","coordinates":[80.036651300000074,6.850166300000069]},"properties":{"objectid":4,"name":"SAVENRA GARDEN RESORT","address":"13A, RATHABALAHENA ESTATE, PADUKKA ROAD, GODAGAMA, MEEGODA.","rooms":5,"grade":"SUPERIOR","district":"Colombo","aga_division":"Homagama Pradeshiya Sabha","ps_mc_uc":"Homagama Divisional Secretariat","logitiute":80.036651300000003,"latitude":6.8501663000000006,"orig_fid":-1}},{"type":"Feature","id":5,"geometry":{"type":"Point","coordinates":[79.892414200000076,6.8720807000000264]},"properties":{"objectid":5,"name":"COZY BEDS","address":"NO 29/ 2A, CHAPEL ROAD, NUGEGODA.","rooms":4,"grade":"SUPERIOR","district":"Colombo","aga_division":"Kotte Muncipal Council","ps_mc_uc":"Nugegoda Divisional Secretariat","logitiute":79.89241419999999,"latitude":6.8720806999999997,"orig_fid":-1}}]}