{"displayFieldName":"name","fieldAliases":{"objectid":"OBJECTID","name":"Name","address":"Address","type":"Type","latitude":"Latitude","longitude":"Longitude","id":"ID","stars":"Stars","link":"link","email_id":"Email-ID","phonenumber":"PhoneNumber","website_link_hotels":"Website","district":"District","photo_link":"photo_link","hotel_star_ratings":"Hotel_Star_Ratings","popup_desrciption":"Popup_Desrciption","tourism_webiste_link":"Tourism_Webiste_Link","orig_fid":"orig_fid"},"geometryType":"esriGeometryPoint","spatialReference":{"wkid":4326,"latestWkid":4326},"fields":[{"name":"objectid","type":"esriFieldTypeOID","alias":"OBJECTID"},{"name":"name","type":"esriFieldTypeString","alias":"Name","length":255},{"name":"address","type":"esriFieldTypeString","alias":"Address","length":255},{"name":"type","type":"esriFieldTypeString","alias":"Type","length":50},{"name":"latitude","type":"esriFieldTypeDouble","alias":"Latitude"},{"name":"longitude","type":"esriFieldTypeDouble","alias":"Longitude"},{"name":"id","type":"esriFieldTypeString","alias":"ID","length":50},{"name":"stars","type":"esriFieldTypeString","alias":"Stars","length":1000},{"name":"link","type":"esriFieldTypeString","alias":"link","length":1000},{"name":"email_id","type":"esriFieldTypeString","alias":"Email-ID","length":255},{"name":"phonenumber","type":"esriFieldTypeString","alias":"PhoneNumber","length":50},{"name":"website_link_hotels","type":"esriFieldTypeString","alias":"Website","length":1000},{"name":"district","type":"esriFieldTypeString","alias":"District","length":200},{"name":"photo_link","type":"esriFieldTypeString","alias":"photo_link","length":1000},{"name":"hotel_star_ratings","type":"esriFieldTypeString","alias":"Hotel_Star_Ratings","length":50},{"name":"popup_desrciption","type":"esriFieldTypeString","alias":"Popup_Desrciption","length":1000},{"name":"tourism_webiste_link","type":"esriFieldTypeString","alias":"Tourism_Webiste_Link","length":1000},{"name":"orig_fid","type":"esriFieldTypeInteger","alias":"orig_fid"}],"features":[{"attributes":{"objectid":1,"name":"168 seafood palace","address":"No. 08, seaview avenue, colombo 03","type":"Restaurants","latitude":6.909422,"longitude":79.850607,"id":"1365","stars":"Grade&nbsp;&nbsp;&nbsp;&nbsp;&nbsp;&nbsp;&nbsp;&nbsp;&nbsp;:&nbsp;B","link":"http://www.pnf.lk\" \u003ewww.pnf.lk\u003c/a\u003e","email_id":"168nirosha@gmail.com","phonenumber":"0112573456","website_link_hotels":"","district":"Colombo","photo_link":"\u003cimg src=\"../image/cache/web_service_resturent_img/U1200800000000971113-238x152.jpg\" width=\"238\" height=\"152\"/\u003e","hotel_star_ratings":"B","popup_desrciption":"","tourism_webiste_link":"","orig_fid":1365},"geometry":{"x":79.850607000000082,"y":6.9094220000000632}},{"attributes":{"objectid":2,"name":"41 sugar","address":"No. 41 1/2, maitland crescent, colombo 07.","type":"Restaurants","latitude":6.908664,"longitude":79.865861,"id":"1366","stars":"Grade&nbsp;&nbsp;&nbsp;&nbsp;&nbsp;&nbsp;&nbsp;&nbsp;&nbsp;:&nbsp;A","link":"","email_id":"info@sugarcolombo.com","phonenumber":"0112555003","website_link_hotels":"","district":"Colombo","photo_link":"\u003cimg src=\"accomadation.jpg\" width=\"238\" height=\"152\" /\u003e","hotel_star_ratings":"A","popup_desrciption":"","tourism_webiste_link":"","orig_fid":1366},"geometry":{"x":79.865861000000052,"y":6.9086640000000443}},{"attributes":{"objectid":3,"name":"Aglo restaurant","address":"No.271, kohalawaila  road weliketiya kelaniya","type":"Restaurants","latitude":6.9609786,"longitude":79.9255532,"id":"1367","stars":"Grade&nbsp;&nbsp;&nbsp;&nbsp;&nbsp;&nbsp;&nbsp;&nbsp;&nbsp;:&nbsp;A","link":"","email_id":"aglorestaurantclub@yahoo.com","phonenumber":"2235426","website_link_hotels":"","district":"Gampaha","photo_link":"\u003cimg src=\"../image/cache/web_service_resturent_img/U1200800000000521022-238x152.jpg\" width=\"238\" height=\"152\"/\u003e","hotel_star_ratings":"A","popup_desrciption":"","tourism_webiste_link":"","orig_fid":1367},"geometry":{"x":79.925553200000081,"y":6.9609786000000327}},{"attributes":{"objectid":4,"name":"Amal villa restaurant","address":"Robolgoda, bentota","type":"Restaurants","latitude":6.4128862,"longitude":79.9995927,"id":"1368","stars":"Grade&nbsp;&nbsp;&nbsp;&nbsp;&nbsp;&nbsp;&nbsp;&nbsp;&nbsp;:&nbsp;A","link":"http://www.amal-villa.com\" \u003ewww.amal-villa.com\u003c/a\u003e","email_id":"amalmindika@gmail.com","phonenumber":"0343942831","website_link_hotels":"","district":"Galle","photo_link":"\u003cimg src=\"../image/cache/web_service_resturent_img/U1200800000001011116-238x152.jpg\" width=\"238\" height=\"152\"/\u003e","hotel_star_ratings":"A","popup_desrciption":"","tourism_webiste_link":"","orig_fid":1368},"geometry":{"x":79.999592700000051,"y":6.4128862000000595}},{"attributes":{"objectid":5,"name":"Amaravathi restaurant","address":"No 02,mile post avenue,colombo 02","type":"Restaurants","latitude":6.908796,"longitude":79.851141,"id":"1369","stars":"Grade&nbsp;&nbsp;&nbsp;&nbsp;&nbsp;&nbsp;&nbsp;&nbsp;&nbsp;:&nbsp;A","link":"","email_id":"harreemgtservices@gmail.com","phonenumber":"0112577418","website_link_hotels":"","district":"Colombo","photo_link":"\u003cimg src=\"../image/cache/web_service_resturent_img/U1200800000005211115-238x152.jpg\" width=\"238\" height=\"152\"/\u003e","hotel_star_ratings":"A","popup_desrciption":"","tourism_webiste_link":"","orig_fid":1369},"geometry":{"x":79.851141000000041,"y":6.9087960000000521}},{"attributes":{"objectid":6,"name":"Ambepussa avanhala","address":"Ambepussa,warakapola","type":"Restaurants","latitude":7.241221,"longitude":80.208602,"id":"1370","stars":"Grade&nbsp;&nbsp;&nbsp;&nbsp;&nbsp;&nbsp;&nbsp;&nbsp;&nbsp;:&nbsp;A","link":"http://www.ceylonbokis.lk\" \u003ewww.ceylonbokis.lk\u003c/a\u003e","email_id":"manager.ambepussa@chcfood.lk","phonenumber":"0352268683","website_link_hotels":"","district":"Kegalle","photo_link":"\u003cimg src=\"../image/cache/web_service_resturent_img/U1200800000004140337-238x152.jpg\" width=\"238\" height=\"152\"/\u003e","hotel_star_ratings":"A","popup_desrciption":"","tourism_webiste_link":"","orig_fid":1370},"geometry":{"x":80.208602000000042,"y":7.2412210000000528}},{"attributes":{"objectid":7,"name":"Amiru restaurant","address":"No.37/13, pubudu mawatha, mattegoda, polgasovita","type":"Restaurants","latitude":6.81226,"longitude":79.966514,"id":"1371","stars":"Grade&nbsp;&nbsp;&nbsp;&nbsp;&nbsp;&nbsp;&nbsp;&nbsp;&nbsp;:&nbsp;A","link":"","email_id":"md.akilaengineering@gmail.com","phonenumber":"0114342409","website_link_hotels":"","district":"Colombo","photo_link":"\u003cimg src=\"accomadation.jpg\" width=\"238\" height=\"152\" /\u003e","hotel_star_ratings":"A","popup_desrciption":"","tourism_webiste_link":"","orig_fid":1371},"geometry":{"x":79.966514000000075,"y":6.8122600000000375}},{"attributes":{"objectid":8,"name":"Amrith indian restaurant","address":"No. 147, vajira road, colombo 05","type":"Restaurants","latitude":6.892097,"longitude":79.86219,"id":"1372","stars":"Grade&nbsp;&nbsp;&nbsp;&nbsp;&nbsp;&nbsp;&nbsp;&nbsp;&nbsp;:&nbsp;A","link":"","email_id":"amrith@srilanka.net","phonenumber":"0114877888","website_link_hotels":"","district":"Colombo","photo_link":"\u003cimg src=\"../image/cache/web_service_resturent_img/U1200800000001050338-238x152.jpg\" width=\"238\" height=\"152\"/\u003e","hotel_star_ratings":"A","popup_desrciption":"","tourism_webiste_link":"","orig_fid":1372},"geometry":{"x":79.862190000000055,"y":6.8920970000000352}},{"attributes":{"objectid":10,"name":"Anargaya restaurent","address":"Bataduwa,batapola","type":"Restaurants","latitude":6.220957,"longitude":80.101067,"id":"1374","stars":"Grade&nbsp;&nbsp;&nbsp;&nbsp;&nbsp;&nbsp;&nbsp;&nbsp;&nbsp;:&nbsp;B","link":"","email_id":"rameshdilruwan543@gmail.com","phonenumber":"","website_link_hotels":"","district":"Galle","photo_link":"\u003cimg src=\"accomadation.jpg\" width=\"238\" height=\"152\" /\u003e","hotel_star_ratings":"B","popup_desrciption":"","tourism_webiste_link":"","orig_fid":1374},"geometry":{"x":80.101067000000057,"y":6.2209570000000554}},{"attributes":{"objectid":11,"name":"Ankara turkish restaurant","address":"25 milagiriya avenue colombo 04","type":"Restaurants","latitude":6.88587,"longitude":79.855308,"id":"1375","stars":"Grade&nbsp;&nbsp;&nbsp;&nbsp;&nbsp;&nbsp;&nbsp;&nbsp;&nbsp;:&nbsp;A","link":"","email_id":"ramzi@remohotelsandresorts.com","phonenumber":"0112504540","website_link_hotels":"","district":"Colombo","photo_link":"\u003cimg src=\"accomadation.jpg\" width=\"238\" height=\"152\" /\u003e","hotel_star_ratings":"A","popup_desrciption":"","tourism_webiste_link":"","orig_fid":1375},"geometry":{"x":79.855308000000036,"y":6.8858700000000681}},{"attributes":{"objectid":12,"name":"Arpico food court","address":"679,peradeniya rd,kandy","type":"Restaurants","latitude":7.2807346,"longitude":80.6183973,"id":"1376","stars":"Grade&nbsp;&nbsp;&nbsp;&nbsp;&nbsp;&nbsp;&nbsp;&nbsp;&nbsp;:&nbsp;A","link":"http://www.arpico.com\" \u003ewww.arpico.com\u003c/a\u003e","email_id":"indunil.baddevithana@yahoo.com","phonenumber":"0812223150","website_link_hotels":"","district":"Kandy","photo_link":"\u003cimg src=\"accomadation.jpg\" width=\"238\" height=\"152\" /\u003e","hotel_star_ratings":"A","popup_desrciption":"","tourism_webiste_link":"","orig_fid":1376},"geometry":{"x":80.618397300000083,"y":7.2807346000000734}},{"attributes":{"objectid":13,"name":"Austasia sports","address":"No.290u, weerasekera mawatha, thalawathugoda","type":"Restaurants","latitude":6.8752,"longitude":79.940781,"id":"1377","stars":"Grade&nbsp;&nbsp;&nbsp;&nbsp;&nbsp;&nbsp;&nbsp;&nbsp;&nbsp;:&nbsp;A","link":"","email_id":"accounts@austasiasports.com","phonenumber":"0115566566","website_link_hotels":"","district":"Colombo","photo_link":"\u003cimg src=\"../image/cache/web_service_resturent_img/U1200800000000570339-238x152.jpg\" width=\"238\" height=\"152\"/\u003e","hotel_star_ratings":"A","popup_desrciption":"","tourism_webiste_link":"","orig_fid":1377},"geometry":{"x":79.940781000000072,"y":6.8752000000000635}},{"attributes":{"objectid":14,"name":"Ayesha restaurant and pub","address":"Galle road,kaluwamodara,aluthgama","type":"Restaurants","latitude":6.4437433,"longitude":79.9896763,"id":"1378","stars":"Grade&nbsp;&nbsp;&nbsp;&nbsp;&nbsp;&nbsp;&nbsp;&nbsp;&nbsp;:&nbsp;A","link":"","email_id":"sajeewa.a@gmail.com","phonenumber":"0342298020","website_link_hotels":"","district":"Kalutara","photo_link":"\u003cimg src=\"accomadation.jpg\" width=\"238\" height=\"152\" /\u003e","hotel_star_ratings":"A","popup_desrciption":"","tourism_webiste_link":"","orig_fid":1378},"geometry":{"x":79.989676300000042,"y":6.443743300000051}},{"attributes":{"objectid":15,"name":"Bakeland restaurant","address":"335, dandagamuwa , kuliyapitiya","type":"Restaurants","latitude":7.4586793,"longitude":80.0257022,"id":"1379","stars":"Grade&nbsp;&nbsp;&nbsp;&nbsp;&nbsp;&nbsp;&nbsp;&nbsp;&nbsp;:&nbsp;A","link":"","email_id":"rasanjana.nanayakkara69@gmail.com","phonenumber":"","website_link_hotels":"","district":"Kurunegala","photo_link":"\u003cimg src=\"accomadation.jpg\" width=\"238\" height=\"152\" /\u003e","hotel_star_ratings":"A","popup_desrciption":"","tourism_webiste_link":"","orig_fid":1379},"geometry":{"x":80.025702200000069,"y":7.4586793000000284}},{"attributes":{"objectid":16,"name":"Bamboo garden restaurant","address":"No.29a , anagarika dharmapala mawatha , kandy","type":"Restaurants","latitude":7.290731,"longitude":80.645481,"id":"1380","stars":"Grade&nbsp;&nbsp;&nbsp;&nbsp;&nbsp;&nbsp;&nbsp;&nbsp;&nbsp;:&nbsp;A","link":"","email_id":"shashikwdj93@gmail.com","phonenumber":"0812238267","website_link_hotels":"","district":"Kandy","photo_link":"\u003cimg src=\"accomadation.jpg\" width=\"238\" height=\"152\" /\u003e","hotel_star_ratings":"A","popup_desrciption":"","tourism_webiste_link":"","orig_fid":1380},"geometry":{"x":80.645481000000075,"y":7.2907310000000507}},{"attributes":{"objectid":17,"name":"Barefoot garden  cafe","address":"No.706. galle road , colombo 03","type":"Restaurants","latitude":6.897883,"longitude":79.854319,"id":"1381","stars":"Grade&nbsp;&nbsp;&nbsp;&nbsp;&nbsp;&nbsp;&nbsp;&nbsp;&nbsp;:&nbsp;A","link":"","email_id":"merinoroshan@gmail.com","phonenumber":"0112577473","website_link_hotels":"","district":"Colombo","photo_link":"\u003cimg src=\"../image/cache/web_service_resturent_img/U1200800000000650352-238x152.jpg\" width=\"238\" height=\"152\"/\u003e","hotel_star_ratings":"A","popup_desrciption":"","tourism_webiste_link":"","orig_fid":1381},"geometry":{"x":79.854319000000032,"y":6.8978830000000357}},{"attributes":{"objectid":18,"name":"Barracuda sea food & grill","address":"41/2awasala road,dehiwala","type":"Restaurants","latitude":6.8619012,"longitude":79.8576732,"id":"1382","stars":"Grade&nbsp;&nbsp;&nbsp;&nbsp;&nbsp;&nbsp;&nbsp;&nbsp;&nbsp;:&nbsp;B","link":"","email_id":"info@barracuda.lk","phonenumber":"0112710777","website_link_hotels":"","district":"Colombo","photo_link":"\u003cimg src=\"accomadation.jpg\" width=\"238\" height=\"152\" /\u003e","hotel_star_ratings":"B","popup_desrciption":"","tourism_webiste_link":"","orig_fid":1382},"geometry":{"x":79.857673200000079,"y":6.8619012000000339}},{"attributes":{"objectid":19,"name":"Bars cafe","address":"No. 24, deal place, colombo 03","type":"Restaurants","latitude":6.906629,"longitude":79.853178,"id":"1383","stars":"Grade&nbsp;&nbsp;&nbsp;&nbsp;&nbsp;&nbsp;&nbsp;&nbsp;&nbsp;:&nbsp;A","link":"http://www.thebarscafe.com","email_id":"bars.cafe@gmail.com","phonenumber":"0114786678","website_link_hotels":"","district":"Colombo","photo_link":"\u003cimg src=\"../image/cache/web_service_resturent_img/U1200800000004380351-238x152.jpg\" width=\"238\" height=\"152\"/\u003e","hotel_star_ratings":"A","popup_desrciption":"","tourism_webiste_link":"","orig_fid":1383},"geometry":{"x":79.853178000000071,"y":6.9066290000000663}},{"attributes":{"objectid":20,"name":"Bavarian barn restaurant","address":"No. 11, galle face court 02 colombo","type":"Restaurants","latitude":35.61494,"longitude":-87.035113,"id":"1384","stars":"Grade&nbsp;&nbsp;&nbsp;&nbsp;&nbsp;&nbsp;&nbsp;&nbsp;&nbsp;:&nbsp;A","link":"","email_id":"upulrealtor@gmail.com","phonenumber":"0812235117","website_link_hotels":"","district":"Colombo","photo_link":"\u003cimg src=\"../image/cache/web_service_resturent_img/U1200800000000020340-238x152.jpg\" width=\"238\" height=\"152\"/\u003e","hotel_star_ratings":"A","popup_desrciption":"","tourism_webiste_link":"","orig_fid":1384},"geometry":{"x":79.846833998000079,"y":6.9205500040000629}},{"attributes":{"objectid":21,"name":"Bayleaf restaurant","address":"No.79, gegarys  road, colombo 07","type":"Restaurants","latitude":6.909386,"longitude":79.875676,"id":"1385","stars":"Grade&nbsp;&nbsp;&nbsp;&nbsp;&nbsp;&nbsp;&nbsp;&nbsp;&nbsp;:&nbsp;A","link":"","email_id":"jesuraj@harpog.com","phonenumber":"2695920","website_link_hotels":"","district":"Colombo","photo_link":"\u003cimg src=\"../image/cache/web_service_resturent_img/U1200800000002460350-238x152.jpg\" width=\"238\" height=\"152\"/\u003e","hotel_star_ratings":"A","popup_desrciption":"","tourism_webiste_link":"","orig_fid":1385},"geometry":{"x":79.875676000000055,"y":6.9093860000000404}},{"attributes":{"objectid":22,"name":"Beach wadiya","address":"No. 02, station avenue, colombo 06","type":"Restaurants","latitude":6.87802,"longitude":79.856704,"id":"1386","stars":"Grade&nbsp;&nbsp;&nbsp;&nbsp;&nbsp;&nbsp;&nbsp;&nbsp;&nbsp;:&nbsp;A","link":"http://beachwadiya.com\" \u003ebeachwadiya.com\u003c/a\u003e","email_id":"info@beachwadiya.com","phonenumber":"0112588568","website_link_hotels":"","district":"Colombo","photo_link":"\u003cimg src=\"../image/cache/web_service_resturent_img/U1200800000004370349-238x152.jpg\" width=\"238\" height=\"152\"/\u003e","hotel_star_ratings":"A","popup_desrciption":"","tourism_webiste_link":"","orig_fid":1386},"geometry":{"x":79.856704000000036,"y":6.8780200000000491}},{"attributes":{"objectid":23,"name":"Beehive by rnr","address":"Ms 04,race course,reid avenue,colombo 07.","type":"Restaurants","latitude":6.905039,"longitude":79.862925,"id":"1387","stars":"Grade&nbsp;&nbsp;&nbsp;&nbsp;&nbsp;&nbsp;&nbsp;&nbsp;&nbsp;:&nbsp;A","link":"http://WWW.RNR.LK\" \u003eWWW.RNR.LK\u003c/a\u003e","email_id":"ranganiy_v@chesmi.com","phonenumber":"0112821567","website_link_hotels":"","district":"Colombo","photo_link":"\u003cimg src=\"accomadation.jpg\" width=\"238\" height=\"152\" /\u003e","hotel_star_ratings":"A","popup_desrciption":"","tourism_webiste_link":"","orig_fid":1387},"geometry":{"x":79.862925000000075,"y":6.9050390000000448}},{"attributes":{"objectid":24,"name":"Bellway restaurant","address":"No. 695 , kandy road, kelaniya","type":"Restaurants","latitude":6.990954,"longitude":79.9372128,"id":"1388","stars":"Grade&nbsp;&nbsp;&nbsp;&nbsp;&nbsp;&nbsp;&nbsp;&nbsp;&nbsp;:&nbsp;A","link":"","email_id":"belway@sltnet.lk","phonenumber":"0112911127","website_link_hotels":"","district":"Gampaha","photo_link":"\u003cimg src=\"accomadation.jpg\" width=\"238\" height=\"152\" /\u003e","hotel_star_ratings":"A","popup_desrciption":"","tourism_webiste_link":"","orig_fid":1388},"geometry":{"x":79.937212800000054,"y":6.9909540000000447}},{"attributes":{"objectid":25,"name":"Berlin sky lounge","address":"No. 101/11, hunupitiya lake road, colombo 02","type":"Restaurants","latitude":6.9155805,"longitude":79.8566801,"id":"1389","stars":"Grade&nbsp;&nbsp;&nbsp;&nbsp;&nbsp;&nbsp;&nbsp;&nbsp;&nbsp;:&nbsp;A","link":"http://www.ilcielo.lk\" \u003ewww.ilcielo.lk\u003c/a\u003e","email_id":"chaminda@goldblock.org","phonenumber":"0114366355","website_link_hotels":"","district":"Colombo","photo_link":"\u003cimg src=\"accomadation.jpg\" width=\"238\" height=\"152\" /\u003e","hotel_star_ratings":"A","popup_desrciption":"","tourism_webiste_link":"","orig_fid":1389},"geometry":{"x":79.856680100000062,"y":6.9155805000000328}},{"attributes":{"objectid":26,"name":"Bijou restaurant","address":"No.44, ettukala, negombo","type":"Restaurants","latitude":7.239405,"longitude":79.841795,"id":"1390","stars":"Grade&nbsp;&nbsp;&nbsp;&nbsp;&nbsp;&nbsp;&nbsp;&nbsp;&nbsp;:&nbsp;A","link":"http://www.dollybijourestaurant.com\" \u003ewww.dollybijourestaurant.com\u003c/a\u003e","email_id":"bijou.restaurant.neg@gmail.com","phonenumber":"0312274710","website_link_hotels":"","district":"Gampaha","photo_link":"\u003cimg src=\"../image/cache/web_service_resturent_img/U1200800000000720347-238x152.jpg\" width=\"238\" height=\"152\"/\u003e","hotel_star_ratings":"A","popup_desrciption":"","tourism_webiste_link":"","orig_fid":1390},"geometry":{"x":79.841795000000047,"y":7.2394050000000334}},{"attributes":{"objectid":27,"name":"Birds garden restaurant","address":"No. 50, kaudupelella, matale","type":"Restaurants","latitude":7.5829866,"longitude":80.6251565,"id":"1391","stars":"Grade&nbsp;&nbsp;&nbsp;&nbsp;&nbsp;&nbsp;&nbsp;&nbsp;&nbsp;:&nbsp;A","link":"","email_id":"","phonenumber":"","website_link_hotels":"","district":"Matale","photo_link":"\u003cimg src=\"../image/cache/web_service_resturent_img/U1200800000001110346-238x152.jpg\" width=\"238\" height=\"152\"/\u003e","hotel_star_ratings":"A","popup_desrciption":"","tourism_webiste_link":"","orig_fid":1391},"geometry":{"x":80.62515650000006,"y":7.5829866000000266}},{"attributes":{"objectid":28,"name":"Blue ginger restaurant","address":"356,chilaw road,periyamulla,negombo","type":"Restaurants","latitude":7.2233578,"longitude":79.8464371,"id":"1392","stars":"Grade&nbsp;&nbsp;&nbsp;&nbsp;&nbsp;&nbsp;&nbsp;&nbsp;&nbsp;:&nbsp;A","link":"","email_id":"luckgayani@gmail.com","phonenumber":"0312224646","website_link_hotels":"","district":"Gampaha","photo_link":"\u003cimg src=\"accomadation.jpg\" width=\"238\" height=\"152\" /\u003e","hotel_star_ratings":"A","popup_desrciption":"","tourism_webiste_link":"","orig_fid":1392},"geometry":{"x":79.84643710000006,"y":7.2233578000000307}},{"attributes":{"objectid":29,"name":"Blue sapphire restaurant","address":"No:156/158, haputhale road, wellawaya","type":"Restaurants","latitude":6.731629,"longitude":81.099342,"id":"1393","stars":"Grade&nbsp;&nbsp;&nbsp;&nbsp;&nbsp;&nbsp;&nbsp;&nbsp;&nbsp;:&nbsp;B","link":"","email_id":"victoriangroup1970@gmail.com","phonenumber":"0552055660","website_link_hotels":"","district":"Moneragala","photo_link":"\u003cimg src=\"accomadation.jpg\" width=\"238\" height=\"152\" /\u003e","hotel_star_ratings":"B","popup_desrciption":"","tourism_webiste_link":"","orig_fid":1393},"geometry":{"x":81.099342000000036,"y":6.7316290000000549}},{"attributes":{"objectid":30,"name":"Blue sky restaurant","address":"No:109,dehiwala rd,maharagama","type":"Restaurants","latitude":6.8464106,"longitude":79.9257869,"id":"1394","stars":"Grade&nbsp;&nbsp;&nbsp;&nbsp;&nbsp;&nbsp;&nbsp;&nbsp;&nbsp;:&nbsp;A","link":"","email_id":"sudeeralakshan28@gmail.com","phonenumber":"0112849942","website_link_hotels":"","district":"Colombo","photo_link":"\u003cimg src=\"accomadation.jpg\" width=\"238\" height=\"152\" /\u003e","hotel_star_ratings":"A","popup_desrciption":"","tourism_webiste_link":"","orig_fid":1394},"geometry":{"x":79.925786900000048,"y":6.8464106000000697}},{"attributes":{"objectid":31,"name":"Broadway restaurant","address":"No. 03 1/1, station road, dehiwala.","type":"Restaurants","latitude":6.8511727,"longitude":79.8634563,"id":"1395","stars":"Grade&nbsp;&nbsp;&nbsp;&nbsp;&nbsp;&nbsp;&nbsp;&nbsp;&nbsp;:&nbsp;A","link":"","email_id":"thimalgeeganage@gmail.com","phonenumber":"","website_link_hotels":"","district":"Colombo","photo_link":"\u003cimg src=\"accomadation.jpg\" width=\"238\" height=\"152\" /\u003e","hotel_star_ratings":"A","popup_desrciption":"","tourism_webiste_link":"","orig_fid":1395},"geometry":{"x":79.863456300000053,"y":6.8511727000000633}},{"attributes":{"objectid":32,"name":"Buddes beach restaurant","address":"No.428, galle road wewala hikkaduwa","type":"Restaurants","latitude":6.127822,"longitude":80.104972,"id":"1396","stars":"Grade&nbsp;&nbsp;&nbsp;&nbsp;&nbsp;&nbsp;&nbsp;&nbsp;&nbsp;:&nbsp;B","link":"","email_id":"buddesbeach@gmail.com","phonenumber":"0914383004","website_link_hotels":"","district":"Galle","photo_link":"\u003cimg src=\"../image/cache/web_service_resturent_img/U1200800000000730345-238x152.jpg\" width=\"238\" height=\"152\"/\u003e","hotel_star_ratings":"B","popup_desrciption":"","tourism_webiste_link":"","orig_fid":1396},"geometry":{"x":80.104972000000032,"y":6.1278220000000374}},{"attributes":{"objectid":33,"name":"C lounge","address":"16/2,schofield place,colombo","type":"Restaurants","latitude":6.898297,"longitude":79.852836,"id":"1397","stars":"Grade&nbsp;&nbsp;&nbsp;&nbsp;&nbsp;&nbsp;&nbsp;&nbsp;&nbsp;:&nbsp;A","link":"","email_id":"","phonenumber":"","website_link_hotels":"","district":"Colombo","photo_link":"\u003cimg src=\"accomadation.jpg\" width=\"238\" height=\"152\" /\u003e","hotel_star_ratings":"A","popup_desrciption":"","tourism_webiste_link":"","orig_fid":1397},"geometry":{"x":79.852836000000082,"y":6.8982970000000705}},{"attributes":{"objectid":34,"name":"Cafe francais by pourcel","address":"No.48, ground floor, park street, colombo 02.","type":"Restaurants","latitude":6.9168803,"longitude":79.8566083,"id":"1398","stars":"Grade&nbsp;&nbsp;&nbsp;&nbsp;&nbsp;&nbsp;&nbsp;&nbsp;&nbsp;:&nbsp;A","link":"http://www.cafefrancaisbypourcel.com\" \u003ewww.cafefrancaisbypourcel.com\u003c/a\u003e","email_id":"kajenth.cafefrancais@gmail.com","phonenumber":"0114502602","website_link_hotels":"","district":"Colombo","photo_link":"\u003cimg src=\"accomadation.jpg\" width=\"238\" height=\"152\" /\u003e","hotel_star_ratings":"A","popup_desrciption":"","tourism_webiste_link":"","orig_fid":1398},"geometry":{"x":79.856608300000062,"y":6.9168803000000594}},{"attributes":{"objectid":35,"name":"Cafe japan restaurant","address":"No. 07, 10th lane, colombo 03","type":"Restaurants","latitude":6.899342,"longitude":79.852004,"id":"1399","stars":"Grade&nbsp;&nbsp;&nbsp;&nbsp;&nbsp;&nbsp;&nbsp;&nbsp;&nbsp;:&nbsp;A","link":"","email_id":"cafejapan24@hotmail.com","phonenumber":"0777263565","website_link_hotels":"","district":"Colombo","photo_link":"\u003cimg src=\"accomadation.jpg\" width=\"238\" height=\"152\" /\u003e","hotel_star_ratings":"A","popup_desrciption":"","tourism_webiste_link":"","orig_fid":1399},"geometry":{"x":79.852004000000079,"y":6.8993420000000469}},{"attributes":{"objectid":90,"name":"He ping restaurant","address":"440,galle road,rathmalana","type":"Restaurants","latitude":6.820978,"longitude":79.872469,"id":"1454","stars":"Grade&nbsp;&nbsp;&nbsp;&nbsp;&nbsp;&nbsp;&nbsp;&nbsp;&nbsp;:&nbsp;A","link":"","email_id":"hepingrestaurant@gmail.com","phonenumber":"0113627665","website_link_hotels":"","district":"Colombo","photo_link":"\u003cimg src=\"accomadation.jpg\" width=\"238\" height=\"152\" /\u003e","hotel_star_ratings":"A","popup_desrciption":"","tourism_webiste_link":"","orig_fid":1454},"geometry":{"x":79.872469000000081,"y":6.8209780000000251}},{"attributes":{"objectid":36,"name":"Casamara chinese restaurant","address":"No.87, highleval rd, kottawa pannipitiya","type":"Restaurants","latitude":6.84212,"longitude":79.962231,"id":"1400","stars":"Grade&nbsp;&nbsp;&nbsp;&nbsp;&nbsp;&nbsp;&nbsp;&nbsp;&nbsp;:&nbsp;A","link":"","email_id":"casamarachineserest@gmail.com","phonenumber":"0112783302","website_link_hotels":"","district":"Colombo","photo_link":"\u003cimg src=\"accomadation.jpg\" width=\"238\" height=\"152\" /\u003e","hotel_star_ratings":"A","popup_desrciption":"","tourism_webiste_link":"","orig_fid":1400},"geometry":{"x":79.962231000000031,"y":6.8421200000000226}},{"attributes":{"objectid":37,"name":"Cey-nor orienat sea food restaurant","address":"No. 335/a, d.r. wijewardena mawatha, colombo 10","type":"Restaurants","latitude":6.931418,"longitude":79.855214,"id":"1401","stars":"Grade&nbsp;&nbsp;&nbsp;&nbsp;&nbsp;&nbsp;&nbsp;&nbsp;&nbsp;:&nbsp;A","link":"","email_id":"kolvinkovidas@gmail.com","phonenumber":"0112380972","website_link_hotels":"","district":"Colombo","photo_link":"\u003cimg src=\"../image/cache/web_service_resturent_img/U1200800000001230357-238x152.jpg\" width=\"238\" height=\"152\"/\u003e","hotel_star_ratings":"A","popup_desrciption":"","tourism_webiste_link":"","orig_fid":1401},"geometry":{"x":79.855214000000046,"y":6.9314180000000647}},{"attributes":{"objectid":38,"name":"Channa resturant","address":"B 7 ,kandy road,meepitiya,kegalle","type":"Restaurants","latitude":7.250822,"longitude":80.3692683,"id":"1402","stars":"Grade&nbsp;&nbsp;&nbsp;&nbsp;&nbsp;&nbsp;&nbsp;&nbsp;&nbsp;:&nbsp;A","link":"http://www.channa.jnine.com\" \u003ewww.channa.jnine.com\u003c/a\u003e","email_id":"channa1969@gmail.com","phonenumber":"0352221009","website_link_hotels":"","district":"Kegalle","photo_link":"\u003cimg src=\"accomadation.jpg\" width=\"238\" height=\"152\" /\u003e","hotel_star_ratings":"A","popup_desrciption":"","tourism_webiste_link":"","orig_fid":1402},"geometry":{"x":80.369268300000044,"y":7.2508220000000279}},{"attributes":{"objectid":39,"name":"Chesa swiss restaurent","address":"No.03, deal  place a , colombo 03","type":"Restaurants","latitude":6.906964,"longitude":79.853337,"id":"1403","stars":"Grade&nbsp;&nbsp;&nbsp;&nbsp;&nbsp;&nbsp;&nbsp;&nbsp;&nbsp;:&nbsp;A","link":"","email_id":"","phonenumber":"2573433","website_link_hotels":"","district":"Colombo","photo_link":"\u003cimg src=\"accomadation.jpg\" width=\"238\" height=\"152\" /\u003e","hotel_star_ratings":"A","popup_desrciption":"","tourism_webiste_link":"","orig_fid":1403},"geometry":{"x":79.853337000000067,"y":6.9069640000000732}},{"attributes":{"objectid":40,"name":"Chinese delight restaurant","address":"41-a,ridgeway place, marine drive,colombo 04","type":"Restaurants","latitude":6.8794555,"longitude":79.854565,"id":"1404","stars":"Grade&nbsp;&nbsp;&nbsp;&nbsp;&nbsp;&nbsp;&nbsp;&nbsp;&nbsp;:&nbsp;A","link":"","email_id":"dinukaedirisooriya@icloud.com","phonenumber":"0112580587","website_link_hotels":"","district":"Colombo","photo_link":"\u003cimg src=\"accomadation.jpg\" width=\"238\" height=\"152\" /\u003e","hotel_star_ratings":"A","popup_desrciption":"","tourism_webiste_link":"","orig_fid":1404},"geometry":{"x":79.854565000000036,"y":6.8794555000000628}},{"attributes":{"objectid":41,"name":"Chopsticks restaurant","address":"No.317/1, nawala rd, nawala","type":"Restaurants","latitude":6.8886618,"longitude":79.8851369,"id":"1405","stars":"Grade&nbsp;&nbsp;&nbsp;&nbsp;&nbsp;&nbsp;&nbsp;&nbsp;&nbsp;:&nbsp;A","link":"","email_id":"makalanda@sltnet.lk","phonenumber":"0114932660","website_link_hotels":"","district":"Colombo","photo_link":"\u003cimg src=\"accomadation.jpg\" width=\"238\" height=\"152\" /\u003e","hotel_star_ratings":"A","popup_desrciption":"","tourism_webiste_link":"","orig_fid":1405},"geometry":{"x":79.885136900000077,"y":6.8886618000000226}},{"attributes":{"objectid":42,"name":"Cleopatra restaurant","address":"No. 250 b1, r.a.de mel mawatha, colombo 03","type":"Restaurants","latitude":6.911011,"longitude":79.851762,"id":"1406","stars":"Grade&nbsp;&nbsp;&nbsp;&nbsp;&nbsp;&nbsp;&nbsp;&nbsp;&nbsp;:&nbsp;A","link":"","email_id":"scorpion69m@yahoo.com","phonenumber":"","website_link_hotels":"","district":"Colombo","photo_link":"\u003cimg src=\"accomadation.jpg\" width=\"238\" height=\"152\" /\u003e","hotel_star_ratings":"A","popup_desrciption":"","tourism_webiste_link":"","orig_fid":1406},"geometry":{"x":79.851762000000065,"y":6.9110110000000304}},{"attributes":{"objectid":43,"name":"Clique restaurant","address":"505,union place,colombo 02","type":"Restaurants","latitude":6.9179153,"longitude":79.8613093,"id":"1407","stars":"Grade&nbsp;&nbsp;&nbsp;&nbsp;&nbsp;&nbsp;&nbsp;&nbsp;&nbsp;:&nbsp;A","link":"","email_id":"kanchana@cantaloupe.lk","phonenumber":"","website_link_hotels":"","district":"Colombo","photo_link":"\u003cimg src=\"accomadation.jpg\" width=\"238\" height=\"152\" /\u003e","hotel_star_ratings":"A","popup_desrciption":"","tourism_webiste_link":"","orig_fid":1407},"geometry":{"x":79.861309300000073,"y":6.9179153000000611}},{"attributes":{"objectid":44,"name":"Clover grange","address":"No. 95, king street, matale 21000","type":"Restaurants","latitude":7.4742565,"longitude":80.6193843,"id":"1408","stars":"Grade&nbsp;&nbsp;&nbsp;&nbsp;&nbsp;&nbsp;&nbsp;&nbsp;&nbsp;:&nbsp;A","link":"","email_id":"nihal200@sltnet.lk","phonenumber":"0662231144","website_link_hotels":"","district":"Matale","photo_link":"\u003cimg src=\"../image/cache/web_service_resturent_img/U1200800000000770344-238x152.jpg\" width=\"238\" height=\"152\"/\u003e","hotel_star_ratings":"A","popup_desrciption":"","tourism_webiste_link":"","orig_fid":1408},"geometry":{"x":80.619384300000036,"y":7.4742565000000241}},{"attributes":{"objectid":45,"name":"Club concept restaurant","address":"Randeniya, hiriwadunna, kegalle","type":"Restaurants","latitude":7.2752274,"longitude":80.3810304,"id":"1409","stars":"Grade&nbsp;&nbsp;&nbsp;&nbsp;&nbsp;&nbsp;&nbsp;&nbsp;&nbsp;:&nbsp;A","link":"","email_id":"club.concept.rest@gmail.com","phonenumber":"0352263377","website_link_hotels":"","district":"Kegalle","photo_link":"\u003cimg src=\"accomadation.jpg\" width=\"238\" height=\"152\" /\u003e","hotel_star_ratings":"A","popup_desrciption":"","tourism_webiste_link":"","orig_fid":1409},"geometry":{"x":80.381030400000043,"y":7.2752274000000625}},{"attributes":{"objectid":46,"name":"Country club restaurant","address":"No 08, bandaranayake mw, katubedda, moratuwa","type":"Restaurants","latitude":6.797283,"longitude":79.889187,"id":"1410","stars":"Grade&nbsp;&nbsp;&nbsp;&nbsp;&nbsp;&nbsp;&nbsp;&nbsp;&nbsp;:&nbsp;B","link":"","email_id":"","phonenumber":"0112643920","website_link_hotels":"","district":"Colombo","photo_link":"\u003cimg src=\"accomadation.jpg\" width=\"238\" height=\"152\" /\u003e","hotel_star_ratings":"B","popup_desrciption":"","tourism_webiste_link":"","orig_fid":1410},"geometry":{"x":79.889187000000049,"y":6.7972830000000499}},{"attributes":{"objectid":47,"name":"Cricket club cafe","address":"No.12,ernest de silve,mawatha.colombo 07.","type":"Restaurants","latitude":6.8987692,"longitude":79.8531587,"id":"1411","stars":"Grade&nbsp;&nbsp;&nbsp;&nbsp;&nbsp;&nbsp;&nbsp;&nbsp;&nbsp;:&nbsp;A","link":"","email_id":"cricketclubcafe@gmail.com","phonenumber":"0112501384","website_link_hotels":"","district":"Colombo","photo_link":"\u003cimg src=\"accomadation.jpg\" width=\"238\" height=\"152\" /\u003e","hotel_star_ratings":"A","popup_desrciption":"","tourism_webiste_link":"","orig_fid":1411},"geometry":{"x":79.853158700000051,"y":6.8987692000000607}},{"attributes":{"objectid":48,"name":"Cubbys restaurant","address":"Cubbys restaurant,85,waragoda road,kelaniya","type":"Restaurants","latitude":6.9652314,"longitude":79.8982337,"id":"1412","stars":"Grade&nbsp;&nbsp;&nbsp;&nbsp;&nbsp;&nbsp;&nbsp;&nbsp;&nbsp;:&nbsp;A","link":"","email_id":"cubbysrestaurant@gmail.com","phonenumber":"0779707820","website_link_hotels":"","district":"Gampaha","photo_link":"\u003cimg src=\"accomadation.jpg\" width=\"238\" height=\"152\" /\u003e","hotel_star_ratings":"A","popup_desrciption":"","tourism_webiste_link":"","orig_fid":1412},"geometry":{"x":79.898233700000048,"y":6.9652314000000501}},{"attributes":{"objectid":49,"name":"Curry leaves restaurant","address":"No.68.w.a.silva mw,colombo 06","type":"Restaurants","latitude":6.87609,"longitude":79.864004,"id":"1413","stars":"Grade&nbsp;&nbsp;&nbsp;&nbsp;&nbsp;&nbsp;&nbsp;&nbsp;&nbsp;:&nbsp;A","link":"","email_id":"teapacks@sltnet.lk","phonenumber":"2580223","website_link_hotels":"","district":"Colombo","photo_link":"\u003cimg src=\"accomadation.jpg\" width=\"238\" height=\"152\" /\u003e","hotel_star_ratings":"A","popup_desrciption":"","tourism_webiste_link":"","orig_fid":1413},"geometry":{"x":79.864004000000079,"y":6.8760900000000333}},{"attributes":{"objectid":50,"name":"Daniels pub & restaurant","address":"No.46, galle rd, ahungalla","type":"Restaurants","latitude":6.3110557,"longitude":80.0320449,"id":"1414","stars":"Grade&nbsp;&nbsp;&nbsp;&nbsp;&nbsp;&nbsp;&nbsp;&nbsp;&nbsp;:&nbsp;A","link":"","email_id":"nalakadesilva970@gmail.com","phonenumber":"","website_link_hotels":"","district":"Galle","photo_link":"\u003cimg src=\"accomadation.jpg\" width=\"238\" height=\"152\" /\u003e","hotel_star_ratings":"A","popup_desrciption":"","tourism_webiste_link":"","orig_fid":1414},"geometry":{"x":80.032044900000074,"y":6.311055700000054}},{"attributes":{"objectid":51,"name":"Diamond rest","address":"No. 315, colombo road, weralupa, ratnapura","type":"Restaurants","latitude":6.6988372,"longitude":80.3888861,"id":"1415","stars":"Grade&nbsp;&nbsp;&nbsp;&nbsp;&nbsp;&nbsp;&nbsp;&nbsp;&nbsp;:&nbsp;A","link":"","email_id":"diamond.restsl@gmail.com","phonenumber":"0452223484","website_link_hotels":"","district":"Ratnapura","photo_link":"\u003cimg src=\"accomadation.jpg\" width=\"238\" height=\"152\" /\u003e","hotel_star_ratings":"A","popup_desrciption":"","tourism_webiste_link":"","orig_fid":1415},"geometry":{"x":80.388886100000036,"y":6.6988372000000709}},{"attributes":{"objectid":52,"name":"Dislin italian restaurant","address":"No. 571, galle road, rawathawatta, moratuwa","type":"Restaurants","latitude":6.8733988,"longitude":79.8888911,"id":"1416","stars":"Grade&nbsp;&nbsp;&nbsp;&nbsp;&nbsp;&nbsp;&nbsp;&nbsp;&nbsp;:&nbsp;A","link":"","email_id":"info@dislin.lk","phonenumber":"0112646978","website_link_hotels":"","district":"Colombo","photo_link":"\u003cimg src=\"accomadation.jpg\" width=\"238\" height=\"152\" /\u003e","hotel_star_ratings":"A","popup_desrciption":"","tourism_webiste_link":"","orig_fid":1416},"geometry":{"x":79.88889110000008,"y":6.873398800000075}},{"attributes":{"objectid":53,"name":"Dolce vita","address":"27,poruthota road,ethukala,negambo","type":"Restaurants","latitude":7.239571,"longitude":79.841381,"id":"1417","stars":"Grade&nbsp;&nbsp;&nbsp;&nbsp;&nbsp;&nbsp;&nbsp;&nbsp;&nbsp;:&nbsp;B","link":"","email_id":"dolcevitasrilanka@hotmail.com","phonenumber":"0312274968","website_link_hotels":"","district":"Gampaha","photo_link":"\u003cimg src=\"accomadation.jpg\" width=\"238\" height=\"152\" /\u003e","hotel_star_ratings":"B","popup_desrciption":"","tourism_webiste_link":"","orig_fid":1417},"geometry":{"x":79.841381000000069,"y":7.239571000000069}},{"attributes":{"objectid":54,"name":"Dominant rajagiriya","address":"Reception hall, welikada, rajagiriya","type":"Restaurants","latitude":6.9088835,"longitude":79.8989887,"id":"1418","stars":"Grade&nbsp;&nbsp;&nbsp;&nbsp;&nbsp;&nbsp;&nbsp;&nbsp;&nbsp;:&nbsp;A","link":"","email_id":"dominanthotelrajagiriya@gmail.com","phonenumber":"","website_link_hotels":"","district":"Colombo","photo_link":"\u003cimg src=\"accomadation.jpg\" width=\"238\" height=\"152\" /\u003e","hotel_star_ratings":"A","popup_desrciption":"","tourism_webiste_link":"","orig_fid":1418},"geometry":{"x":79.898988700000075,"y":6.9088835000000586}},{"attributes":{"objectid":55,"name":"Eat me chinesee restaurant","address":"162,peradeniya road,kandy","type":"Restaurants","latitude":7.2899973,"longitude":80.6279094,"id":"1419","stars":"Grade&nbsp;&nbsp;&nbsp;&nbsp;&nbsp;&nbsp;&nbsp;&nbsp;&nbsp;:&nbsp;A","link":"","email_id":"ttjayasekera@gmail.com","phonenumber":"0814949629","website_link_hotels":"","district":"Kandy","photo_link":"\u003cimg src=\"accomadation.jpg\" width=\"238\" height=\"152\" /\u003e","hotel_star_ratings":"A","popup_desrciption":"","tourism_webiste_link":"","orig_fid":1419},"geometry":{"x":80.627909400000078,"y":7.2899973000000386}},{"attributes":{"objectid":56,"name":"Elephant bay restaurant","address":"Pinnawalawatta, pinnawala","type":"Restaurants","latitude":7.300025,"longitude":80.384688,"id":"1420","stars":"Grade&nbsp;&nbsp;&nbsp;&nbsp;&nbsp;&nbsp;&nbsp;&nbsp;&nbsp;:&nbsp;A","link":"","email_id":"","phonenumber":"0352266731","website_link_hotels":"","district":"Kegalle","photo_link":"\u003cimg src=\"accomadation.jpg\" width=\"238\" height=\"152\" /\u003e","hotel_star_ratings":"A","popup_desrciption":"","tourism_webiste_link":"","orig_fid":1420},"geometry":{"x":80.38468800000004,"y":7.3000250000000619}},{"attributes":{"objectid":57,"name":"Elephant park restaurant","address":"Pinnawala, rambukkana","type":"Restaurants","latitude":7.3004117,"longitude":80.3823351,"id":"1421","stars":"Grade&nbsp;&nbsp;&nbsp;&nbsp;&nbsp;&nbsp;&nbsp;&nbsp;&nbsp;:&nbsp;A","link":"","email_id":"pradeep.pinnalanda@gmail.com","phonenumber":"0352266171","website_link_hotels":"","district":"Kegalle","photo_link":"\u003cimg src=\"accomadation.jpg\" width=\"238\" height=\"152\" /\u003e","hotel_star_ratings":"A","popup_desrciption":"","tourism_webiste_link":"","orig_fid":1421},"geometry":{"x":80.382335100000034,"y":7.3004117000000406}},{"attributes":{"objectid":58,"name":"Excel restaurants","address":"338, t.b. jayah mawatha, colombo 10","type":"Restaurants","latitude":6.928578,"longitude":79.862709,"id":"1422","stars":"Grade&nbsp;&nbsp;&nbsp;&nbsp;&nbsp;&nbsp;&nbsp;&nbsp;&nbsp;:&nbsp;A","link":"","email_id":"babac@excelworld.lk","phonenumber":"","website_link_hotels":"","district":"Colombo","photo_link":"\u003cimg src=\"../image/cache/web_service_resturent_img/U1200800000000120356-238x152.jpg\" width=\"238\" height=\"152\"/\u003e","hotel_star_ratings":"A","popup_desrciption":"","tourism_webiste_link":"","orig_fid":1422},"geometry":{"x":79.862709000000052,"y":6.9285780000000727}},{"attributes":{"objectid":59,"name":"Farm house restaurant","address":"No.341,galle road,hikkaduwa","type":"Restaurants","latitude":6.130969,"longitude":80.101829,"id":"1423","stars":"Grade&nbsp;&nbsp;&nbsp;&nbsp;&nbsp;&nbsp;&nbsp;&nbsp;&nbsp;:&nbsp;A","link":"","email_id":"hikkaduwafarmhouse@gmail.com","phonenumber":"0912277082","website_link_hotels":"","district":"Galle","photo_link":"\u003cimg src=\"accomadation.jpg\" width=\"238\" height=\"152\" /\u003e","hotel_star_ratings":"A","popup_desrciption":"","tourism_webiste_link":"","orig_fid":1423},"geometry":{"x":80.101829000000066,"y":6.1309690000000501}},{"attributes":{"objectid":60,"name":"Fat panda","address":"31a,sea avenue,colombo 03","type":"Restaurants","latitude":6.9045172,"longitude":79.8482025,"id":"1424","stars":"Grade&nbsp;&nbsp;&nbsp;&nbsp;&nbsp;&nbsp;&nbsp;&nbsp;&nbsp;:&nbsp;A","link":"http://www.fatpanda.lk\" \u003ewww.fatpanda.lk\u003c/a\u003e","email_id":"sandun@asiacapital.lk","phonenumber":"0117772772","website_link_hotels":"","district":"Colombo","photo_link":"\u003cimg src=\"accomadation.jpg\" width=\"238\" height=\"152\" /\u003e","hotel_star_ratings":"A","popup_desrciption":"","tourism_webiste_link":"","orig_fid":1424},"geometry":{"x":79.84820250000007,"y":6.9045172000000434}},{"attributes":{"objectid":61,"name":"Fingara town & country club","address":"No. 50/21, old kesbewa road, raththanapitiya, boralesgamuwa","type":"Restaurants","latitude":6.8513542,"longitude":79.8971017,"id":"1425","stars":"Grade&nbsp;&nbsp;&nbsp;&nbsp;&nbsp;&nbsp;&nbsp;&nbsp;&nbsp;:&nbsp;A","link":"http://www.fingara.com\" \u003ewww.fingara.com\u003c/a\u003e","email_id":"info@fingara.com","phonenumber":"0112509676","website_link_hotels":"","district":"Colombo","photo_link":"\u003cimg src=\"accomadation.jpg\" width=\"238\" height=\"152\" /\u003e","hotel_star_ratings":"A","popup_desrciption":"","tourism_webiste_link":"","orig_fid":1425},"geometry":{"x":79.897101700000064,"y":6.8513542000000598}},{"attributes":{"objectid":62,"name":"Flag & whistle restaurant & pub","address":"No.256,sethmil building,5th floor,srimath ramanathan mawatha,colombo 15.","type":"Restaurants","latitude":6.952722,"longitude":79.858525,"id":"1426","stars":"Grade&nbsp;&nbsp;&nbsp;&nbsp;&nbsp;&nbsp;&nbsp;&nbsp;&nbsp;:&nbsp;A","link":"http://www.setmil.com.lk\" \u003ewww.setmil.com.lk\u003c/a\u003e","email_id":"shehan.kethaka@gmail.com","phonenumber":"0112485505","website_link_hotels":"","district":"Colombo","photo_link":"\u003cimg src=\"../image/cache/web_service_resturent_img/U1200800000000170359-238x152.jpg\" width=\"238\" height=\"152\"/\u003e","hotel_star_ratings":"A","popup_desrciption":"","tourism_webiste_link":"","orig_fid":1426},"geometry":{"x":79.858525000000043,"y":6.9527220000000511}},{"attributes":{"objectid":63,"name":"Flamingo house","address":"No 56/5,58 a,horton place,colombo 07","type":"Restaurants","latitude":6.9111923,"longitude":79.8682383,"id":"1427","stars":"Grade&nbsp;&nbsp;&nbsp;&nbsp;&nbsp;&nbsp;&nbsp;&nbsp;&nbsp;:&nbsp;A","link":"","email_id":"weere1982@yahoo.com","phonenumber":"0112695016","website_link_hotels":"","district":"Colombo","photo_link":"\u003cimg src=\"accomadation.jpg\" width=\"238\" height=\"152\" /\u003e","hotel_star_ratings":"A","popup_desrciption":"","tourism_webiste_link":"","orig_fid":1427},"geometry":{"x":79.86823830000003,"y":6.9111923000000388}},{"attributes":{"objectid":64,"name":"Flower drum","address":"No.26,thurston road,colombo03","type":"Restaurants","latitude":6.905338,"longitude":79.858198,"id":"1428","stars":"Grade&nbsp;&nbsp;&nbsp;&nbsp;&nbsp;&nbsp;&nbsp;&nbsp;&nbsp;:&nbsp;A","link":"http://www.flowerdrum.net\" \u003ewww.flowerdrum.net\u003c/a\u003e","email_id":"flowerdrumrestaurant@eol.lk","phonenumber":"2574811","website_link_hotels":"","district":"Colombo","photo_link":"\u003cimg src=\"accomadation.jpg\" width=\"238\" height=\"152\" /\u003e","hotel_star_ratings":"A","popup_desrciption":"","tourism_webiste_link":"","orig_fid":1428},"geometry":{"x":79.858198000000073,"y":6.9053380000000288}},{"attributes":{"objectid":65,"name":"Flower drum restaurant","address":"418,pannipitiya road,pelawatte,battaramulla","type":"Restaurants","latitude":6.8902418,"longitude":79.9267362,"id":"1429","stars":"Grade&nbsp;&nbsp;&nbsp;&nbsp;&nbsp;&nbsp;&nbsp;&nbsp;&nbsp;:&nbsp;A","link":"","email_id":"flowerdrumrst@slt.lk","phonenumber":"0112787980","website_link_hotels":"","district":"Colombo","photo_link":"\u003cimg src=\"../image/cache/web_service_resturent_img/U1200800000001580355-238x152.jpg\" width=\"238\" height=\"152\"/\u003e","hotel_star_ratings":"A","popup_desrciption":"","tourism_webiste_link":"","orig_fid":1429},"geometry":{"x":79.92673620000005,"y":6.8902418000000694}},{"attributes":{"objectid":66,"name":"Flower song restaurant","address":"137,kotugodella vidiya,kandy","type":"Restaurants","latitude":7.3003736,"longitude":80.6339976,"id":"1430","stars":"Grade&nbsp;&nbsp;&nbsp;&nbsp;&nbsp;&nbsp;&nbsp;&nbsp;&nbsp;:&nbsp;A","link":"","email_id":"","phonenumber":"0812229191","website_link_hotels":"","district":"Kandy","photo_link":"\u003cimg src=\"accomadation.jpg\" width=\"238\" height=\"152\" /\u003e","hotel_star_ratings":"A","popup_desrciption":"","tourism_webiste_link":"","orig_fid":1430},"geometry":{"x":80.633997600000043,"y":7.3003736000000572}},{"attributes":{"objectid":67,"name":"Free trade zone liana","address":"Boi sport complex,aweriwatta,katunayake","type":"Restaurants","latitude":7.165733,"longitude":79.883086,"id":"1431","stars":"Grade&nbsp;&nbsp;&nbsp;&nbsp;&nbsp;&nbsp;&nbsp;&nbsp;&nbsp;:&nbsp;B","link":"http://liyanrest.katunayke@gmail.com\" \u003eliyanrest.katunayke@gmail.com\u003c/a\u003e","email_id":"umedagedara@yahoo.com","phonenumber":"0114386214","website_link_hotels":"","district":"Gampaha","photo_link":"\u003cimg src=\"accomadation.jpg\" width=\"238\" height=\"152\" /\u003e","hotel_star_ratings":"B","popup_desrciption":"","tourism_webiste_link":"","orig_fid":1431},"geometry":{"x":79.883086000000048,"y":7.1657330000000456}},{"attributes":{"objectid":68,"name":"Free wind restaurant & bar","address":"No 1285, kandy road, palaiyoothu, trinco malee","type":"Restaurants","latitude":8.5875376,"longitude":81.2012688,"id":"1432","stars":"Grade&nbsp;&nbsp;&nbsp;&nbsp;&nbsp;&nbsp;&nbsp;&nbsp;&nbsp;:&nbsp;A","link":"","email_id":"freewin85@gmail.com","phonenumber":"","website_link_hotels":"","district":"Trincomalee","photo_link":"\u003cimg src=\"accomadation.jpg\" width=\"238\" height=\"152\" /\u003e","hotel_star_ratings":"A","popup_desrciption":"","tourism_webiste_link":"","orig_fid":1432},"geometry":{"x":81.201268800000037,"y":8.5875376000000756}},{"attributes":{"objectid":69,"name":"Gartons ark restaurant","address":"09/47, 06th lane, pagoda road, nugegoda.","type":"Restaurants","latitude":6.883285,"longitude":79.892965,"id":"1433","stars":"Grade&nbsp;&nbsp;&nbsp;&nbsp;&nbsp;&nbsp;&nbsp;&nbsp;&nbsp;:&nbsp;A","link":"http://www.gartonsark.com\" \u003ewww.gartonsark.com\u003c/a\u003e","email_id":"ryan.cramer@gartonhotels.com","phonenumber":"0112818632","website_link_hotels":"","district":"Colombo","photo_link":"\u003cimg src=\"accomadation.jpg\" width=\"238\" height=\"152\" /\u003e","hotel_star_ratings":"A","popup_desrciption":"","tourism_webiste_link":"","orig_fid":1433},"geometry":{"x":79.892965000000061,"y":6.8832850000000576}},{"attributes":{"objectid":70,"name":"Gihans chinesee restaurant","address":"656 a,high leval raod,gangodavila,nugegoda","type":"Restaurants","latitude":6.8438513,"longitude":79.9546712,"id":"1434","stars":"Grade&nbsp;&nbsp;&nbsp;&nbsp;&nbsp;&nbsp;&nbsp;&nbsp;&nbsp;:&nbsp;A","link":"","email_id":"gihanswijerama@gmail.com","phonenumber":"0112826724","website_link_hotels":"","district":"Colombo","photo_link":"\u003cimg src=\"accomadation.jpg\" width=\"238\" height=\"152\" /\u003e","hotel_star_ratings":"A","popup_desrciption":"","tourism_webiste_link":"","orig_fid":1434},"geometry":{"x":79.954671200000064,"y":6.8438513000000398}},{"attributes":{"objectid":71,"name":"Gihans family restuarant","address":"No.90,s.de.s.jayasingha mawatha,kohuwala","type":"Restaurants","latitude":6.8578952,"longitude":79.9060486,"id":"1435","stars":"Grade&nbsp;&nbsp;&nbsp;&nbsp;&nbsp;&nbsp;&nbsp;&nbsp;&nbsp;:&nbsp;A","link":"","email_id":"","phonenumber":"2852030","website_link_hotels":"","district":"Colombo","photo_link":"\u003cimg src=\"accomadation.jpg\" width=\"238\" height=\"152\" /\u003e","hotel_star_ratings":"A","popup_desrciption":"","tourism_webiste_link":"","orig_fid":1435},"geometry":{"x":79.906048600000076,"y":6.8578952000000299}},{"attributes":{"objectid":72,"name":"Ginza hohsen japanese restaurant","address":"Ginza hohsen japanese restaurant,hilton colombo.","type":"Restaurants","latitude":6.8974403,"longitude":79.9123613,"id":"1436","stars":"Grade&nbsp;&nbsp;&nbsp;&nbsp;&nbsp;&nbsp;&nbsp;&nbsp;&nbsp;:&nbsp;A","link":"","email_id":"ginzahohsen.hilton@yahoo.com","phonenumber":"0112492123","website_link_hotels":"","district":"Colombo","photo_link":"\u003cimg src=\"accomadation.jpg\" width=\"238\" height=\"152\" /\u003e","hotel_star_ratings":"A","popup_desrciption":"","tourism_webiste_link":"","orig_fid":1436},"geometry":{"x":79.912361300000043,"y":6.8974403000000279}},{"attributes":{"objectid":73,"name":"Golden grill","address":"No.45, national holiday resort, bentota","type":"Restaurants","latitude":6.4228766,"longitude":79.9952692,"id":"1437","stars":"Grade&nbsp;&nbsp;&nbsp;&nbsp;&nbsp;&nbsp;&nbsp;&nbsp;&nbsp;:&nbsp;A","link":"","email_id":"watrfernando@gmail.com","phonenumber":"0342275455","website_link_hotels":"","district":"Galle","photo_link":"\u003cimg src=\"accomadation.jpg\" width=\"238\" height=\"152\" /\u003e","hotel_star_ratings":"A","popup_desrciption":"","tourism_webiste_link":"","orig_fid":1437},"geometry":{"x":79.995269200000052,"y":6.4228766000000519}},{"attributes":{"objectid":74,"name":"Golden maid chinese restaurant","address":"352,baseline road,colombo 9","type":"Restaurants","latitude":6.9308022,"longitude":79.8759548,"id":"1438","stars":"Grade&nbsp;&nbsp;&nbsp;&nbsp;&nbsp;&nbsp;&nbsp;&nbsp;&nbsp;:&nbsp;A","link":"","email_id":"abeypemasiri@gmail.com","phonenumber":"0112671879","website_link_hotels":"","district":"Colombo","photo_link":"\u003cimg src=\"accomadation.jpg\" width=\"238\" height=\"152\" /\u003e","hotel_star_ratings":"A","popup_desrciption":"","tourism_webiste_link":"","orig_fid":1438},"geometry":{"x":79.875954800000045,"y":6.9308022000000733}},{"attributes":{"objectid":75,"name":"Golden mermaid hotels","address":"359,galle road,warahena ,bentota","type":"Restaurants","latitude":6.6172853,"longitude":79.9427113,"id":"1439","stars":"Grade&nbsp;&nbsp;&nbsp;&nbsp;&nbsp;&nbsp;&nbsp;&nbsp;&nbsp;:&nbsp;A","link":"http://www.escoffier.lk\" \u003ewww.escoffier.lk\u003c/a\u003e","email_id":"359@escoffier.lk","phonenumber":"0345625425","website_link_hotels":"","district":"Galle","photo_link":"\u003cimg src=\"accomadation.jpg\" width=\"238\" height=\"152\" /\u003e","hotel_star_ratings":"A","popup_desrciption":"","tourism_webiste_link":"","orig_fid":1439},"geometry":{"x":79.942711300000042,"y":6.6172853000000487}},{"attributes":{"objectid":76,"name":"Golden river holiday resort","address":"Gorakagaha junction,boralla road,wennappuwa.","type":"Restaurants","latitude":7.343813,"longitude":79.856253,"id":"1440","stars":"Grade&nbsp;&nbsp;&nbsp;&nbsp;&nbsp;&nbsp;&nbsp;&nbsp;&nbsp;:&nbsp;B","link":"","email_id":"info@goldenriver.lk","phonenumber":"0313321218","website_link_hotels":"","district":"Puttalam","photo_link":"\u003cimg src=\"accomadation.jpg\" width=\"238\" height=\"152\" /\u003e","hotel_star_ratings":"B","popup_desrciption":"","tourism_webiste_link":"","orig_fid":1440},"geometry":{"x":79.856253000000038,"y":7.3438130000000683}},{"attributes":{"objectid":77,"name":"Grand beijing seafood chinese restaurant","address":"No.62 a,dharmapala mawatha,colombo 03","type":"Restaurants","latitude":6.912497,"longitude":79.853333,"id":"1441","stars":"Grade&nbsp;&nbsp;&nbsp;&nbsp;&nbsp;&nbsp;&nbsp;&nbsp;&nbsp;:&nbsp;A","link":"","email_id":"grandbeijingfood@gmail.com","phonenumber":"0112575588","website_link_hotels":"","district":"Colombo","photo_link":"\u003cimg src=\"accomadation.jpg\" width=\"238\" height=\"152\" /\u003e","hotel_star_ratings":"A","popup_desrciption":"","tourism_webiste_link":"","orig_fid":1441},"geometry":{"x":79.853333000000077,"y":6.9124970000000303}},{"attributes":{"objectid":78,"name":"Grand holiday resort","address":"Venderland mawtha,kolinjadiya","type":"Restaurants","latitude":7.352427,"longitude":79.844467,"id":"1442","stars":"Grade&nbsp;&nbsp;&nbsp;&nbsp;&nbsp;&nbsp;&nbsp;&nbsp;&nbsp;:&nbsp;A","link":"http://www.grandholiday.com\" \u003ewww.grandholiday.com\u003c/a\u003e","email_id":"grandholiday@sltnet.lk","phonenumber":"0312251051","website_link_hotels":"","district":"Puttalam","photo_link":"\u003cimg src=\"accomadation.jpg\" width=\"238\" height=\"152\" /\u003e","hotel_star_ratings":"A","popup_desrciption":"","tourism_webiste_link":"","orig_fid":1442},"geometry":{"x":79.844467000000066,"y":7.3524270000000342}},{"attributes":{"objectid":79,"name":"Grand lake hotel","address":"No.04, loyids avenue,batticaloa.","type":"Restaurants","latitude":7.715659,"longitude":81.69808,"id":"1443","stars":"Grade&nbsp;&nbsp;&nbsp;&nbsp;&nbsp;&nbsp;&nbsp;&nbsp;&nbsp;:&nbsp;B","link":"","email_id":"","phonenumber":"","website_link_hotels":"","district":"Batticaloa","photo_link":"\u003cimg src=\"accomadation.jpg\" width=\"238\" height=\"152\" /\u003e","hotel_star_ratings":"B","popup_desrciption":"","tourism_webiste_link":"","orig_fid":1443},"geometry":{"x":81.698080000000061,"y":7.7156590000000733}},{"attributes":{"objectid":80,"name":"Grand monarch","address":"No 527/7,borella road,thalawathugoda","type":"Restaurants","latitude":6.90238,"longitude":79.8664775,"id":"1444","stars":"Grade&nbsp;&nbsp;&nbsp;&nbsp;&nbsp;&nbsp;&nbsp;&nbsp;&nbsp;:&nbsp;A","link":"","email_id":"info@grandmonarch.lk","phonenumber":"0112776611","website_link_hotels":"","district":"Colombo","photo_link":"\u003cimg src=\"accomadation.jpg\" width=\"238\" height=\"152\" /\u003e","hotel_star_ratings":"A","popup_desrciption":"","tourism_webiste_link":"","orig_fid":1444},"geometry":{"x":79.86647750000003,"y":6.9023800000000506}},{"attributes":{"objectid":81,"name":"Great wall restaurants","address":"N0.03, edward lane  colombo 03","type":"Restaurants","latitude":6.896007,"longitude":79.854866,"id":"1445","stars":"Grade&nbsp;&nbsp;&nbsp;&nbsp;&nbsp;&nbsp;&nbsp;&nbsp;&nbsp;:&nbsp;A","link":"http://www.greatwall.lk\" \u003ewww.greatwall.lk\u003c/a\u003e","email_id":"gwrmanager@sumathi.lk","phonenumber":"2508555","website_link_hotels":"","district":"Colombo","photo_link":"\u003cimg src=\"accomadation.jpg\" width=\"238\" height=\"152\" /\u003e","hotel_star_ratings":"A","popup_desrciption":"","tourism_webiste_link":"","orig_fid":1445},"geometry":{"x":79.854866000000072,"y":6.8960070000000542}},{"attributes":{"objectid":82,"name":"Green bamboo resturant","address":"No19/4,de abrew road,kaluthara north","type":"Restaurants","latitude":6.6080085,"longitude":79.9492123,"id":"1446","stars":"Grade&nbsp;&nbsp;&nbsp;&nbsp;&nbsp;&nbsp;&nbsp;&nbsp;&nbsp;:&nbsp;B","link":"","email_id":"buddi2014@outlook.com","phonenumber":"0342238173","website_link_hotels":"","district":"Kalutara","photo_link":"\u003cimg src=\"accomadation.jpg\" width=\"238\" height=\"152\" /\u003e","hotel_star_ratings":"B","popup_desrciption":"","tourism_webiste_link":"","orig_fid":1446},"geometry":{"x":79.949212300000056,"y":6.6080085000000395}},{"attributes":{"objectid":83,"name":"Green villa family restaurant","address":"No 737/7 , thalangama north , malabe.","type":"Restaurants","latitude":6.903884,"longitude":79.955108,"id":"1447","stars":"Grade&nbsp;&nbsp;&nbsp;&nbsp;&nbsp;&nbsp;&nbsp;&nbsp;&nbsp;:&nbsp;A","link":"http://not available\" \u003enot available\u003c/a\u003e","email_id":"ranga1977sl@yahoo.com","phonenumber":"0768547030","website_link_hotels":"","district":"Colombo","photo_link":"\u003cimg src=\"accomadation.jpg\" width=\"238\" height=\"152\" /\u003e","hotel_star_ratings":"A","popup_desrciption":"","tourism_webiste_link":"","orig_fid":1447},"geometry":{"x":79.955108000000052,"y":6.9038840000000619}},{"attributes":{"objectid":84,"name":"H.s.restaurant","address":"No.103,colombo road,kandana","type":"Restaurants","latitude":7.043571,"longitude":79.8954287,"id":"1448","stars":"Grade&nbsp;&nbsp;&nbsp;&nbsp;&nbsp;&nbsp;&nbsp;&nbsp;&nbsp;:&nbsp;A","link":"","email_id":"shenashhiron1234@gmail.com","phonenumber":"0113123775","website_link_hotels":"","district":"Gampaha","photo_link":"\u003cimg src=\"accomadation.jpg\" width=\"238\" height=\"152\" /\u003e","hotel_star_ratings":"A","popup_desrciption":"","tourism_webiste_link":"","orig_fid":1448},"geometry":{"x":79.895428700000082,"y":7.0435710000000427}},{"attributes":{"objectid":85,"name":"Han gook gwan- korean restaurant","address":"No.25,havelock road,colombo 5","type":"Restaurants","latitude":6.8952632,"longitude":79.8589321,"id":"1449","stars":"Grade&nbsp;&nbsp;&nbsp;&nbsp;&nbsp;&nbsp;&nbsp;&nbsp;&nbsp;:&nbsp;B","link":"","email_id":"tsrgama4@gmail.com","phonenumber":"0112588109","website_link_hotels":"","district":"Colombo","photo_link":"\u003cimg src=\"accomadation.jpg\" width=\"238\" height=\"152\" /\u003e","hotel_star_ratings":"B","popup_desrciption":"","tourism_webiste_link":"","orig_fid":1449},"geometry":{"x":79.858932100000061,"y":6.8952632000000449}},{"attributes":{"objectid":86,"name":"Hansagiri  restaurant","address":"192 1/1, bodhiraja mawatha, colombo 11","type":"Restaurants","latitude":6.937588,"longitude":79.854083,"id":"1450","stars":"Grade&nbsp;&nbsp;&nbsp;&nbsp;&nbsp;&nbsp;&nbsp;&nbsp;&nbsp;:&nbsp;A","link":"","email_id":"sskariyawasam257@gmail.com","phonenumber":"0112423237","website_link_hotels":"","district":"Colombo","photo_link":"\u003cimg src=\"accomadation.jpg\" width=\"238\" height=\"152\" /\u003e","hotel_star_ratings":"A","popup_desrciption":"","tourism_webiste_link":"","orig_fid":1450},"geometry":{"x":79.85408300000006,"y":6.937588000000062}},{"attributes":{"objectid":87,"name":"Hasara restaurant","address":"No270,dadalla,galle","type":"Restaurants","latitude":6.0494197,"longitude":80.2040596,"id":"1451","stars":"Grade&nbsp;&nbsp;&nbsp;&nbsp;&nbsp;&nbsp;&nbsp;&nbsp;&nbsp;:&nbsp;A","link":"","email_id":"","phonenumber":"0912247099","website_link_hotels":"","district":"Galle","photo_link":"\u003cimg src=\"accomadation.jpg\" width=\"238\" height=\"152\" /\u003e","hotel_star_ratings":"A","popup_desrciption":"","tourism_webiste_link":"","orig_fid":1451},"geometry":{"x":80.204059600000051,"y":6.049419700000044}},{"attributes":{"objectid":88,"name":"Havi restaurant","address":"No.186, borella road, pannipitiya","type":"Restaurants","latitude":6.857641,"longitude":79.945108,"id":"1452","stars":"Grade&nbsp;&nbsp;&nbsp;&nbsp;&nbsp;&nbsp;&nbsp;&nbsp;&nbsp;:&nbsp;A","link":"","email_id":"dineshkumararajarathne@gmail.com","phonenumber":"2897896","website_link_hotels":"","district":"Colombo","photo_link":"\u003cimg src=\"accomadation.jpg\" width=\"238\" height=\"152\" /\u003e","hotel_star_ratings":"A","popup_desrciption":"","tourism_webiste_link":"","orig_fid":1452},"geometry":{"x":79.945108000000062,"y":6.8576410000000578}},{"attributes":{"objectid":89,"name":"Hawai restaurant & pub","address":"No. 240/32/31 a, denzil kobbekaduwa mw, koswatta, battaramulla","type":"Restaurants","latitude":6.9034371,"longitude":79.9261728,"id":"1453","stars":"Grade&nbsp;&nbsp;&nbsp;&nbsp;&nbsp;&nbsp;&nbsp;&nbsp;&nbsp;:&nbsp;A","link":"","email_id":"hawairest@gmail.com","phonenumber":"0112788022","website_link_hotels":"","district":"Colombo","photo_link":"\u003cimg src=\"accomadation.jpg\" width=\"238\" height=\"152\" /\u003e","hotel_star_ratings":"A","popup_desrciption":"","tourism_webiste_link":"","orig_fid":1453},"geometry":{"x":79.926172800000074,"y":6.903437100000076}},{"attributes":{"objectid":91,"name":"Heladiv tea club  ( htc )","address":"No.08, dutch  hospital building bank of ceylon mw, pettah colombo 01","type":"Restaurants","latitude":6.9336843,"longitude":79.8413713,"id":"1455","stars":"Grade&nbsp;&nbsp;&nbsp;&nbsp;&nbsp;&nbsp;&nbsp;&nbsp;&nbsp;:&nbsp;A","link":"http://wwwheladiv.com\" \u003ewwwheladiv.com\u003c/a\u003e","email_id":"shane@heladiv.lk","phonenumber":"0112238714","website_link_hotels":"","district":"Colombo","photo_link":"\u003cimg src=\"accomadation.jpg\" width=\"238\" height=\"152\" /\u003e","hotel_star_ratings":"A","popup_desrciption":"","tourism_webiste_link":"","orig_fid":1455},"geometry":{"x":79.841371300000048,"y":6.9336843000000385}},{"attributes":{"objectid":92,"name":"Heshan restaurant","address":"178/1 mahabage road,ragama","type":"Restaurants","latitude":7.027353,"longitude":79.916078,"id":"1456","stars":"Grade&nbsp;&nbsp;&nbsp;&nbsp;&nbsp;&nbsp;&nbsp;&nbsp;&nbsp;:&nbsp;B","link":"","email_id":"nhl178mendis@gmail.com","phonenumber":"0112956612","website_link_hotels":"","district":"Gampaha","photo_link":"\u003cimg src=\"accomadation.jpg\" width=\"238\" height=\"152\" /\u003e","hotel_star_ratings":"B","popup_desrciption":"","tourism_webiste_link":"","orig_fid":1456},"geometry":{"x":79.916078000000084,"y":7.0273530000000619}},{"attributes":{"objectid":93,"name":"Hotel francis","address":"No. 389, galle road, hikkaduwa","type":"Restaurants","latitude":6.149836,"longitude":80.10455,"id":"1457","stars":"Grade&nbsp;&nbsp;&nbsp;&nbsp;&nbsp;&nbsp;&nbsp;&nbsp;&nbsp;:&nbsp;A","link":"","email_id":"Sidath.goonawardene@gmail.com","phonenumber":"0912277019","website_link_hotels":"","district":"Galle","photo_link":"\u003cimg src=\"accomadation.jpg\" width=\"238\" height=\"152\" /\u003e","hotel_star_ratings":"A","popup_desrciption":"","tourism_webiste_link":"","orig_fid":1457},"geometry":{"x":80.104550000000074,"y":6.1498360000000503}},{"attributes":{"objectid":94,"name":"Hotel river island","address":"Christoper mawatha,wennappuwa.","type":"Restaurants","latitude":7.3526191,"longitude":79.8535359,"id":"1458","stars":"Grade&nbsp;&nbsp;&nbsp;&nbsp;&nbsp;&nbsp;&nbsp;&nbsp;&nbsp;:&nbsp;A","link":"http://wwwhotelriverlandcom\" \u003ewwwhotelriverlandcom\u003c/a\u003e","email_id":"","phonenumber":"0313619771","website_link_hotels":"","district":"Puttalam","photo_link":"\u003cimg src=\"accomadation.jpg\" width=\"238\" height=\"152\" /\u003e","hotel_star_ratings":"A","popup_desrciption":"","tourism_webiste_link":"","orig_fid":1458},"geometry":{"x":79.853535900000054,"y":7.3526191000000267}},{"attributes":{"objectid":95,"name":"Iceland residencies restaurant","address":"No.49/16, galle road, colombo 03","type":"Restaurants","latitude":6.919955,"longitude":79.848136,"id":"1459","stars":"Grade&nbsp;&nbsp;&nbsp;&nbsp;&nbsp;&nbsp;&nbsp;&nbsp;&nbsp;:&nbsp;A","link":"","email_id":"","phonenumber":"","website_link_hotels":"","district":"Colombo","photo_link":"\u003cimg src=\"accomadation.jpg\" width=\"238\" height=\"152\" /\u003e","hotel_star_ratings":"A","popup_desrciption":"","tourism_webiste_link":"","orig_fid":1459},"geometry":{"x":79.848136000000068,"y":6.9199550000000727}},{"attributes":{"objectid":96,"name":"Inn by the lake","address":"N0.36, dalada veediya, kandy","type":"Restaurants","latitude":7.2933442,"longitude":80.6363977,"id":"1460","stars":"Grade&nbsp;&nbsp;&nbsp;&nbsp;&nbsp;&nbsp;&nbsp;&nbsp;&nbsp;:&nbsp;A","link":"","email_id":"bakehousekandy@gmail.com","phonenumber":"0812234341","website_link_hotels":"","district":"Kandy","photo_link":"\u003cimg src=\"../image/cache/web_service_resturent_img/U1200800000000580353-238x152.jpg\" width=\"238\" height=\"152\"/\u003e","hotel_star_ratings":"A","popup_desrciption":"","tourism_webiste_link":"","orig_fid":1460},"geometry":{"x":80.636397700000032,"y":7.2933442000000355}},{"attributes":{"objectid":97,"name":"J.l.h.beach restaurant","address":"382/1,galle road,hikkaduwa","type":"Restaurants","latitude":6.130183,"longitude":80.10153,"id":"1461","stars":"Grade&nbsp;&nbsp;&nbsp;&nbsp;&nbsp;&nbsp;&nbsp;&nbsp;&nbsp;:&nbsp;A","link":"","email_id":"jlh.asela@gmail.com","phonenumber":"0912277139","website_link_hotels":"","district":"Galle","photo_link":"\u003cimg src=\"accomadation.jpg\" width=\"238\" height=\"152\" /\u003e","hotel_star_ratings":"A","popup_desrciption":"","tourism_webiste_link":"","orig_fid":1461},"geometry":{"x":80.101530000000082,"y":6.130183000000045}},{"attributes":{"objectid":98,"name":"Jack tree restaurant","address":"No:200,park road,colombo 5","type":"Restaurants","latitude":6.887646,"longitude":79.873076,"id":"1462","stars":"Grade&nbsp;&nbsp;&nbsp;&nbsp;&nbsp;&nbsp;&nbsp;&nbsp;&nbsp;:&nbsp;A","link":"","email_id":"sajeewa@jacktree.com","phonenumber":"7620620","website_link_hotels":"","district":"Colombo","photo_link":"\u003cimg src=\"accomadation.jpg\" width=\"238\" height=\"152\" /\u003e","hotel_star_ratings":"A","popup_desrciption":"","tourism_webiste_link":"","orig_fid":1462},"geometry":{"x":79.873076000000083,"y":6.8876460000000748}},{"attributes":{"objectid":99,"name":"Janakala avanhala","address":"Janakala avanhala,kandy road,kurunegala","type":"Restaurants","latitude":7.4794908,"longitude":80.3703003,"id":"1463","stars":"Grade&nbsp;&nbsp;&nbsp;&nbsp;&nbsp;&nbsp;&nbsp;&nbsp;&nbsp;:&nbsp;A","link":"http://-\" \u003e-\u003c/a\u003e","email_id":"cyrilsapiri@gmail.com","phonenumber":"0374931140","website_link_hotels":"","district":"Kurunegala","photo_link":"\u003cimg src=\"accomadation.jpg\" width=\"238\" height=\"152\" /\u003e","hotel_star_ratings":"A","popup_desrciption":"","tourism_webiste_link":"","orig_fid":1463},"geometry":{"x":80.370300300000054,"y":7.4794908000000646}},{"attributes":{"objectid":100,"name":"Jayalath inn restaurant","address":"269, weligampitiya ja-ela","type":"Restaurants","latitude":7.068346,"longitude":79.894114,"id":"1464","stars":"Grade&nbsp;&nbsp;&nbsp;&nbsp;&nbsp;&nbsp;&nbsp;&nbsp;&nbsp;:&nbsp;A","link":"","email_id":"anil.jayawardana58@gmail.com","phonenumber":"0112236335","website_link_hotels":"","district":"Gampaha","photo_link":"\u003cimg src=\"accomadation.jpg\" width=\"238\" height=\"152\" /\u003e","hotel_star_ratings":"A","popup_desrciption":"","tourism_webiste_link":"","orig_fid":1464},"geometry":{"x":79.894114000000059,"y":7.0683460000000764}},{"attributes":{"objectid":101,"name":"Jetters","address":"No 103e/4,new kandy road,kotalawala,kaduwela","type":"Restaurants","latitude":6.9212122,"longitude":79.9730502,"id":"1465","stars":"Grade&nbsp;&nbsp;&nbsp;&nbsp;&nbsp;&nbsp;&nbsp;&nbsp;&nbsp;:&nbsp;A","link":"","email_id":"jetterskaduwela@gmail.com","phonenumber":"0759790714","website_link_hotels":"","district":"Colombo","photo_link":"\u003cimg src=\"accomadation.jpg\" width=\"238\" height=\"152\" /\u003e","hotel_star_ratings":"A","popup_desrciption":"","tourism_webiste_link":"","orig_fid":1465},"geometry":{"x":79.973050200000046,"y":6.9212122000000704}},{"attributes":{"objectid":102,"name":"Jo - jos place","address":"No. 43/6 a , de alwis avenue , mount  lavinia","type":"Restaurants","latitude":6.841075,"longitude":79.862834,"id":"1466","stars":"Grade&nbsp;&nbsp;&nbsp;&nbsp;&nbsp;&nbsp;&nbsp;&nbsp;&nbsp;:&nbsp;B","link":"","email_id":"jojosplace8@gmail.com","phonenumber":"0115018320","website_link_hotels":"","district":"Colombo","photo_link":"\u003cimg src=\"accomadation.jpg\" width=\"238\" height=\"152\" /\u003e","hotel_star_ratings":"B","popup_desrciption":"","tourism_webiste_link":"","orig_fid":1466},"geometry":{"x":79.862834000000078,"y":6.8410750000000462}},{"attributes":{"objectid":103,"name":"K.d.k.restaurant","address":"Kombavil,w.n.4,puthukudiyuppu,mulaitivu","type":"Restaurants","latitude":9.314115,"longitude":80.697939,"id":"1467","stars":"Grade&nbsp;&nbsp;&nbsp;&nbsp;&nbsp;&nbsp;&nbsp;&nbsp;&nbsp;:&nbsp;B","link":"","email_id":"kdkresthouse@gmail.com","phonenumber":"","website_link_hotels":"","district":"Mullaitivu","photo_link":"\u003cimg src=\"accomadation.jpg\" width=\"238\" height=\"152\" /\u003e","hotel_star_ratings":"B","popup_desrciption":"","tourism_webiste_link":"","orig_fid":1467},"geometry":{"x":80.697939000000076,"y":9.3141150000000721}},{"attributes":{"objectid":104,"name":"Kaemasutra  resturant","address":"No 30,independence square,colombo 07","type":"Restaurants","latitude":6.9027927,"longitude":79.8665687,"id":"1468","stars":"Grade&nbsp;&nbsp;&nbsp;&nbsp;&nbsp;&nbsp;&nbsp;&nbsp;&nbsp;:&nbsp;A","link":"","email_id":"sameerahp123@gmail.com","phonenumber":"0112323847","website_link_hotels":"","district":"Colombo","photo_link":"\u003cimg src=\"accomadation.jpg\" width=\"238\" height=\"152\" /\u003e","hotel_star_ratings":"A","popup_desrciption":"","tourism_webiste_link":"","orig_fid":1468},"geometry":{"x":79.866568700000073,"y":6.9027927000000204}},{"attributes":{"objectid":105,"name":"Kamlo sea food restaurant","address":"62,poruthota road,ettukala,negombo","type":"Restaurants","latitude":7.239959,"longitude":79.841828,"id":"1469","stars":"Grade&nbsp;&nbsp;&nbsp;&nbsp;&nbsp;&nbsp;&nbsp;&nbsp;&nbsp;:&nbsp;B","link":"","email_id":"jkandamudali@gmail.com","phonenumber":"0312278624","website_link_hotels":"","district":"Gampaha","photo_link":"\u003cimg src=\"accomadation.jpg\" width=\"238\" height=\"152\" /\u003e","hotel_star_ratings":"B","popup_desrciption":"","tourism_webiste_link":"","orig_fid":1469},"geometry":{"x":79.841828000000078,"y":7.2399590000000558}},{"attributes":{"objectid":106,"name":"Kandoori restaurant (beruwala)","address":"428, galle road, hettimulla beruwala","type":"Restaurants","latitude":6.878257,"longitude":79.85772,"id":"1470","stars":"Grade&nbsp;&nbsp;&nbsp;&nbsp;&nbsp;&nbsp;&nbsp;&nbsp;&nbsp;:&nbsp;A","link":"","email_id":"info@kandoori.com","phonenumber":"0344935836","website_link_hotels":"","district":"Kalutara","photo_link":"\u003cimg src=\"accomadation.jpg\" width=\"238\" height=\"152\" /\u003e","hotel_star_ratings":"A","popup_desrciption":"","tourism_webiste_link":"","orig_fid":1470},"geometry":{"x":79.857720000000029,"y":6.878257000000076}},{"attributes":{"objectid":107,"name":"Kandoori restaurant (colombo)","address":"17,charlimont road,colombo 06","type":"Restaurants","latitude":6.8804646,"longitude":79.8579625,"id":"1471","stars":"Grade&nbsp;&nbsp;&nbsp;&nbsp;&nbsp;&nbsp;&nbsp;&nbsp;&nbsp;:&nbsp;A","link":"http://kandoori.com\" \u003ekandoori.com\u003c/a\u003e","email_id":"kandooricmb@gmail.com","phonenumber":"","website_link_hotels":"","district":"Colombo","photo_link":"\u003cimg src=\"accomadation.jpg\" width=\"238\" height=\"152\" /\u003e","hotel_star_ratings":"A","popup_desrciption":"","tourism_webiste_link":"","orig_fid":1471},"geometry":{"x":79.857962500000042,"y":6.8804646000000389}},{"attributes":{"objectid":108,"name":"Kent restaurant","address":"No.270/2,kaduwela road,thalangama north,koswatta","type":"Restaurants","latitude":6.9068908,"longitude":79.9268864,"id":"1472","stars":"Grade&nbsp;&nbsp;&nbsp;&nbsp;&nbsp;&nbsp;&nbsp;&nbsp;&nbsp;:&nbsp;A","link":"","email_id":"kentrestaurant974@gmail.com","phonenumber":"0112889302","website_link_hotels":"","district":"Colombo","photo_link":"\u003cimg src=\"accomadation.jpg\" width=\"238\" height=\"152\" /\u003e","hotel_star_ratings":"A","popup_desrciption":"","tourism_webiste_link":"","orig_fid":1472},"geometry":{"x":79.926886400000058,"y":6.906890800000042}},{"attributes":{"objectid":109,"name":"King prawn restaurant","address":"630.prince of wales avenue,colombo14","type":"Restaurants","latitude":6.9671179,"longitude":80.7638605,"id":"1473","stars":"Grade&nbsp;&nbsp;&nbsp;&nbsp;&nbsp;&nbsp;&nbsp;&nbsp;&nbsp;:&nbsp;A","link":"","email_id":"kingprawn33@yahoo.com","phonenumber":"0115843801","website_link_hotels":"","district":"Colombo","photo_link":"\u003cimg src=\"accomadation.jpg\" width=\"238\" height=\"152\" /\u003e","hotel_star_ratings":"A","popup_desrciption":"","tourism_webiste_link":"","orig_fid":1473},"geometry":{"x":80.763860500000078,"y":6.967117900000062}},{"attributes":{"objectid":110,"name":"King taste resturant","address":"No 04,bandaranayaka mw,katubedda,moratuwa","type":"Restaurants","latitude":6.802139,"longitude":79.889428,"id":"1474","stars":"Grade&nbsp;&nbsp;&nbsp;&nbsp;&nbsp;&nbsp;&nbsp;&nbsp;&nbsp;:&nbsp;A","link":"","email_id":"kingtaste@sltnet.lk","phonenumber":"0112655999","website_link_hotels":"","district":"Colombo","photo_link":"\u003cimg src=\"accomadation.jpg\" width=\"238\" height=\"152\" /\u003e","hotel_star_ratings":"A","popup_desrciption":"","tourism_webiste_link":"","orig_fid":1474},"geometry":{"x":79.889428000000066,"y":6.8021390000000679}},{"attributes":{"objectid":111,"name":"Kinjou chinese restaurant","address":"33,amarasekara mw,colombo-05","type":"Restaurants","latitude":6.885133,"longitude":79.866314,"id":"1475","stars":"Grade&nbsp;&nbsp;&nbsp;&nbsp;&nbsp;&nbsp;&nbsp;&nbsp;&nbsp;:&nbsp;A","link":"http://kinjoulanka\" \u003ekinjoulanka\u003c/a\u003e","email_id":"","phonenumber":"2589477","website_link_hotels":"","district":"Colombo","photo_link":"\u003cimg src=\"accomadation.jpg\" width=\"238\" height=\"152\" /\u003e","hotel_star_ratings":"A","popup_desrciption":"","tourism_webiste_link":"","orig_fid":1475},"geometry":{"x":79.866314000000045,"y":6.885133000000053}},{"attributes":{"objectid":112,"name":"Kinnaree restaurants","address":"62a, 1st floor, chatham street, colombo 1.","type":"Restaurants","latitude":6.93426,"longitude":79.843444,"id":"1476","stars":"Grade&nbsp;&nbsp;&nbsp;&nbsp;&nbsp;&nbsp;&nbsp;&nbsp;&nbsp;:&nbsp;A","link":"http://www.kinnaree.lk\" \u003ewww.kinnaree.lk\u003c/a\u003e","email_id":"manager@blackpeppercolombo.lk","phonenumber":"0777359155","website_link_hotels":"","district":"Colombo","photo_link":"\u003cimg src=\"accomadation.jpg\" width=\"238\" height=\"152\" /\u003e","hotel_star_ratings":"A","popup_desrciption":"","tourism_webiste_link":"","orig_fid":1476},"geometry":{"x":79.843444000000034,"y":6.9342600000000516}},{"attributes":{"objectid":113,"name":"Kudos restaurant & bar","address":"206,havelock road,colombo-5","type":"Restaurants","latitude":6.888656,"longitude":79.863988,"id":"1477","stars":"Grade&nbsp;&nbsp;&nbsp;&nbsp;&nbsp;&nbsp;&nbsp;&nbsp;&nbsp;:&nbsp;A","link":"http://www.kudosclub.com\" \u003ewww.kudosclub.com\u003c/a\u003e","email_id":"lalithnallaperuma@gmail.com","phonenumber":"0112580000","website_link_hotels":"","district":"Colombo","photo_link":"\u003cimg src=\"accomadation.jpg\" width=\"238\" height=\"152\" /\u003e","hotel_star_ratings":"A","popup_desrciption":"","tourism_webiste_link":"","orig_fid":1477},"geometry":{"x":79.863988000000063,"y":6.8886560000000259}},{"attributes":{"objectid":114,"name":"Kuuraku japanese restaurant","address":"48b,  park street, colombo02","type":"Restaurants","latitude":6.916473,"longitude":79.858408,"id":"1478","stars":"Grade&nbsp;&nbsp;&nbsp;&nbsp;&nbsp;&nbsp;&nbsp;&nbsp;&nbsp;:&nbsp;A","link":"","email_id":"salaka.kuuraku@gmail.com","phonenumber":"0112307800","website_link_hotels":"","district":"Colombo","photo_link":"\u003cimg src=\"accomadation.jpg\" width=\"238\" height=\"152\" /\u003e","hotel_star_ratings":"A","popup_desrciption":"","tourism_webiste_link":"","orig_fid":1478},"geometry":{"x":79.858408000000054,"y":6.9164730000000532}},{"attributes":{"objectid":115,"name":"Lagoon breeze food court","address":"No. 664, liyanegemulla, seeduwa","type":"Restaurants","latitude":7.1485166,"longitude":79.8711244,"id":"1479","stars":"Grade&nbsp;&nbsp;&nbsp;&nbsp;&nbsp;&nbsp;&nbsp;&nbsp;&nbsp;:&nbsp;A","link":"","email_id":"","phonenumber":"0112257812","website_link_hotels":"","district":"Colombo","photo_link":"\u003cimg src=\"accomadation.jpg\" width=\"238\" height=\"152\" /\u003e","hotel_star_ratings":"A","popup_desrciption":"","tourism_webiste_link":"","orig_fid":1479},"geometry":{"x":79.871124400000042,"y":7.1485166000000504}},{"attributes":{"objectid":116,"name":"Lak laguna restaurant","address":"78 main road,kalpitiya,","type":"Restaurants","latitude":8.234273,"longitude":79.763124,"id":"1480","stars":"Grade&nbsp;&nbsp;&nbsp;&nbsp;&nbsp;&nbsp;&nbsp;&nbsp;&nbsp;:&nbsp;B","link":"http://WWW.LAKLAGUNARESTAURANT.COM\" \u003eWWW.LAKLAGUNARESTAURANT.COM\u003c/a\u003e","email_id":"jessenessoo@gmail.com","phonenumber":"","website_link_hotels":"","district":"Puttalam","photo_link":"\u003cimg src=\"accomadation.jpg\" width=\"238\" height=\"152\" /\u003e","hotel_star_ratings":"B","popup_desrciption":"","tourism_webiste_link":"","orig_fid":1480},"geometry":{"x":79.763124000000062,"y":8.2342730000000302}},{"attributes":{"objectid":117,"name":"Lavinia breeze","address":"No. 43/7, de alwis avenue, off de seram road, mount lavinia","type":"Restaurants","latitude":6.841042,"longitude":79.862894,"id":"1481","stars":"Grade&nbsp;&nbsp;&nbsp;&nbsp;&nbsp;&nbsp;&nbsp;&nbsp;&nbsp;:&nbsp;A","link":"http://www.Laviniabreeze.lk\" \u003ewww.Laviniabreeze.lk\u003c/a\u003e","email_id":"edirisinghe.deepa@gmail.com","phonenumber":"0114203781","website_link_hotels":"","district":"Colombo","photo_link":"\u003cimg src=\"accomadation.jpg\" width=\"238\" height=\"152\" /\u003e","hotel_star_ratings":"A","popup_desrciption":"","tourism_webiste_link":"","orig_fid":1481},"geometry":{"x":79.86289400000004,"y":6.8410420000000727}},{"attributes":{"objectid":118,"name":"Lavinia restaurant & hotel","address":"No 43, beach road, mt. lavinia","type":"Restaurants","latitude":6.840196,"longitude":79.863037,"id":"1482","stars":"Grade&nbsp;&nbsp;&nbsp;&nbsp;&nbsp;&nbsp;&nbsp;&nbsp;&nbsp;:&nbsp;B","link":"","email_id":"dilinilrh@steamboat.lk","phonenumber":"0112710101","website_link_hotels":"","district":"Colombo","photo_link":"\u003cimg src=\"accomadation.jpg\" width=\"238\" height=\"152\" /\u003e","hotel_star_ratings":"B","popup_desrciption":"","tourism_webiste_link":"","orig_fid":1482},"geometry":{"x":79.863037000000077,"y":6.8401960000000486}},{"attributes":{"objectid":119,"name":"Leisureworld water park","address":"Seethawaka, kaluaggala","type":"Restaurants","latitude":6.923083,"longitude":80.105631,"id":"1483","stars":"Grade&nbsp;&nbsp;&nbsp;&nbsp;&nbsp;&nbsp;&nbsp;&nbsp;&nbsp;:&nbsp;A","link":"http://www.leisureworld.lk\" \u003ewww.leisureworld.lk\u003c/a\u003e","email_id":"leisureworld@sltnet.lk","phonenumber":"0362253999","website_link_hotels":"","district":"Colombo","photo_link":"\u003cimg src=\"accomadation.jpg\" width=\"238\" height=\"152\" /\u003e","hotel_star_ratings":"A","popup_desrciption":"","tourism_webiste_link":"","orig_fid":1483},"geometry":{"x":80.105631000000074,"y":6.9230830000000765}},{"attributes":{"objectid":120,"name":"Letona cafe","address":"No. 252/4,kandy road, yakkala.","type":"Restaurants","latitude":7.0803093,"longitude":80.0251723,"id":"1484","stars":"Grade&nbsp;&nbsp;&nbsp;&nbsp;&nbsp;&nbsp;&nbsp;&nbsp;&nbsp;:&nbsp;A","link":"","email_id":"letonafoods1517@gmail.com","phonenumber":"0332223959","website_link_hotels":"","district":"Gampaha","photo_link":"\u003cimg src=\"accomadation.jpg\" width=\"238\" height=\"152\" /\u003e","hotel_star_ratings":"A","popup_desrciption":"","tourism_webiste_link":"","orig_fid":1484},"geometry":{"x":80.025172300000065,"y":7.0803093000000672}},{"attributes":{"objectid":121,"name":"Likoori","address":"No 25/1/2,station road,bambalapitiya","type":"Restaurants","latitude":6.8934799,"longitude":79.8519309,"id":"1485","stars":"Grade&nbsp;&nbsp;&nbsp;&nbsp;&nbsp;&nbsp;&nbsp;&nbsp;&nbsp;:&nbsp;B","link":"","email_id":"shadir_2007@yahoo.com","phonenumber":"0718014744","website_link_hotels":"","district":"Colombo","photo_link":"\u003cimg src=\"accomadation.jpg\" width=\"238\" height=\"152\" /\u003e","hotel_star_ratings":"B","popup_desrciption":"","tourism_webiste_link":"","orig_fid":1485},"geometry":{"x":79.85193090000007,"y":6.8934799000000453}},{"attributes":{"objectid":122,"name":"Lobby bistro platinum 1","address":"No:1, bagatalle road, colombo 03","type":"Restaurants","latitude":6.900651,"longitude":79.853385,"id":"1486","stars":"Grade&nbsp;&nbsp;&nbsp;&nbsp;&nbsp;&nbsp;&nbsp;&nbsp;&nbsp;:&nbsp;A","link":"http://www.kingsburyhotel.com\" \u003ewww.kingsburyhotel.com\u003c/a\u003e","email_id":"scoh@thekingsburyhotel.com","phonenumber":"0112421221","website_link_hotels":"","district":"Colombo","photo_link":"\u003cimg src=\"accomadation.jpg\" width=\"238\" height=\"152\" /\u003e","hotel_star_ratings":"A","popup_desrciption":"","tourism_webiste_link":"","orig_fid":1486},"geometry":{"x":79.85338500000006,"y":6.9006510000000389}},{"attributes":{"objectid":123,"name":"Long teng chinese resturant","address":"No 347,kandy road,ambepussa,warakapola","type":"Restaurants","latitude":7.2395429,"longitude":80.205671,"id":"1487","stars":"Grade&nbsp;&nbsp;&nbsp;&nbsp;&nbsp;&nbsp;&nbsp;&nbsp;&nbsp;:&nbsp;A","link":"","email_id":"ciluniint.lk@gmail.com","phonenumber":"0352267080","website_link_hotels":"","district":"Kegalle","photo_link":"\u003cimg src=\"accomadation.jpg\" width=\"238\" height=\"152\" /\u003e","hotel_star_ratings":"A","popup_desrciption":"","tourism_webiste_link":"","orig_fid":1487},"geometry":{"x":80.205671000000052,"y":7.2395429000000604}},{"attributes":{"objectid":124,"name":"Lords restaurant","address":"80b poruthota road etthukala negombo","type":"Restaurants","latitude":7.241353,"longitude":79.842082,"id":"1488","stars":"Grade&nbsp;&nbsp;&nbsp;&nbsp;&nbsp;&nbsp;&nbsp;&nbsp;&nbsp;:&nbsp;A","link":"http://www.lordsrestaurant.net\" \u003ewww.lordsrestaurant.net\u003c/a\u003e","email_id":"martinlordsrestaurant@gmail.com","phonenumber":"0777234721","website_link_hotels":"","district":"Gampaha","photo_link":"\u003cimg src=\"accomadation.jpg\" width=\"238\" height=\"152\" /\u003e","hotel_star_ratings":"A","popup_desrciption":"","tourism_webiste_link":"","orig_fid":1488},"geometry":{"x":79.842082000000062,"y":7.2413530000000605}},{"attributes":{"objectid":125,"name":"Lotus leaf restaurant","address":"No. 466, union place, colombo 02","type":"Restaurants","latitude":6.9169607,"longitude":79.862676,"id":"1489","stars":"Grade&nbsp;&nbsp;&nbsp;&nbsp;&nbsp;&nbsp;&nbsp;&nbsp;&nbsp;:&nbsp;A","link":"","email_id":"senkada@ymail.com","phonenumber":"0114610111","website_link_hotels":"","district":"Colombo","photo_link":"\u003cimg src=\"accomadation.jpg\" width=\"238\" height=\"152\" /\u003e","hotel_star_ratings":"A","popup_desrciption":"","tourism_webiste_link":"","orig_fid":1489},"geometry":{"x":79.862676000000079,"y":6.916960700000061}},{"attributes":{"objectid":126,"name":"Lyons","address":"No. 27, peradeniya road, kandy","type":"Restaurants","latitude":7.2927356,"longitude":80.6304012,"id":"1490","stars":"Grade&nbsp;&nbsp;&nbsp;&nbsp;&nbsp;&nbsp;&nbsp;&nbsp;&nbsp;:&nbsp;A","link":"","email_id":"lyons_res@yahoo.com","phonenumber":"0812223073","website_link_hotels":"","district":"Kandy","photo_link":"\u003cimg src=\"accomadation.jpg\" width=\"238\" height=\"152\" /\u003e","hotel_star_ratings":"A","popup_desrciption":"","tourism_webiste_link":"","orig_fid":1490},"geometry":{"x":80.630401200000051,"y":7.2927356000000714}},{"attributes":{"objectid":127,"name":"Maharaja palace restaurant","address":"No. 1/a, rajakeeya mawatha, colombo 07","type":"Restaurants","latitude":6.9057918,"longitude":79.8581254,"id":"1491","stars":"Grade&nbsp;&nbsp;&nbsp;&nbsp;&nbsp;&nbsp;&nbsp;&nbsp;&nbsp;:&nbsp;A","link":"","email_id":"","phonenumber":"0114786786","website_link_hotels":"","district":"Colombo","photo_link":"\u003cimg src=\"accomadation.jpg\" width=\"238\" height=\"152\" /\u003e","hotel_star_ratings":"A","popup_desrciption":"","tourism_webiste_link":"","orig_fid":1491},"geometry":{"x":79.858125400000063,"y":6.9057918000000313}},{"attributes":{"objectid":128,"name":"Makrin restaurant and bakery","address":"No. 798, horana road, boralesgamuwa","type":"Restaurants","latitude":6.838949,"longitude":79.903263,"id":"1492","stars":"Grade&nbsp;&nbsp;&nbsp;&nbsp;&nbsp;&nbsp;&nbsp;&nbsp;&nbsp;:&nbsp;A","link":"","email_id":"colombo1@lionbeer.com","phonenumber":"0112545828","website_link_hotels":"","district":"Colombo","photo_link":"\u003cimg src=\"accomadation.jpg\" width=\"238\" height=\"152\" /\u003e","hotel_star_ratings":"A","popup_desrciption":"","tourism_webiste_link":"","orig_fid":1492},"geometry":{"x":79.903263000000038,"y":6.8389490000000706}},{"attributes":{"objectid":129,"name":"Mangala reception hall & chinese restaurant","address":"No. 329, munasinghe mahal, makola road, kiribathgoda","type":"Restaurants","latitude":6.9787898,"longitude":79.936046,"id":"1493","stars":"Grade&nbsp;&nbsp;&nbsp;&nbsp;&nbsp;&nbsp;&nbsp;&nbsp;&nbsp;:&nbsp;A","link":"","email_id":"hmsomarathnabanda@gmail.com","phonenumber":"0114815583","website_link_hotels":"","district":"Gampaha","photo_link":"\u003cimg src=\"accomadation.jpg\" width=\"238\" height=\"152\" /\u003e","hotel_star_ratings":"A","popup_desrciption":"","tourism_webiste_link":"","orig_fid":1493},"geometry":{"x":79.936046000000033,"y":6.9787898000000723}},{"attributes":{"objectid":130,"name":"Mathura madras woodlands","address":"16, melbourne avenue, colombo 04","type":"Restaurants","latitude":6.8857447,"longitude":79.8546798,"id":"1494","stars":"Grade&nbsp;&nbsp;&nbsp;&nbsp;&nbsp;&nbsp;&nbsp;&nbsp;&nbsp;:&nbsp;A","link":"","email_id":"mathurarestaurant@gmail.com","phonenumber":"0112690318","website_link_hotels":"","district":"Colombo","photo_link":"\u003cimg src=\"accomadation.jpg\" width=\"238\" height=\"152\" /\u003e","hotel_star_ratings":"A","popup_desrciption":"","tourism_webiste_link":"","orig_fid":1494},"geometry":{"x":79.854679800000042,"y":6.885744700000032}},{"attributes":{"objectid":131,"name":"Mathura madras woodlands","address":"165,main street,baththaramulla","type":"Restaurants","latitude":6.9023319,"longitude":79.9120641,"id":"1495","stars":"Grade&nbsp;&nbsp;&nbsp;&nbsp;&nbsp;&nbsp;&nbsp;&nbsp;&nbsp;:&nbsp;A","link":"","email_id":"chennaiex165@gmail.com","phonenumber":"0112861472","website_link_hotels":"","district":"Colombo","photo_link":"\u003cimg src=\"accomadation.jpg\" width=\"238\" height=\"152\" /\u003e","hotel_star_ratings":"A","popup_desrciption":"","tourism_webiste_link":"","orig_fid":1495},"geometry":{"x":79.912064100000066,"y":6.9023319000000356}},{"attributes":{"objectid":132,"name":"Ministry of crab","address":"Shop 4, old dutch hospital building bank of ceylon mawatha, colombo fort","type":"Restaurants","latitude":6.933676,"longitude":79.84336,"id":"1496","stars":"Grade&nbsp;&nbsp;&nbsp;&nbsp;&nbsp;&nbsp;&nbsp;&nbsp;&nbsp;:&nbsp;A","link":"","email_id":"accounts@ministryofcrab.com","phonenumber":"0112441381","website_link_hotels":"","district":"Colombo","photo_link":"\u003cimg src=\"accomadation.jpg\" width=\"238\" height=\"152\" /\u003e","hotel_star_ratings":"A","popup_desrciption":"","tourism_webiste_link":"","orig_fid":1496},"geometry":{"x":79.843360000000075,"y":6.9336760000000481}},{"attributes":{"objectid":133,"name":"Miss sugar","address":"No:246,lewis place,negombo,srilanka","type":"Restaurants","latitude":7.232698,"longitude":79.841088,"id":"1497","stars":"Grade&nbsp;&nbsp;&nbsp;&nbsp;&nbsp;&nbsp;&nbsp;&nbsp;&nbsp;:&nbsp;A","link":"","email_id":"michelle20000@163.com","phonenumber":"0776493824","website_link_hotels":"","district":"Gampaha","photo_link":"\u003cimg src=\"accomadation.jpg\" width=\"238\" height=\"152\" /\u003e","hotel_star_ratings":"A","popup_desrciption":"","tourism_webiste_link":"","orig_fid":1497},"geometry":{"x":79.84108800000007,"y":7.2326980000000276}},{"attributes":{"objectid":134,"name":"Mlesna tea castle","address":"Nuwara eliya road, pathana, talawakele","type":"Restaurants","latitude":6.948308,"longitude":80.632865,"id":"1498","stars":"Grade&nbsp;&nbsp;&nbsp;&nbsp;&nbsp;&nbsp;&nbsp;&nbsp;&nbsp;:&nbsp;A","link":"","email_id":"mlesnat@sltnet.lk","phonenumber":"0512244028","website_link_hotels":"","district":"Nuwara Eliya","photo_link":"\u003cimg src=\"accomadation.jpg\" width=\"238\" height=\"152\" /\u003e","hotel_star_ratings":"A","popup_desrciption":"","tourism_webiste_link":"","orig_fid":1498},"geometry":{"x":80.632865000000038,"y":6.9483080000000541}},{"attributes":{"objectid":135,"name":"Mlesna tea fortress restaurant","address":"No. 445, colombo road, kiribathkumbura","type":"Restaurants","latitude":7.2672332,"longitude":80.5733161,"id":"1499","stars":"Grade&nbsp;&nbsp;&nbsp;&nbsp;&nbsp;&nbsp;&nbsp;&nbsp;&nbsp;:&nbsp;A","link":"http://www.teafortress.com","email_id":"euroscan@slt.lk","phonenumber":"0812387440","website_link_hotels":"","district":"Kandy","photo_link":"\u003cimg src=\"accomadation.jpg\" width=\"238\" height=\"152\" /\u003e","hotel_star_ratings":"A","popup_desrciption":"","tourism_webiste_link":"","orig_fid":1499},"geometry":{"x":80.573316100000056,"y":7.267233200000021}},{"attributes":{"objectid":136,"name":"Momo","address":"No.11, negombo road, wattala","type":"Restaurants","latitude":6.9741971,"longitude":79.8872131,"id":"1500","stars":"Grade&nbsp;&nbsp;&nbsp;&nbsp;&nbsp;&nbsp;&nbsp;&nbsp;&nbsp;:&nbsp;A","link":"http://www.momo.lk\" \u003ewww.momo.lk\u003c/a\u003e","email_id":"asanka.k@momo.lk","phonenumber":"0112934688","website_link_hotels":"","district":"Gampaha","photo_link":"\u003cimg src=\"accomadation.jpg\" width=\"238\" height=\"152\" /\u003e","hotel_star_ratings":"A","popup_desrciption":"","tourism_webiste_link":"","orig_fid":1500},"geometry":{"x":79.887213100000054,"y":6.9741971000000262}},{"attributes":{"objectid":137,"name":"Monsoon colombo","address":"Monsson colombo,park street mews,  park street,colombo 2","type":"Restaurants","latitude":6.916747,"longitude":79.858959,"id":"1501","stars":"Grade&nbsp;&nbsp;&nbsp;&nbsp;&nbsp;&nbsp;&nbsp;&nbsp;&nbsp;:&nbsp;A","link":"http://TEARDROP-HOTELS.COM\" \u003eTEARDROP-HOTELS.COM\u003c/a\u003e","email_id":"henry@teardrop-hotels.com","phonenumber":"0770174002","website_link_hotels":"","district":"Colombo","photo_link":"\u003cimg src=\"accomadation.jpg\" width=\"238\" height=\"152\" /\u003e","hotel_star_ratings":"A","popup_desrciption":"","tourism_webiste_link":"","orig_fid":1501},"geometry":{"x":79.858959000000084,"y":6.9167470000000435}},{"attributes":{"objectid":138,"name":"Moon river chinese sea food restaurant","address":"No. 140, thimbirigasyaya road, colombo 05","type":"Restaurants","latitude":6.8912289,"longitude":79.8656499,"id":"1502","stars":"Grade&nbsp;&nbsp;&nbsp;&nbsp;&nbsp;&nbsp;&nbsp;&nbsp;&nbsp;:&nbsp;A","link":"","email_id":"kamalwanigasekara@yahoo.com","phonenumber":"0112596885","website_link_hotels":"","district":"Colombo","photo_link":"\u003cimg src=\"accomadation.jpg\" width=\"238\" height=\"152\" /\u003e","hotel_star_ratings":"A","popup_desrciption":"","tourism_webiste_link":"","orig_fid":1502},"geometry":{"x":79.865649900000051,"y":6.8912289000000442}},{"attributes":{"objectid":139,"name":"Mount grill","address":"221, galle road mount lavinia","type":"Restaurants","latitude":6.843051,"longitude":79.86668,"id":"1503","stars":"Grade&nbsp;&nbsp;&nbsp;&nbsp;&nbsp;&nbsp;&nbsp;&nbsp;&nbsp;:&nbsp;A","link":"","email_id":"","phonenumber":"0114041986","website_link_hotels":"","district":"Colombo","photo_link":"\u003cimg src=\"accomadation.jpg\" width=\"238\" height=\"152\" /\u003e","hotel_star_ratings":"A","popup_desrciption":"","tourism_webiste_link":"","orig_fid":1503},"geometry":{"x":79.866680000000031,"y":6.8430510000000595}},{"attributes":{"objectid":140,"name":"Nebula gardens","address":"No. 88/1, welipenna road, aluthgama","type":"Restaurants","latitude":6.4285953,"longitude":79.9985003,"id":"1504","stars":"Grade&nbsp;&nbsp;&nbsp;&nbsp;&nbsp;&nbsp;&nbsp;&nbsp;&nbsp;:&nbsp;B","link":"","email_id":"pier88cafe@gmail.com","phonenumber":"0342270055","website_link_hotels":"","district":"Galle","photo_link":"\u003cimg src=\"accomadation.jpg\" width=\"238\" height=\"152\" /\u003e","hotel_star_ratings":"B","popup_desrciption":"","tourism_webiste_link":"","orig_fid":1504},"geometry":{"x":79.998500300000046,"y":6.4285953000000404}},{"attributes":{"objectid":141,"name":"New blue lagoon resturant","address":"No 63/33,ranthambiligahawatta,moragalla,aluthgama","type":"Restaurants","latitude":6.444543,"longitude":79.988177,"id":"1505","stars":"Grade&nbsp;&nbsp;&nbsp;&nbsp;&nbsp;&nbsp;&nbsp;&nbsp;&nbsp;:&nbsp;B","link":"","email_id":"","phonenumber":"0342279433","website_link_hotels":"","district":"Kalutara","photo_link":"\u003cimg src=\"accomadation.jpg\" width=\"238\" height=\"152\" /\u003e","hotel_star_ratings":"B","popup_desrciption":"","tourism_webiste_link":"","orig_fid":1505},"geometry":{"x":79.988177000000064,"y":6.444543000000067}},{"attributes":{"objectid":142,"name":"New city restaurant","address":"No. 121, d.s. de.s. jayasinghe mawatha, kohuwala","type":"Restaurants","latitude":6.8754817,"longitude":79.8634136,"id":"1506","stars":"Grade&nbsp;&nbsp;&nbsp;&nbsp;&nbsp;&nbsp;&nbsp;&nbsp;&nbsp;:&nbsp;A","link":"","email_id":"shamila1110@yahoo.com","phonenumber":"0112826562","website_link_hotels":"","district":"Colombo","photo_link":"\u003cimg src=\"accomadation.jpg\" width=\"238\" height=\"152\" /\u003e","hotel_star_ratings":"A","popup_desrciption":"","tourism_webiste_link":"","orig_fid":1506},"geometry":{"x":79.863413600000058,"y":6.875481700000023}},{"attributes":{"objectid":143,"name":"New paradise tourist restaurant","address":"Uthuwankanda, mawanella","type":"Restaurants","latitude":7.2523457,"longitude":80.4254295,"id":"1507","stars":"Grade&nbsp;&nbsp;&nbsp;&nbsp;&nbsp;&nbsp;&nbsp;&nbsp;&nbsp;:&nbsp;A","link":"","email_id":"piyalweerasinghe115@gmail.com","phonenumber":"0352241693","website_link_hotels":"","district":"Kegalle","photo_link":"\u003cimg src=\"accomadation.jpg\" width=\"238\" height=\"152\" /\u003e","hotel_star_ratings":"A","popup_desrciption":"","tourism_webiste_link":"","orig_fid":1507},"geometry":{"x":80.425429500000064,"y":7.2523457000000349}},{"attributes":{"objectid":144,"name":"New ranro restaurant","address":"No. 462, colombo road, pilimatalawa","type":"Restaurants","latitude":7.2634923,"longitude":80.5457362,"id":"1508","stars":"Grade&nbsp;&nbsp;&nbsp;&nbsp;&nbsp;&nbsp;&nbsp;&nbsp;&nbsp;:&nbsp;A","link":"","email_id":"ranrorestaurent@gmail.com","phonenumber":"0722110182","website_link_hotels":"","district":"Kandy","photo_link":"\u003cimg src=\"accomadation.jpg\" width=\"238\" height=\"152\" /\u003e","hotel_star_ratings":"A","popup_desrciption":"","tourism_webiste_link":"","orig_fid":1508},"geometry":{"x":80.545736200000078,"y":7.2634923000000526}},{"attributes":{"objectid":145,"name":"New sigiri restaurant","address":"Ehalagala, sigiriya","type":"Restaurants","latitude":7.9499318,"longitude":80.7468342,"id":"1509","stars":"Grade&nbsp;&nbsp;&nbsp;&nbsp;&nbsp;&nbsp;&nbsp;&nbsp;&nbsp;:&nbsp;A","link":"","email_id":"capcompany2013@gmail.com","phonenumber":"","website_link_hotels":"","district":"Matale","photo_link":"\u003cimg src=\"accomadation.jpg\" width=\"238\" height=\"152\" /\u003e","hotel_star_ratings":"A","popup_desrciption":"","tourism_webiste_link":"","orig_fid":1509},"geometry":{"x":80.74683420000008,"y":7.9499318000000585}},{"attributes":{"objectid":146,"name":"New thisara chinese restaurant","address":"No. 22, old road, pannipitiya","type":"Restaurants","latitude":6.8467187,"longitude":79.9470066,"id":"1510","stars":"Grade&nbsp;&nbsp;&nbsp;&nbsp;&nbsp;&nbsp;&nbsp;&nbsp;&nbsp;:&nbsp;A","link":"","email_id":"kamalm.gamage@gmail.com","phonenumber":"0112842844","website_link_hotels":"","district":"Colombo","photo_link":"\u003cimg src=\"accomadation.jpg\" width=\"238\" height=\"152\" /\u003e","hotel_star_ratings":"A","popup_desrciption":"","tourism_webiste_link":"","orig_fid":1510},"geometry":{"x":79.947006600000066,"y":6.8467187000000536}},{"attributes":{"objectid":147,"name":"Nihonbashi restaurant","address":"No 11, galle face terrace, colombo 03","type":"Restaurants","latitude":6.920068,"longitude":79.847775,"id":"1511","stars":"Grade&nbsp;&nbsp;&nbsp;&nbsp;&nbsp;&nbsp;&nbsp;&nbsp;&nbsp;:&nbsp;A","link":"","email_id":"nayana@nihonbashi.lk","phonenumber":"0112323847","website_link_hotels":"","district":"Colombo","photo_link":"\u003cimg src=\"accomadation.jpg\" width=\"238\" height=\"152\" /\u003e","hotel_star_ratings":"A","popup_desrciption":"","tourism_webiste_link":"","orig_fid":1511},"geometry":{"x":79.84777500000007,"y":6.9200680000000716}},{"attributes":{"objectid":148,"name":"Nimansala restaurant","address":"No. 784, high level road, panagoda, homagama","type":"Restaurants","latitude":6.8483854,"longitude":80.0189567,"id":"1512","stars":"Grade&nbsp;&nbsp;&nbsp;&nbsp;&nbsp;&nbsp;&nbsp;&nbsp;&nbsp;:&nbsp;A","link":"","email_id":"thilakarathnawad@gmail.com","phonenumber":"0112895483","website_link_hotels":"","district":"Colombo","photo_link":"\u003cimg src=\"accomadation.jpg\" width=\"238\" height=\"152\" /\u003e","hotel_star_ratings":"A","popup_desrciption":"","tourism_webiste_link":"","orig_fid":1512},"geometry":{"x":80.018956700000047,"y":6.8483854000000406}},{"attributes":{"objectid":149,"name":"Nipuna restaurant","address":"No. 57, main street, kegalle","type":"Restaurants","latitude":7.3058431,"longitude":80.2538395,"id":"1513","stars":"Grade&nbsp;&nbsp;&nbsp;&nbsp;&nbsp;&nbsp;&nbsp;&nbsp;&nbsp;:&nbsp;A","link":"","email_id":"nipunarestaurant57@gmail.com","phonenumber":"0352222076","website_link_hotels":"","district":"Kegalle","photo_link":"\u003cimg src=\"accomadation.jpg\" width=\"238\" height=\"152\" /\u003e","hotel_star_ratings":"A","popup_desrciption":"","tourism_webiste_link":"","orig_fid":1513},"geometry":{"x":80.253839500000083,"y":7.305843100000061}},{"attributes":{"objectid":150,"name":"Nipuna restaurant (alawwa)","address":"No. 372, colombo road, kapuwarala, alawwa","type":"Restaurants","latitude":7.3058431,"longitude":80.2538395,"id":"1514","stars":"Grade&nbsp;&nbsp;&nbsp;&nbsp;&nbsp;&nbsp;&nbsp;&nbsp;&nbsp;:&nbsp;A","link":"","email_id":"nipunarestaurant372@gmail.com","phonenumber":"0372278045","website_link_hotels":"","district":"Kurunegala","photo_link":"\u003cimg src=\"accomadation.jpg\" width=\"238\" height=\"152\" /\u003e","hotel_star_ratings":"A","popup_desrciption":"","tourism_webiste_link":"","orig_fid":1514},"geometry":{"x":80.253839500000083,"y":7.305843100000061}},{"attributes":{"objectid":151,"name":"Nirmala restaurant","address":"Sri jayawardenapura road, delduwa, wadduwa.","type":"Restaurants","latitude":6.647059,"longitude":79.957737,"id":"1515","stars":"Grade&nbsp;&nbsp;&nbsp;&nbsp;&nbsp;&nbsp;&nbsp;&nbsp;&nbsp;:&nbsp;A","link":"","email_id":"nirmalarest@gmail.com","phonenumber":"0342227639","website_link_hotels":"","district":"Kalutara","photo_link":"\u003cimg src=\"accomadation.jpg\" width=\"238\" height=\"152\" /\u003e","hotel_star_ratings":"A","popup_desrciption":"","tourism_webiste_link":"","orig_fid":1515},"geometry":{"x":79.957737000000066,"y":6.6470590000000698}},{"attributes":{"objectid":152,"name":"Oak ray restaurant.","address":"No 09, 2nd rajasinghe mawatha, gatabe, kandy.","type":"Restaurants","latitude":7.2739883,"longitude":80.6053513,"id":"1516","stars":"Grade&nbsp;&nbsp;&nbsp;&nbsp;&nbsp;&nbsp;&nbsp;&nbsp;&nbsp;:&nbsp;A","link":"http://WWW.OAKRAYWOODCARVING.COM\" \u003eWWW.OAKRAYWOODCARVING.COM\u003c/a\u003e","email_id":"accountant@oakrayregency.com","phonenumber":"0812389141","website_link_hotels":"","district":"Kandy","photo_link":"\u003cimg src=\"accomadation.jpg\" width=\"238\" height=\"152\" /\u003e","hotel_star_ratings":"A","popup_desrciption":"","tourism_webiste_link":"","orig_fid":1516},"geometry":{"x":80.605351300000052,"y":7.2739883000000418}},{"attributes":{"objectid":153,"name":"Odel","address":"No.02 ward place colombo 07.","type":"Restaurants","latitude":6.916309,"longitude":79.871013,"id":"1517","stars":"Grade&nbsp;&nbsp;&nbsp;&nbsp;&nbsp;&nbsp;&nbsp;&nbsp;&nbsp;:&nbsp;A","link":"","email_id":"nalakar@eodel.com","phonenumber":"0114625700","website_link_hotels":"","district":"Colombo","photo_link":"\u003cimg src=\"accomadation.jpg\" width=\"238\" height=\"152\" /\u003e","hotel_star_ratings":"A","popup_desrciption":"","tourism_webiste_link":"","orig_fid":1517},"geometry":{"x":79.871013000000062,"y":6.9163090000000693}},{"attributes":{"objectid":154,"name":"Off the hook","address":"No:180,park road,colombo 05","type":"Restaurants","latitude":6.8870674,"longitude":79.8701119,"id":"1518","stars":"Grade&nbsp;&nbsp;&nbsp;&nbsp;&nbsp;&nbsp;&nbsp;&nbsp;&nbsp;:&nbsp;A","link":"","email_id":"sarathcmendis@gmail.com","phonenumber":"2505817","website_link_hotels":"","district":"Colombo","photo_link":"\u003cimg src=\"accomadation.jpg\" width=\"238\" height=\"152\" /\u003e","hotel_star_ratings":"A","popup_desrciption":"","tourism_webiste_link":"","orig_fid":1518},"geometry":{"x":79.87011190000004,"y":6.8870674000000349}},{"attributes":{"objectid":155,"name":"Oro 1889","address":"Shop 5,levez 2,282 r.a.de mel mawatha,colombo 03","type":"Restaurants","latitude":6.910377,"longitude":79.851949,"id":"1519","stars":"Grade&nbsp;&nbsp;&nbsp;&nbsp;&nbsp;&nbsp;&nbsp;&nbsp;&nbsp;:&nbsp;B","link":"http://www.pizzeriaro1889.com\" \u003ewww.pizzeriaro1889.com\u003c/a\u003e","email_id":"","phonenumber":"0112575287","website_link_hotels":"","district":"Colombo","photo_link":"\u003cimg src=\"accomadation.jpg\" width=\"238\" height=\"152\" /\u003e","hotel_star_ratings":"B","popup_desrciption":"","tourism_webiste_link":"","orig_fid":1519},"geometry":{"x":79.851949000000047,"y":6.9103770000000395}},{"attributes":{"objectid":156,"name":"Osteria  romana induruwa","address":"Mudiyanse ralahamys estate, yalegama, induruwa","type":"Restaurants","latitude":6.3834523,"longitude":80.0072057,"id":"1520","stars":"Grade&nbsp;&nbsp;&nbsp;&nbsp;&nbsp;&nbsp;&nbsp;&nbsp;&nbsp;:&nbsp;A","link":"","email_id":"osteria.romana@yahoo.com","phonenumber":"0342291602","website_link_hotels":"","district":"Galle","photo_link":"\u003cimg src=\"accomadation.jpg\" width=\"238\" height=\"152\" /\u003e","hotel_star_ratings":"A","popup_desrciption":"","tourism_webiste_link":"","orig_fid":1520},"geometry":{"x":80.007205700000043,"y":6.3834523000000445}},{"attributes":{"objectid":157,"name":"Otel restaurant","address":"129/4, orutota road,mudungoda, gampaha","type":"Restaurants","latitude":7.065223,"longitude":80.0060653,"id":"1521","stars":"Grade&nbsp;&nbsp;&nbsp;&nbsp;&nbsp;&nbsp;&nbsp;&nbsp;&nbsp;:&nbsp;A","link":"","email_id":"otelrestaurant@gmail.com","phonenumber":"0332233404","website_link_hotels":"","district":"Gampaha","photo_link":"\u003cimg src=\"accomadation.jpg\" width=\"238\" height=\"152\" /\u003e","hotel_star_ratings":"A","popup_desrciption":"","tourism_webiste_link":"","orig_fid":1521},"geometry":{"x":80.006065300000046,"y":7.06522300000006}},{"attributes":{"objectid":158,"name":"Panorama restaurant (kottawa)","address":"No. 138 1/1, highlevel road, kottawa","type":"Restaurants","latitude":6.840269,"longitude":79.96694,"id":"1522","stars":"Grade&nbsp;&nbsp;&nbsp;&nbsp;&nbsp;&nbsp;&nbsp;&nbsp;&nbsp;:&nbsp;A","link":"","email_id":"jasco@sltnet.lk","phonenumber":"","website_link_hotels":"","district":"Colombo","photo_link":"\u003cimg src=\"accomadation.jpg\" width=\"238\" height=\"152\" /\u003e","hotel_star_ratings":"A","popup_desrciption":"","tourism_webiste_link":"","orig_fid":1522},"geometry":{"x":79.966940000000079,"y":6.8402690000000348}},{"attributes":{"objectid":159,"name":"Paradise road the gallery cafe","address":"No,02,alfred house road,colombo 03","type":"Restaurants","latitude":6.898747,"longitude":79.8526615,"id":"1523","stars":"Grade&nbsp;&nbsp;&nbsp;&nbsp;&nbsp;&nbsp;&nbsp;&nbsp;&nbsp;:&nbsp;A","link":"","email_id":"accounts.one@paradiseroad.lk","phonenumber":"0112582162","website_link_hotels":"","district":"Colombo","photo_link":"\u003cimg src=\"accomadation.jpg\" width=\"238\" height=\"152\" /\u003e","hotel_star_ratings":"A","popup_desrciption":"","tourism_webiste_link":"","orig_fid":1523},"geometry":{"x":79.852661500000067,"y":6.8987470000000712}},{"attributes":{"objectid":160,"name":"Park street cafe","address":"No. 50/1, park street, colombo 02","type":"Restaurants","latitude":6.9169918,"longitude":79.8565096,"id":"1524","stars":"Grade&nbsp;&nbsp;&nbsp;&nbsp;&nbsp;&nbsp;&nbsp;&nbsp;&nbsp;:&nbsp;A","link":"","email_id":"damith@harpog.com","phonenumber":"0112300133","website_link_hotels":"","district":"Colombo","photo_link":"\u003cimg src=\"accomadation.jpg\" width=\"238\" height=\"152\" /\u003e","hotel_star_ratings":"A","popup_desrciption":"","tourism_webiste_link":"","orig_fid":1524},"geometry":{"x":79.856509600000038,"y":6.9169918000000621}},{"attributes":{"objectid":161,"name":"Pedlars inn cafe","address":"No.92,pedlars street,fort,galle.","type":"Restaurants","latitude":6.0261129,"longitude":80.2142351,"id":"1525","stars":"Grade&nbsp;&nbsp;&nbsp;&nbsp;&nbsp;&nbsp;&nbsp;&nbsp;&nbsp;:&nbsp;A","link":"http://www.pedlarsinn.com\" \u003ewww.pedlarsinn.com\u003c/a\u003e","email_id":"pedlarsinncafepvtltd@gmail.com","phonenumber":"0912225333","website_link_hotels":"","district":"Galle","photo_link":"\u003cimg src=\"accomadation.jpg\" width=\"238\" height=\"152\" /\u003e","hotel_star_ratings":"A","popup_desrciption":"","tourism_webiste_link":"","orig_fid":1525},"geometry":{"x":80.214235100000053,"y":6.0261129000000437}},{"attributes":{"objectid":162,"name":"Peking palace","address":"No:262/a,nawala road,nawala","type":"Restaurants","latitude":6.887668,"longitude":79.887627,"id":"1526","stars":"Grade&nbsp;&nbsp;&nbsp;&nbsp;&nbsp;&nbsp;&nbsp;&nbsp;&nbsp;:&nbsp;A","link":"","email_id":"jayank77@gmail.com","phonenumber":"0112808886","website_link_hotels":"","district":"Colombo","photo_link":"\u003cimg src=\"accomadation.jpg\" width=\"238\" height=\"152\" /\u003e","hotel_star_ratings":"A","popup_desrciption":"","tourism_webiste_link":"","orig_fid":1526},"geometry":{"x":79.887627000000066,"y":6.8876680000000761}},{"attributes":{"objectid":163,"name":"Pinnalanda restaurant","address":"Pinnawala , rambukkana","type":"Restaurants","latitude":7.3009449,"longitude":80.3819437,"id":"1527","stars":"Grade&nbsp;&nbsp;&nbsp;&nbsp;&nbsp;&nbsp;&nbsp;&nbsp;&nbsp;:&nbsp;A","link":"","email_id":"pradeep.asanka2012@gmail.com","phonenumber":"0352265297","website_link_hotels":"","district":"Kegalle","photo_link":"\u003cimg src=\"accomadation.jpg\" width=\"238\" height=\"152\" /\u003e","hotel_star_ratings":"A","popup_desrciption":"","tourism_webiste_link":"","orig_fid":1527},"geometry":{"x":80.381943700000079,"y":7.3009449000000473}},{"attributes":{"objectid":164,"name":"Prego","address":"No 02e,poruthota road,negambo","type":"Restaurants","latitude":7.235668,"longitude":79.841556,"id":"1528","stars":"Grade&nbsp;&nbsp;&nbsp;&nbsp;&nbsp;&nbsp;&nbsp;&nbsp;&nbsp;:&nbsp;A","link":"","email_id":"vita-sg@yahoo.com","phonenumber":"0312222565","website_link_hotels":"","district":"Gampaha","photo_link":"\u003cimg src=\"accomadation.jpg\" width=\"238\" height=\"152\" /\u003e","hotel_star_ratings":"A","popup_desrciption":"","tourism_webiste_link":"","orig_fid":1528},"geometry":{"x":79.841556000000082,"y":7.2356680000000324}},{"attributes":{"objectid":165,"name":"Prima taste managed by upali","address":"No. 50, sri jayawardenapura mawatha, rajagiriya.","type":"Restaurants","latitude":6.9086561,"longitude":79.8882061,"id":"1529","stars":"Grade&nbsp;&nbsp;&nbsp;&nbsp;&nbsp;&nbsp;&nbsp;&nbsp;&nbsp;:&nbsp;A","link":"http://www.prima.com.lk\" \u003ewww.prima.com.lk\u003c/a\u003e","email_id":"u.sirimanne@prima.com.lk","phonenumber":"0112880488","website_link_hotels":"","district":"Colombo","photo_link":"\u003cimg src=\"accomadation.jpg\" width=\"238\" height=\"152\" /\u003e","hotel_star_ratings":"A","popup_desrciption":"","tourism_webiste_link":"","orig_fid":1529},"geometry":{"x":79.888206100000048,"y":6.9086561000000302}},{"attributes":{"objectid":166,"name":"Priyangani restaurant","address":"No. 16a, side street, hatton","type":"Restaurants","latitude":6.8903521,"longitude":80.5962395,"id":"1530","stars":"Grade&nbsp;&nbsp;&nbsp;&nbsp;&nbsp;&nbsp;&nbsp;&nbsp;&nbsp;:&nbsp;A","link":"","email_id":"manorilanka88@gmail.com","phonenumber":"0512222647","website_link_hotels":"","district":"Nuwara Eliya","photo_link":"\u003cimg src=\"accomadation.jpg\" width=\"238\" height=\"152\" /\u003e","hotel_star_ratings":"A","popup_desrciption":"","tourism_webiste_link":"","orig_fid":1530},"geometry":{"x":80.596239500000081,"y":6.8903521000000296}},{"attributes":{"objectid":167,"name":"Pubs and places-nawala","address":"No. 277/3/1,stanley thilakarathne mawatha,nugegoda.","type":"Restaurants","latitude":6.895514,"longitude":79.889685,"id":"1531","stars":"Grade&nbsp;&nbsp;&nbsp;&nbsp;&nbsp;&nbsp;&nbsp;&nbsp;&nbsp;:&nbsp;A","link":"","email_id":"nawala@machang.lk","phonenumber":"","website_link_hotels":"","district":"Colombo","photo_link":"\u003cimg src=\"accomadation.jpg\" width=\"238\" height=\"152\" /\u003e","hotel_star_ratings":"A","popup_desrciption":"","tourism_webiste_link":"","orig_fid":1531},"geometry":{"x":79.889685000000043,"y":6.8955140000000483}},{"attributes":{"objectid":168,"name":"Pubs n places -the shore by o","address":"43/14,off college avenue,mount lavinia","type":"Restaurants","latitude":6.838333,"longitude":79.863284,"id":"1532","stars":"Grade&nbsp;&nbsp;&nbsp;&nbsp;&nbsp;&nbsp;&nbsp;&nbsp;&nbsp;:&nbsp;A","link":"","email_id":"shorebyo@machang.lk","phonenumber":"2733997","website_link_hotels":"","district":"Colombo","photo_link":"\u003cimg src=\"accomadation.jpg\" width=\"238\" height=\"152\" /\u003e","hotel_star_ratings":"A","popup_desrciption":"","tourism_webiste_link":"","orig_fid":1532},"geometry":{"x":79.863284000000078,"y":6.8383330000000342}},{"attributes":{"objectid":169,"name":"Qbaa","address":"02,de fonseka road, colombo - 05","type":"Restaurants","latitude":6.8882195,"longitude":79.8599849,"id":"1533","stars":"Grade&nbsp;&nbsp;&nbsp;&nbsp;&nbsp;&nbsp;&nbsp;&nbsp;&nbsp;:&nbsp;A","link":"","email_id":"info@qbaaSL.com","phonenumber":"","website_link_hotels":"","district":"Colombo","photo_link":"\u003cimg src=\"accomadation.jpg\" width=\"238\" height=\"152\" /\u003e","hotel_star_ratings":"A","popup_desrciption":"","tourism_webiste_link":"","orig_fid":1533},"geometry":{"x":79.859984900000029,"y":6.8882195000000479}},{"attributes":{"objectid":170,"name":"Raja bojun","address":"Liberty arcade,no.282,r.a. de mel mw,colombo 03.","type":"Restaurants","latitude":6.910149,"longitude":79.85201,"id":"1534","stars":"Grade&nbsp;&nbsp;&nbsp;&nbsp;&nbsp;&nbsp;&nbsp;&nbsp;&nbsp;:&nbsp;A","link":"http://www.rajabojun.lk\" \u003ewww.rajabojun.lk\u003c/a\u003e","email_id":"rajabojun@gmail.com","phonenumber":"0114716171","website_link_hotels":"","district":"Colombo","photo_link":"\u003cimg src=\"accomadation.jpg\" width=\"238\" height=\"152\" /\u003e","hotel_star_ratings":"A","popup_desrciption":"","tourism_webiste_link":"","orig_fid":1534},"geometry":{"x":79.852010000000064,"y":6.9101490000000467}},{"attributes":{"objectid":171,"name":"Ralidiya restaurant","address":"Pinnawala, rambukkana","type":"Restaurants","latitude":7.2982419,"longitude":80.3841181,"id":"1535","stars":"Grade&nbsp;&nbsp;&nbsp;&nbsp;&nbsp;&nbsp;&nbsp;&nbsp;&nbsp;:&nbsp;A","link":"http://www.hotelralidiya.com\" \u003ewww.hotelralidiya.com\u003c/a\u003e","email_id":"ralidiyahotel@gmail.com","phonenumber":"0352265321","website_link_hotels":"","district":"Kegalle","photo_link":"\u003cimg src=\"accomadation.jpg\" width=\"238\" height=\"152\" /\u003e","hotel_star_ratings":"A","popup_desrciption":"","tourism_webiste_link":"","orig_fid":1535},"geometry":{"x":80.38411810000008,"y":7.2982419000000505}},{"attributes":{"objectid":172,"name":"Rampart restaurant","address":"No. 31, rampart street, fort, galle","type":"Restaurants","latitude":6.0255917,"longitude":80.2165569,"id":"1536","stars":"Grade&nbsp;&nbsp;&nbsp;&nbsp;&nbsp;&nbsp;&nbsp;&nbsp;&nbsp;:&nbsp;A","link":"","email_id":"rampart12hotel@gmail.com","phonenumber":"0914380103","website_link_hotels":"","district":"Galle","photo_link":"\u003cimg src=\"accomadation.jpg\" width=\"238\" height=\"152\" /\u003e","hotel_star_ratings":"A","popup_desrciption":"","tourism_webiste_link":"","orig_fid":1536},"geometry":{"x":80.216556900000057,"y":6.0255917000000636}},{"attributes":{"objectid":173,"name":"Ranmuthu chinese restaurant","address":"No. 288/5, avisawella road, megoa, kolonnawa, wellampitiya","type":"Restaurants","latitude":6.9264219,"longitude":79.8582015,"id":"1537","stars":"Grade&nbsp;&nbsp;&nbsp;&nbsp;&nbsp;&nbsp;&nbsp;&nbsp;&nbsp;:&nbsp;A","link":"","email_id":"pkhema52@gmail.com","phonenumber":"0112532003","website_link_hotels":"","district":"Colombo","photo_link":"\u003cimg src=\"accomadation.jpg\" width=\"238\" height=\"152\" /\u003e","hotel_star_ratings":"A","popup_desrciption":"","tourism_webiste_link":"","orig_fid":1537},"geometry":{"x":79.858201500000064,"y":6.9264219000000367}},{"attributes":{"objectid":174,"name":"Ranviyana restaurant","address":"No. 319/a/01, highlevel road, galagedera, padukka","type":"Restaurants","latitude":6.8542579,"longitude":80.0783655,"id":"1538","stars":"Grade&nbsp;&nbsp;&nbsp;&nbsp;&nbsp;&nbsp;&nbsp;&nbsp;&nbsp;:&nbsp;A","link":"","email_id":"malika@pereraandsons.com","phonenumber":"0112830778","website_link_hotels":"","district":"Colombo","photo_link":"\u003cimg src=\"accomadation.jpg\" width=\"238\" height=\"152\" /\u003e","hotel_star_ratings":"A","popup_desrciption":"","tourism_webiste_link":"","orig_fid":1538},"geometry":{"x":80.078365500000075,"y":6.8542579000000501}},{"attributes":{"objectid":175,"name":"Refresh restaurant","address":"No.384, galle road hikkaduwa","type":"Restaurants","latitude":6.13025,"longitude":80.102225,"id":"1539","stars":"Grade&nbsp;&nbsp;&nbsp;&nbsp;&nbsp;&nbsp;&nbsp;&nbsp;&nbsp;:&nbsp;A","link":"http://www.refresh restauranr.com\" \u003ewww.refresh restauranr.com\u003c/a\u003e","email_id":"restaurant.refreshhikka@gmail.com","phonenumber":"0912277810","website_link_hotels":"","district":"Galle","photo_link":"\u003cimg src=\"accomadation.jpg\" width=\"238\" height=\"152\" /\u003e","hotel_star_ratings":"A","popup_desrciption":"","tourism_webiste_link":"","orig_fid":1539},"geometry":{"x":80.102225000000033,"y":6.1302500000000464}},{"attributes":{"objectid":176,"name":"Rhythm & blues","address":"No. 19/1a, daisy villa avenue.,duplication road,colombo 04","type":"Restaurants","latitude":6.8927095,"longitude":79.8556462,"id":"1540","stars":"Grade&nbsp;&nbsp;&nbsp;&nbsp;&nbsp;&nbsp;&nbsp;&nbsp;&nbsp;:&nbsp;A","link":"","email_id":"gj.associa@gmail.com","phonenumber":"0113132120","website_link_hotels":"","district":"Colombo","photo_link":"\u003cimg src=\"accomadation.jpg\" width=\"238\" height=\"152\" /\u003e","hotel_star_ratings":"A","popup_desrciption":"","tourism_webiste_link":"","orig_fid":1540},"geometry":{"x":79.855646200000081,"y":6.8927095000000236}},{"attributes":{"objectid":177,"name":"Rock view restaurant","address":"Pahala kadugannawa,kadugannawa","type":"Restaurants","latitude":7.251022,"longitude":80.508676,"id":"1541","stars":"Grade&nbsp;&nbsp;&nbsp;&nbsp;&nbsp;&nbsp;&nbsp;&nbsp;&nbsp;:&nbsp;B","link":"","email_id":"rockviewrestaurant@gmail.com","phonenumber":"0812571611","website_link_hotels":"","district":"Kegalle","photo_link":"\u003cimg src=\"accomadation.jpg\" width=\"238\" height=\"152\" /\u003e","hotel_star_ratings":"B","popup_desrciption":"","tourism_webiste_link":"","orig_fid":1541},"geometry":{"x":80.508676000000037,"y":7.2510220000000345}},{"attributes":{"objectid":178,"name":"Rodeo  pub n resturant","address":"No: 35,poruthota road ,ettukala,negombo","type":"Restaurants","latitude":7.2377907,"longitude":79.8413007,"id":"1542","stars":"Grade&nbsp;&nbsp;&nbsp;&nbsp;&nbsp;&nbsp;&nbsp;&nbsp;&nbsp;:&nbsp;B","link":"","email_id":"janakad@yahoo.co.uk","phonenumber":"0312274713","website_link_hotels":"","district":"Gampaha","photo_link":"\u003cimg src=\"accomadation.jpg\" width=\"238\" height=\"152\" /\u003e","hotel_star_ratings":"B","popup_desrciption":"","tourism_webiste_link":"","orig_fid":1542},"geometry":{"x":79.841300700000033,"y":7.2377907000000619}},{"attributes":{"objectid":179,"name":"Rosanda restaurant","address":"No.107/4 kurunegala road,kotadeniyawa","type":"Restaurants","latitude":7.2837184,"longitude":80.0653097,"id":"1543","stars":"Grade&nbsp;&nbsp;&nbsp;&nbsp;&nbsp;&nbsp;&nbsp;&nbsp;&nbsp;:&nbsp;B","link":"http://www.rosadarest.lk\" \u003ewww.rosadarest.lk\u003c/a\u003e","email_id":"nishanthagnp@yahoo.com","phonenumber":"0332240056","website_link_hotels":"","district":"Gampaha","photo_link":"\u003cimg src=\"accomadation.jpg\" width=\"238\" height=\"152\" /\u003e","hotel_star_ratings":"B","popup_desrciption":"","tourism_webiste_link":"","orig_fid":1543},"geometry":{"x":80.065309700000057,"y":7.2837184000000548}},{"attributes":{"objectid":180,"name":"Royal garden","address":"No. 903/18, william gopallawa mawatha, kandy","type":"Restaurants","latitude":7.2738705,"longitude":80.609915,"id":"1544","stars":"Grade&nbsp;&nbsp;&nbsp;&nbsp;&nbsp;&nbsp;&nbsp;&nbsp;&nbsp;:&nbsp;A","link":"","email_id":"rghmall@sltnet.lk","phonenumber":"0812387159","website_link_hotels":"","district":"Kandy","photo_link":"\u003cimg src=\"accomadation.jpg\" width=\"238\" height=\"152\" /\u003e","hotel_star_ratings":"A","popup_desrciption":"","tourism_webiste_link":"","orig_fid":1544},"geometry":{"x":80.609915000000058,"y":7.2738705000000436}},{"attributes":{"objectid":181,"name":"Royal palace restaurant","address":"No. 14, senanayaka mawatha, ratnapura","type":"Restaurants","latitude":6.6790067,"longitude":80.4029918,"id":"1545","stars":"Grade&nbsp;&nbsp;&nbsp;&nbsp;&nbsp;&nbsp;&nbsp;&nbsp;&nbsp;:&nbsp;A","link":"","email_id":"sali.mihindu@gmail.com","phonenumber":"0455616061","website_link_hotels":"","district":"Ratnapura","photo_link":"\u003cimg src=\"accomadation.jpg\" width=\"238\" height=\"152\" /\u003e","hotel_star_ratings":"A","popup_desrciption":"","tourism_webiste_link":"","orig_fid":1545},"geometry":{"x":80.402991800000052,"y":6.679006700000059}},{"attributes":{"objectid":182,"name":"Royal park restaurant","address":"No: 115,lake drive, rajagiriya","type":"Restaurants","latitude":6.9847823,"longitude":79.9315893,"id":"1546","stars":"Grade&nbsp;&nbsp;&nbsp;&nbsp;&nbsp;&nbsp;&nbsp;&nbsp;&nbsp;:&nbsp;A","link":"","email_id":"croyalpark@yahoo.com","phonenumber":"0112878031","website_link_hotels":"","district":"Colombo","photo_link":"\u003cimg src=\"accomadation.jpg\" width=\"238\" height=\"152\" /\u003e","hotel_star_ratings":"A","popup_desrciption":"","tourism_webiste_link":"","orig_fid":1546},"geometry":{"x":79.931589300000041,"y":6.9847823000000631}},{"attributes":{"objectid":183,"name":"Royal sigiriya restaurant","address":"Pothana kibissa, sigiriya","type":"Restaurants","latitude":7.937859,"longitude":80.718479,"id":"1547","stars":"Grade&nbsp;&nbsp;&nbsp;&nbsp;&nbsp;&nbsp;&nbsp;&nbsp;&nbsp;:&nbsp;B","link":"http://www.royalsigiriya.com\" \u003ewww.royalsigiriya.com\u003c/a\u003e","email_id":"royal.sigiriya@gmail.com","phonenumber":"0662286999","website_link_hotels":"","district":"Matale","photo_link":"\u003cimg src=\"accomadation.jpg\" width=\"238\" height=\"152\" /\u003e","hotel_star_ratings":"B","popup_desrciption":"","tourism_webiste_link":"","orig_fid":1547},"geometry":{"x":80.718479000000059,"y":7.93785900000006}},{"attributes":{"objectid":184,"name":"Rukmali avanhala","address":"Polonnaruwa rd, moragaswewa, habarana","type":"Restaurants","latitude":7.994414,"longitude":80.7312923,"id":"1548","stars":"Grade&nbsp;&nbsp;&nbsp;&nbsp;&nbsp;&nbsp;&nbsp;&nbsp;&nbsp;:&nbsp;B","link":"","email_id":"rukmaliavanhala@gmail.com","phonenumber":"0662270059","website_link_hotels":"","district":"Polonnaruwa","photo_link":"\u003cimg src=\"accomadation.jpg\" width=\"238\" height=\"152\" /\u003e","hotel_star_ratings":"B","popup_desrciption":"","tourism_webiste_link":"","orig_fid":1548},"geometry":{"x":80.731292300000064,"y":7.994414000000063}},{"attributes":{"objectid":185,"name":"Sakura restaurant","address":"No. 14, rheinland place,colombo 03","type":"Restaurants","latitude":6.902136,"longitude":79.851765,"id":"1549","stars":"Grade&nbsp;&nbsp;&nbsp;&nbsp;&nbsp;&nbsp;&nbsp;&nbsp;&nbsp;:&nbsp;A","link":"http://www.kinjousakuragroup.com\" \u003ewww.kinjousakuragroup.com\u003c/a\u003e","email_id":"kinjoulanka@sltnet.lk","phonenumber":"0112573877","website_link_hotels":"","district":"Colombo","photo_link":"\u003cimg src=\"accomadation.jpg\" width=\"238\" height=\"152\" /\u003e","hotel_star_ratings":"A","popup_desrciption":"","tourism_webiste_link":"","orig_fid":1549},"geometry":{"x":79.851765000000057,"y":6.9021360000000413}},{"attributes":{"objectid":186,"name":"Salika inn","address":"No. 118, colombo road, kegalle","type":"Restaurants","latitude":7.252441,"longitude":80.3378087,"id":"1550","stars":"Grade&nbsp;&nbsp;&nbsp;&nbsp;&nbsp;&nbsp;&nbsp;&nbsp;&nbsp;:&nbsp;A","link":"http://www.salikainn@gmail.com\" \u003ewww.salikainn@gmail.com\u003c/a\u003e","email_id":"salikainn@gmail.com","phonenumber":"0352222332","website_link_hotels":"","district":"Kegalle","photo_link":"\u003cimg src=\"accomadation.jpg\" width=\"238\" height=\"152\" /\u003e","hotel_star_ratings":"A","popup_desrciption":"","tourism_webiste_link":"","orig_fid":1550},"geometry":{"x":80.337808700000039,"y":7.252441000000033}},{"attributes":{"objectid":187,"name":"Samanala paradise restaurant","address":"No. 293, kandy road, gala junction, kelaniya","type":"Restaurants","latitude":6.977914,"longitude":79.9250342,"id":"1551","stars":"Grade&nbsp;&nbsp;&nbsp;&nbsp;&nbsp;&nbsp;&nbsp;&nbsp;&nbsp;:&nbsp;A","link":"","email_id":"emailshiran@gmail.com","phonenumber":"0112987770","website_link_hotels":"","district":"Gampaha","photo_link":"\u003cimg src=\"accomadation.jpg\" width=\"238\" height=\"152\" /\u003e","hotel_star_ratings":"A","popup_desrciption":"","tourism_webiste_link":"","orig_fid":1551},"geometry":{"x":79.925034200000084,"y":6.9779140000000552}},{"attributes":{"objectid":188,"name":"Samanala restaurant (kiribathgoda)","address":"No. 12, kandy road, kiribathgoda","type":"Restaurants","latitude":6.977914,"longitude":79.9250342,"id":"1552","stars":"Grade&nbsp;&nbsp;&nbsp;&nbsp;&nbsp;&nbsp;&nbsp;&nbsp;&nbsp;:&nbsp;A","link":"","email_id":"","phonenumber":"0115740476","website_link_hotels":"","district":"Gampaha","photo_link":"\u003cimg src=\"accomadation.jpg\" width=\"238\" height=\"152\" /\u003e","hotel_star_ratings":"A","popup_desrciption":"","tourism_webiste_link":"","orig_fid":1552},"geometry":{"x":79.925034200000084,"y":6.9779140000000552}},{"attributes":{"objectid":189,"name":"Samanala restaurant (kotte)","address":"No. 327, madiwela, kotte","type":"Restaurants","latitude":6.876855,"longitude":79.925953,"id":"1553","stars":"Grade&nbsp;&nbsp;&nbsp;&nbsp;&nbsp;&nbsp;&nbsp;&nbsp;&nbsp;:&nbsp;A","link":"","email_id":"mmtamaththes@gmail.com","phonenumber":"0112779660","website_link_hotels":"","district":"Colombo","photo_link":"\u003cimg src=\"accomadation.jpg\" width=\"238\" height=\"152\" /\u003e","hotel_star_ratings":"A","popup_desrciption":"","tourism_webiste_link":"","orig_fid":1553},"geometry":{"x":79.92595300000005,"y":6.8768550000000346}},{"attributes":{"objectid":190,"name":"Samanmal chinese restaurant","address":"No. 64, udyana road, matara","type":"Restaurants","latitude":5.9499693,"longitude":80.5449004,"id":"1554","stars":"Grade&nbsp;&nbsp;&nbsp;&nbsp;&nbsp;&nbsp;&nbsp;&nbsp;&nbsp;:&nbsp;A","link":"","email_id":"anuradhasameena@gmail.com","phonenumber":"0412224828","website_link_hotels":"","district":"Matara","photo_link":"\u003cimg src=\"accomadation.jpg\" width=\"238\" height=\"152\" /\u003e","hotel_star_ratings":"A","popup_desrciption":"","tourism_webiste_link":"","orig_fid":1554},"geometry":{"x":80.544900400000074,"y":5.9499693000000207}},{"attributes":{"objectid":191,"name":"Sameeha family restaurant","address":"No. 390,chilaw road, periyamulla,negombo","type":"Restaurants","latitude":7.224273,"longitude":79.849361,"id":"1555","stars":"Grade&nbsp;&nbsp;&nbsp;&nbsp;&nbsp;&nbsp;&nbsp;&nbsp;&nbsp;:&nbsp;A","link":"","email_id":"sameehahotel279@gmail.com","phonenumber":"0713135971","website_link_hotels":"","district":"Gampaha","photo_link":"\u003cimg src=\"accomadation.jpg\" width=\"238\" height=\"152\" /\u003e","hotel_star_ratings":"A","popup_desrciption":"","tourism_webiste_link":"","orig_fid":1555},"geometry":{"x":79.849361000000044,"y":7.2242730000000392}},{"attributes":{"objectid":192,"name":"Sanhinda leisure center","address":"No. 247/6, stanley thilakarathna mawatha, nugegoda","type":"Restaurants","latitude":6.8750112,"longitude":79.8937717,"id":"1556","stars":"Grade&nbsp;&nbsp;&nbsp;&nbsp;&nbsp;&nbsp;&nbsp;&nbsp;&nbsp;:&nbsp;A","link":"","email_id":"nihal.pathirana@gmail.com","phonenumber":"0112768166","website_link_hotels":"","district":"Colombo","photo_link":"\u003cimg src=\"accomadation.jpg\" width=\"238\" height=\"152\" /\u003e","hotel_star_ratings":"A","popup_desrciption":"","tourism_webiste_link":"","orig_fid":1556},"geometry":{"x":79.893771700000059,"y":6.875011200000074}},{"attributes":{"objectid":193,"name":"Sanjeewa restaurant","address":"No. 273b, mudunpitakanda, kirindiwela","type":"Restaurants","latitude":7.0340821,"longitude":80.1042111,"id":"1557","stars":"Grade&nbsp;&nbsp;&nbsp;&nbsp;&nbsp;&nbsp;&nbsp;&nbsp;&nbsp;:&nbsp;A","link":"","email_id":"sanjeewarestaurant@gmail.com","phonenumber":"0332267480","website_link_hotels":"","district":"Gampaha","photo_link":"\u003cimg src=\"accomadation.jpg\" width=\"238\" height=\"152\" /\u003e","hotel_star_ratings":"A","popup_desrciption":"","tourism_webiste_link":"","orig_fid":1557},"geometry":{"x":80.104211100000043,"y":7.0340821000000346}},{"attributes":{"objectid":194,"name":"Sanora restaurant","address":"No. 668, pannipitiya road, thalawatugoda","type":"Restaurants","latitude":6.8797818,"longitude":79.9320294,"id":"1558","stars":"Grade&nbsp;&nbsp;&nbsp;&nbsp;&nbsp;&nbsp;&nbsp;&nbsp;&nbsp;:&nbsp;A","link":"","email_id":"res@sanora.lk","phonenumber":"0112774751","website_link_hotels":"","district":"Colombo","photo_link":"\u003cimg src=\"accomadation.jpg\" width=\"238\" height=\"152\" /\u003e","hotel_star_ratings":"A","popup_desrciption":"","tourism_webiste_link":"","orig_fid":1558},"geometry":{"x":79.932029400000033,"y":6.8797818000000461}},{"attributes":{"objectid":195,"name":"Sanpaolo gardens resturant","address":"Charles william mw,wewnnappuwa","type":"Restaurants","latitude":7.3412902,"longitude":79.8539188,"id":"1559","stars":"Grade&nbsp;&nbsp;&nbsp;&nbsp;&nbsp;&nbsp;&nbsp;&nbsp;&nbsp;:&nbsp;A","link":"","email_id":"","phonenumber":"0312249779","website_link_hotels":"","district":"Puttalam","photo_link":"\u003cimg src=\"accomadation.jpg\" width=\"238\" height=\"152\" /\u003e","hotel_star_ratings":"A","popup_desrciption":"","tourism_webiste_link":"","orig_fid":1559},"geometry":{"x":79.853918800000031,"y":7.3412902000000599}},{"attributes":{"objectid":196,"name":"Sansuchi cafe","address":"No. 189/1, new kandy road, weliweriya","type":"Restaurants","latitude":7.036583,"longitude":80.0227856,"id":"1560","stars":"Grade&nbsp;&nbsp;&nbsp;&nbsp;&nbsp;&nbsp;&nbsp;&nbsp;&nbsp;:&nbsp;A","link":"","email_id":"gadgetshoplk2@gmail.com","phonenumber":"0332255781","website_link_hotels":"","district":"Gampaha","photo_link":"\u003cimg src=\"accomadation.jpg\" width=\"238\" height=\"152\" /\u003e","hotel_star_ratings":"A","popup_desrciption":"","tourism_webiste_link":"","orig_fid":1560},"geometry":{"x":80.022785600000077,"y":7.0365830000000642}},{"attributes":{"objectid":197,"name":"Savannah restaurant","address":"No. 385/a/1/1, negombo road, wattala","type":"Restaurants","latitude":6.9884302,"longitude":79.8889142,"id":"1561","stars":"Grade&nbsp;&nbsp;&nbsp;&nbsp;&nbsp;&nbsp;&nbsp;&nbsp;&nbsp;:&nbsp;A","link":"","email_id":"office@kish.lk","phonenumber":"0114814466","website_link_hotels":"","district":"Gampaha","photo_link":"\u003cimg src=\"accomadation.jpg\" width=\"238\" height=\"152\" /\u003e","hotel_star_ratings":"A","popup_desrciption":"","tourism_webiste_link":"","orig_fid":1561},"geometry":{"x":79.888914200000045,"y":6.9884302000000389}},{"attributes":{"objectid":198,"name":"Sea port restaurant","address":"70,poruthota road,ethukala,negombo","type":"Restaurants","latitude":7.2401266,"longitude":79.8396823,"id":"1562","stars":"Grade&nbsp;&nbsp;&nbsp;&nbsp;&nbsp;&nbsp;&nbsp;&nbsp;&nbsp;:&nbsp;A","link":"http://www.seaport.lk\" \u003ewww.seaport.lk\u003c/a\u003e","email_id":"seaportgm@gmail.com","phonenumber":"0312272808","website_link_hotels":"","district":"Gampaha","photo_link":"\u003cimg src=\"accomadation.jpg\" width=\"238\" height=\"152\" /\u003e","hotel_star_ratings":"A","popup_desrciption":"","tourism_webiste_link":"","orig_fid":1562},"geometry":{"x":79.83968230000005,"y":7.2401266000000533}},{"attributes":{"objectid":199,"name":"Semondu","address":"Shopping presint, shop no. 2&3, bank of ceylon mawatha, colombo 01","type":"Restaurants","latitude":6.9336195,"longitude":79.84131,"id":"1563","stars":"Grade&nbsp;&nbsp;&nbsp;&nbsp;&nbsp;&nbsp;&nbsp;&nbsp;&nbsp;:&nbsp;A","link":"","email_id":"mevan.moonesinghe@srilankancatering.com","phonenumber":"0722328044","website_link_hotels":"","district":"Colombo","photo_link":"\u003cimg src=\"accomadation.jpg\" width=\"238\" height=\"152\" /\u003e","hotel_star_ratings":"A","popup_desrciption":"","tourism_webiste_link":"","orig_fid":1563},"geometry":{"x":79.841310000000078,"y":6.9336195000000203}},{"attributes":{"objectid":200,"name":"Senani restaurant","address":"No 30,rajapihilla mawatha, kandy","type":"Restaurants","latitude":7.288191,"longitude":80.639166,"id":"1564","stars":"Grade&nbsp;&nbsp;&nbsp;&nbsp;&nbsp;&nbsp;&nbsp;&nbsp;&nbsp;:&nbsp;A","link":"","email_id":"restaurant@senanirest.com","phonenumber":"0812235117","website_link_hotels":"","district":"Kandy","photo_link":"\u003cimg src=\"accomadation.jpg\" width=\"238\" height=\"152\" /\u003e","hotel_star_ratings":"A","popup_desrciption":"","tourism_webiste_link":"","orig_fid":1564},"geometry":{"x":80.639166000000046,"y":7.2881910000000403}},{"attributes":{"objectid":201,"name":"Sensasia","address":"No 96/a/3,peralanda,ragama","type":"Restaurants","latitude":7.0375201,"longitude":79.9100688,"id":"1565","stars":"Grade&nbsp;&nbsp;&nbsp;&nbsp;&nbsp;&nbsp;&nbsp;&nbsp;&nbsp;:&nbsp;B","link":"http://sensasia.lk@gmail.com\" \u003esensasia.lk@gmail.com\u003c/a\u003e","email_id":"contactsumudu@gmail.com","phonenumber":"0763096615","website_link_hotels":"","district":"Gampaha","photo_link":"\u003cimg src=\"accomadation.jpg\" width=\"238\" height=\"152\" /\u003e","hotel_star_ratings":"B","popup_desrciption":"","tourism_webiste_link":"","orig_fid":1565},"geometry":{"x":79.910068800000033,"y":7.0375201000000516}},{"attributes":{"objectid":202,"name":"Seven eleven restaurant & bar","address":"1st floor,capital mall,531madiwela rd,thalawathugoda","type":"Restaurants","latitude":6.8774389,"longitude":79.8657415,"id":"1566","stars":"Grade&nbsp;&nbsp;&nbsp;&nbsp;&nbsp;&nbsp;&nbsp;&nbsp;&nbsp;:&nbsp;A","link":"","email_id":"deutschlanka711@gmail.com","phonenumber":"0777513309","website_link_hotels":"","district":"Colombo","photo_link":"\u003cimg src=\"accomadation.jpg\" width=\"238\" height=\"152\" /\u003e","hotel_star_ratings":"A","popup_desrciption":"","tourism_webiste_link":"","orig_fid":1566},"geometry":{"x":79.86574150000007,"y":6.8774389000000724}},{"attributes":{"objectid":203,"name":"Shanghai restaurant","address":"No: 209,horana roar,piliyandala","type":"Restaurants","latitude":6.7824838,"longitude":79.9061754,"id":"1567","stars":"Grade&nbsp;&nbsp;&nbsp;&nbsp;&nbsp;&nbsp;&nbsp;&nbsp;&nbsp;:&nbsp;B","link":"","email_id":"","phonenumber":"0112609186","website_link_hotels":"","district":"Colombo","photo_link":"\u003cimg src=\"accomadation.jpg\" width=\"238\" height=\"152\" /\u003e","hotel_star_ratings":"B","popup_desrciption":"","tourism_webiste_link":"","orig_fid":1567},"geometry":{"x":79.906175400000052,"y":6.7824838000000227}},{"attributes":{"objectid":204,"name":"Shanghai terrace","address":"811, kotte road, ethul kotte","type":"Restaurants","latitude":6.898712,"longitude":79.905858,"id":"1568","stars":"Grade&nbsp;&nbsp;&nbsp;&nbsp;&nbsp;&nbsp;&nbsp;&nbsp;&nbsp;:&nbsp;A","link":"","email_id":"","phonenumber":"0112878878","website_link_hotels":"","district":"Colombo","photo_link":"\u003cimg src=\"accomadation.jpg\" width=\"238\" height=\"152\" /\u003e","hotel_star_ratings":"A","popup_desrciption":"","tourism_webiste_link":"","orig_fid":1568},"geometry":{"x":79.90585800000008,"y":6.8987120000000459}},{"attributes":{"objectid":205,"name":"Sherry land restaurant","address":"No. 74, porutota road, ettukala, negombo","type":"Restaurants","latitude":7.240753,"longitude":79.842309,"id":"1569","stars":"Grade&nbsp;&nbsp;&nbsp;&nbsp;&nbsp;&nbsp;&nbsp;&nbsp;&nbsp;:&nbsp;A","link":"http//golanka.com\" \u003ehttp//golanka.com\u003c/a\u003e","email_id":"sakunthala.subasinghe@gmail.com","phonenumber":"0314874900","website_link_hotels":"","district":"Gampaha","photo_link":"\u003cimg src=\"accomadation.jpg\" width=\"238\" height=\"152\" /\u003e","hotel_star_ratings":"A","popup_desrciption":"","tourism_webiste_link":"","orig_fid":1569},"geometry":{"x":79.842309000000057,"y":7.2407530000000406}},{"attributes":{"objectid":206,"name":"Shinshio chinese restaurant","address":"No. 159, dutugamunu street, kohuwela, nugegoda","type":"Restaurants","latitude":6.868472,"longitude":79.883372,"id":"1570","stars":"Grade&nbsp;&nbsp;&nbsp;&nbsp;&nbsp;&nbsp;&nbsp;&nbsp;&nbsp;:&nbsp;A","link":"","email_id":"cdgnw1@gmail.com","phonenumber":"0112825215","website_link_hotels":"","district":"Colombo","photo_link":"\u003cimg src=\"accomadation.jpg\" width=\"238\" height=\"152\" /\u003e","hotel_star_ratings":"A","popup_desrciption":"","tourism_webiste_link":"","orig_fid":1570},"geometry":{"x":79.883372000000065,"y":6.8684720000000539}},{"attributes":{"objectid":207,"name":"Siam house thai restaurant","address":"No.17, melbourne avenue colombo 04","type":"Restaurants","latitude":6.908908,"longitude":79.852785,"id":"1571","stars":"Grade&nbsp;&nbsp;&nbsp;&nbsp;&nbsp;&nbsp;&nbsp;&nbsp;&nbsp;:&nbsp;A","link":"http://www.siamhouse.lk\" \u003ewww.siamhouse.lk\u003c/a\u003e","email_id":"mangala291@gmail.com","phonenumber":"0112595944","website_link_hotels":"","district":"Colombo","photo_link":"\u003cimg src=\"accomadation.jpg\" width=\"238\" height=\"152\" /\u003e","hotel_star_ratings":"A","popup_desrciption":"","tourism_webiste_link":"","orig_fid":1571},"geometry":{"x":79.85278500000004,"y":6.9089080000000536}},{"attributes":{"objectid":208,"name":"Silver ray restaurant","address":"No 18,dippitigala, lellopitiya","type":"Restaurants","latitude":6.6572018,"longitude":80.4859916,"id":"1572","stars":"Grade&nbsp;&nbsp;&nbsp;&nbsp;&nbsp;&nbsp;&nbsp;&nbsp;&nbsp;:&nbsp;A","link":"","email_id":"saliyadu9@gmail.com","phonenumber":"0452274764","website_link_hotels":"","district":"Ratnapura","photo_link":"\u003cimg src=\"accomadation.jpg\" width=\"238\" height=\"152\" /\u003e","hotel_star_ratings":"A","popup_desrciption":"","tourism_webiste_link":"","orig_fid":1572},"geometry":{"x":80.485991600000034,"y":6.6572018000000526}},{"attributes":{"objectid":209,"name":"Silver spoon restaurant","address":"No. 953, thalangama south, battaramulla","type":"Restaurants","latitude":6.8887038,"longitude":79.9281998,"id":"1573","stars":"Grade&nbsp;&nbsp;&nbsp;&nbsp;&nbsp;&nbsp;&nbsp;&nbsp;&nbsp;:&nbsp;A","link":"","email_id":"thilina.esanka2011@gmail.com","phonenumber":"0112177275","website_link_hotels":"","district":"Colombo","photo_link":"\u003cimg src=\"accomadation.jpg\" width=\"238\" height=\"152\" /\u003e","hotel_star_ratings":"A","popup_desrciption":"","tourism_webiste_link":"","orig_fid":1573},"geometry":{"x":79.928199800000073,"y":6.8887038000000302}},{"attributes":{"objectid":210,"name":"Singharaja","address":"120,galle road kalueamodara,aluthgama","type":"Restaurants","latitude":6.3897275,"longitude":80.4992002,"id":"1574","stars":"Grade&nbsp;&nbsp;&nbsp;&nbsp;&nbsp;&nbsp;&nbsp;&nbsp;&nbsp;:&nbsp;A","link":"http://-\" \u003e-\u003c/a\u003e","email_id":"singharagahh@gmail.com","phonenumber":"0342274978","website_link_hotels":"","district":"Kalutara","photo_link":"\u003cimg src=\"accomadation.jpg\" width=\"238\" height=\"152\" /\u003e","hotel_star_ratings":"A","popup_desrciption":"","tourism_webiste_link":"","orig_fid":1574},"geometry":{"x":80.499200200000075,"y":6.3897275000000491}},{"attributes":{"objectid":211,"name":"Sinthao chinese restaurant","address":"No. 8/1/2/2, dehiwala road, maharagama","type":"Restaurants","latitude":6.8469059,"longitude":79.924084,"id":"1575","stars":"Grade&nbsp;&nbsp;&nbsp;&nbsp;&nbsp;&nbsp;&nbsp;&nbsp;&nbsp;:&nbsp;A","link":"","email_id":"e.k.p.r.deepal@gmail.com","phonenumber":"0114000794","website_link_hotels":"","district":"Colombo","photo_link":"\u003cimg src=\"accomadation.jpg\" width=\"238\" height=\"152\" /\u003e","hotel_star_ratings":"A","popup_desrciption":"","tourism_webiste_link":"","orig_fid":1575},"geometry":{"x":79.92408400000005,"y":6.8469059000000243}},{"attributes":{"objectid":212,"name":"Solis tourist restaurant","address":"No. 533 a, nawala road, rajagiriya","type":"Restaurants","latitude":6.9002657,"longitude":79.8916755,"id":"1576","stars":"Grade&nbsp;&nbsp;&nbsp;&nbsp;&nbsp;&nbsp;&nbsp;&nbsp;&nbsp;:&nbsp;A","link":"http://www.solis-newlanka.com\" \u003ewww.solis-newlanka.com\u003c/a\u003e","email_id":"solishotels@gmail.com","phonenumber":"0112862516","website_link_hotels":"","district":"Colombo","photo_link":"\u003cimg src=\"accomadation.jpg\" width=\"238\" height=\"152\" /\u003e","hotel_star_ratings":"A","popup_desrciption":"","tourism_webiste_link":"","orig_fid":1576},"geometry":{"x":79.891675500000076,"y":6.900265700000034}},{"attributes":{"objectid":213,"name":"Sopranos","address":"No. 29, maitland crescent colombo 07","type":"Restaurants","latitude":6.9086535,"longitude":79.8636355,"id":"1577","stars":"Grade&nbsp;&nbsp;&nbsp;&nbsp;&nbsp;&nbsp;&nbsp;&nbsp;&nbsp;:&nbsp;A","link":"http://sopranos.lk\" \u003esopranos.lk\u003c/a\u003e","email_id":"sopranos@sltnet.lk","phonenumber":"0112676752","website_link_hotels":"","district":"Colombo","photo_link":"\u003cimg src=\"accomadation.jpg\" width=\"238\" height=\"152\" /\u003e","hotel_star_ratings":"A","popup_desrciption":"","tourism_webiste_link":"","orig_fid":1577},"geometry":{"x":79.863635500000044,"y":6.9086535000000708}},{"attributes":{"objectid":214,"name":"Sovereign german restuarant","address":"No. 157, nawala road, nugegoda","type":"Restaurants","latitude":6.8810427,"longitude":79.8879647,"id":"1578","stars":"Grade&nbsp;&nbsp;&nbsp;&nbsp;&nbsp;&nbsp;&nbsp;&nbsp;&nbsp;:&nbsp;A","link":"","email_id":"siranthasuresh@gmail.com","phonenumber":"0112856154","website_link_hotels":"","district":"Colombo","photo_link":"\u003cimg src=\"accomadation.jpg\" width=\"238\" height=\"152\" /\u003e","hotel_star_ratings":"A","popup_desrciption":"","tourism_webiste_link":"","orig_fid":1578},"geometry":{"x":79.887964700000055,"y":6.8810427000000232}},{"attributes":{"objectid":215,"name":"Spoon & pan restaurant","address":"No. 673/1, kandy road, peliyagoda, pattiya junction-kelaniya","type":"Restaurants","latitude":6.9878757,"longitude":79.8907885,"id":"1579","stars":"Grade&nbsp;&nbsp;&nbsp;&nbsp;&nbsp;&nbsp;&nbsp;&nbsp;&nbsp;:&nbsp;A","link":"","email_id":"dthamith66@gmail.com","phonenumber":"0115636580","website_link_hotels":"","district":"Gampaha","photo_link":"\u003cimg src=\"accomadation.jpg\" width=\"238\" height=\"152\" /\u003e","hotel_star_ratings":"A","popup_desrciption":"","tourism_webiste_link":"","orig_fid":1579},"geometry":{"x":79.890788500000042,"y":6.9878757000000746}},{"attributes":{"objectid":216,"name":"Sri jaya  sada nikethanaya","address":"Meegahapelassa, welipennagahamula","type":"Restaurants","latitude":7.4462738,"longitude":79.9410578,"id":"1580","stars":"Grade&nbsp;&nbsp;&nbsp;&nbsp;&nbsp;&nbsp;&nbsp;&nbsp;&nbsp;:&nbsp;A","link":"","email_id":"rajith.lak@gmail.com","phonenumber":"0773593082","website_link_hotels":"","district":"Kurunegala","photo_link":"\u003cimg src=\"accomadation.jpg\" width=\"238\" height=\"152\" /\u003e","hotel_star_ratings":"A","popup_desrciption":"","tourism_webiste_link":"","orig_fid":1580},"geometry":{"x":79.941057800000067,"y":7.4462738000000286}},{"attributes":{"objectid":217,"name":"Sri land trading restaurant","address":"No. 16, ragala rd, rikillagaskada","type":"Restaurants","latitude":7.145703,"longitude":80.784012,"id":"1581","stars":"Grade&nbsp;&nbsp;&nbsp;&nbsp;&nbsp;&nbsp;&nbsp;&nbsp;&nbsp;:&nbsp;A","link":"","email_id":"dedunu_jila@yahoo.com","phonenumber":"0812365248","website_link_hotels":"","district":"Nuwara Eliya","photo_link":"\u003cimg src=\"accomadation.jpg\" width=\"238\" height=\"152\" /\u003e","hotel_star_ratings":"A","popup_desrciption":"","tourism_webiste_link":"","orig_fid":1581},"geometry":{"x":80.784012000000075,"y":7.1457030000000259}},{"attributes":{"objectid":218,"name":"Sri siam authentic thai restaurant","address":"68,w.a silva mawatha, wellawatte,colombo 06","type":"Restaurants","latitude":6.8761217,"longitude":79.8618158,"id":"1582","stars":"Grade&nbsp;&nbsp;&nbsp;&nbsp;&nbsp;&nbsp;&nbsp;&nbsp;&nbsp;:&nbsp;B","link":"","email_id":"srisiamlk@gmail.com","phonenumber":"0115663377","website_link_hotels":"","district":"Colombo","photo_link":"\u003cimg src=\"accomadation.jpg\" width=\"238\" height=\"152\" /\u003e","hotel_star_ratings":"B","popup_desrciption":"","tourism_webiste_link":"","orig_fid":1582},"geometry":{"x":79.861815800000045,"y":6.8761217000000556}},{"attributes":{"objectid":219,"name":"Sugar","address":"G05, old dutch hospital, fort, galle","type":"Restaurants","latitude":6.0267306,"longitude":80.2194388,"id":"1583","stars":"Grade&nbsp;&nbsp;&nbsp;&nbsp;&nbsp;&nbsp;&nbsp;&nbsp;&nbsp;:&nbsp;B","link":"http://www.sugar.lk\" \u003ewww.sugar.lk\u003c/a\u003e","email_id":"info@sugarcolombo.com","phonenumber":"0912231799","website_link_hotels":"","district":"Galle","photo_link":"\u003cimg src=\"accomadation.jpg\" width=\"238\" height=\"152\" /\u003e","hotel_star_ratings":"B","popup_desrciption":"","tourism_webiste_link":"","orig_fid":1583},"geometry":{"x":80.219438800000034,"y":6.0267306000000644}},{"attributes":{"objectid":220,"name":"Sumihiri arunaloka hotel & restaurant","address":"No. 504 1/1, ambalangoda road, kurundugaha hethekma, elpitiya","type":"Restaurants","latitude":7.4685094,"longitude":80.6209789,"id":"1584","stars":"Grade&nbsp;&nbsp;&nbsp;&nbsp;&nbsp;&nbsp;&nbsp;&nbsp;&nbsp;:&nbsp;A","link":"","email_id":"","phonenumber":"0912290444","website_link_hotels":"","district":"Galle","photo_link":"\u003cimg src=\"accomadation.jpg\" width=\"238\" height=\"152\" /\u003e","hotel_star_ratings":"A","popup_desrciption":"","tourism_webiste_link":"","orig_fid":1584},"geometry":{"x":80.620978900000068,"y":7.4685094000000731}},{"attributes":{"objectid":221,"name":"Sunlight garden seafood restaurant","address":"No. 21 , abdul gafoor mawatha colombo 03","type":"Restaurants","latitude":6.910823,"longitude":79.8511,"id":"1585","stars":"Grade&nbsp;&nbsp;&nbsp;&nbsp;&nbsp;&nbsp;&nbsp;&nbsp;&nbsp;:&nbsp;A","link":"","email_id":"srilanka2006@163.com","phonenumber":"","website_link_hotels":"","district":"Colombo","photo_link":"\u003cimg src=\"accomadation.jpg\" width=\"238\" height=\"152\" /\u003e","hotel_star_ratings":"A","popup_desrciption":"","tourism_webiste_link":"","orig_fid":1585},"geometry":{"x":79.851100000000031,"y":6.9108230000000503}},{"attributes":{"objectid":222,"name":"T lounge by dilmah","address":"62/2,chatham street,colombo 1","type":"Restaurants","latitude":6.9343193,"longitude":79.8417533,"id":"1586","stars":"Grade&nbsp;&nbsp;&nbsp;&nbsp;&nbsp;&nbsp;&nbsp;&nbsp;&nbsp;:&nbsp;B","link":"http://www.dilmahtea.com\" \u003ewww.dilmahtea.com\u003c/a\u003e","email_id":"tealounge@dilmahtea.com","phonenumber":"0112447168","website_link_hotels":"","district":"Colombo","photo_link":"\u003cimg src=\"accomadation.jpg\" width=\"238\" height=\"152\" /\u003e","hotel_star_ratings":"B","popup_desrciption":"","tourism_webiste_link":"","orig_fid":1586},"geometry":{"x":79.84175330000005,"y":6.9343193000000269}},{"attributes":{"objectid":223,"name":"Talpe beach","address":"No 1042, matara road, talpe, galle","type":"Restaurants","latitude":5.995472,"longitude":80.287331,"id":"1587","stars":"Grade&nbsp;&nbsp;&nbsp;&nbsp;&nbsp;&nbsp;&nbsp;&nbsp;&nbsp;:&nbsp;A","link":"http://www.talpebeach.com\" \u003ewww.talpebeach.com\u003c/a\u003e","email_id":"zihamhussain@gmail.com","phonenumber":"0912233874","website_link_hotels":"","district":"Galle","photo_link":"\u003cimg src=\"accomadation.jpg\" width=\"238\" height=\"152\" /\u003e","hotel_star_ratings":"A","popup_desrciption":"","tourism_webiste_link":"","orig_fid":1587},"geometry":{"x":80.287331000000052,"y":5.9954720000000634}},{"attributes":{"objectid":224,"name":"Tamarind tree","address":"No:5,baseline road,avariwatta,katunayaka","type":"Restaurants","latitude":7.1828551,"longitude":79.9163819,"id":"1588","stars":"Grade&nbsp;&nbsp;&nbsp;&nbsp;&nbsp;&nbsp;&nbsp;&nbsp;&nbsp;:&nbsp;B","link":"http://sunil-atapattu@yahoo.com\" \u003esunil-atapattu@yahoo.com\u003c/a\u003e","email_id":"tamrindtree@gmail.com","phonenumber":"0112252759","website_link_hotels":"","district":"Gampaha","photo_link":"\u003cimg src=\"accomadation.jpg\" width=\"238\" height=\"152\" /\u003e","hotel_star_ratings":"B","popup_desrciption":"","tourism_webiste_link":"","orig_fid":1588},"geometry":{"x":79.916381900000033,"y":7.1828551000000402}},{"attributes":{"objectid":225,"name":"Taphouse by r n r","address":"Dutch hospital buildne,colombo 01","type":"Restaurants","latitude":6.9339803,"longitude":79.8412873,"id":"1589","stars":"Grade&nbsp;&nbsp;&nbsp;&nbsp;&nbsp;&nbsp;&nbsp;&nbsp;&nbsp;:&nbsp;A","link":"","email_id":"dharani@rnr.lk","phonenumber":"0112465900","website_link_hotels":"","district":"Colombo","photo_link":"\u003cimg src=\"accomadation.jpg\" width=\"238\" height=\"152\" /\u003e","hotel_star_ratings":"A","popup_desrciption":"","tourism_webiste_link":"","orig_fid":1589},"geometry":{"x":79.841287300000033,"y":6.9339803000000302}},{"attributes":{"objectid":226,"name":"Taphouse by rnr","address":"Shop no- gf 07,dutch hospital shopping precint,galle fort,galle","type":"Restaurants","latitude":6.9341427,"longitude":79.8423763,"id":"1590","stars":"Grade&nbsp;&nbsp;&nbsp;&nbsp;&nbsp;&nbsp;&nbsp;&nbsp;&nbsp;:&nbsp;A","link":"http://www.rnr.lk\" \u003ewww.rnr.lk\u003c/a\u003e","email_id":"gayani@chesmi.com","phonenumber":"0112827527","website_link_hotels":"","district":"Galle","photo_link":"\u003cimg src=\"accomadation.jpg\" width=\"238\" height=\"152\" /\u003e","hotel_star_ratings":"A","popup_desrciption":"","tourism_webiste_link":"","orig_fid":1590},"geometry":{"x":79.842376300000069,"y":6.9341427000000522}},{"attributes":{"objectid":227,"name":"Tastees banana","address":"39b  poruthota road, eththukala, negombo","type":"Restaurants","latitude":7.24032,"longitude":79.841714,"id":"1591","stars":"Grade&nbsp;&nbsp;&nbsp;&nbsp;&nbsp;&nbsp;&nbsp;&nbsp;&nbsp;:&nbsp;A","link":"","email_id":"bananatastees@yahoo.com","phonenumber":"0312275866","website_link_hotels":"","district":"Gampaha","photo_link":"\u003cimg src=\"accomadation.jpg\" width=\"238\" height=\"152\" /\u003e","hotel_star_ratings":"A","popup_desrciption":"","tourism_webiste_link":"","orig_fid":1591},"geometry":{"x":79.841714000000081,"y":7.2403200000000538}},{"attributes":{"objectid":228,"name":"Tgi fridays","address":"23,canal row,fort,colombo 01","type":"Restaurants","latitude":6.933587,"longitude":79.843948,"id":"1592","stars":"Grade&nbsp;&nbsp;&nbsp;&nbsp;&nbsp;&nbsp;&nbsp;&nbsp;&nbsp;:&nbsp;A","link":"","email_id":"lalin.r@cargillsceylon.com","phonenumber":"0112337501","website_link_hotels":"","district":"Colombo","photo_link":"\u003cimg src=\"accomadation.jpg\" width=\"238\" height=\"152\" /\u003e","hotel_star_ratings":"A","popup_desrciption":"","tourism_webiste_link":"","orig_fid":1592},"geometry":{"x":79.843948000000069,"y":6.9335870000000455}},{"attributes":{"objectid":229,"name":"The boulevard","address":"No 33,queens road,colombo 03","type":"Restaurants","latitude":6.8987406,"longitude":79.8534004,"id":"1593","stars":"Grade&nbsp;&nbsp;&nbsp;&nbsp;&nbsp;&nbsp;&nbsp;&nbsp;&nbsp;:&nbsp;A","link":"","email_id":"cmadushan7@gmail.com","phonenumber":"0112205542","website_link_hotels":"","district":"Colombo","photo_link":"\u003cimg src=\"accomadation.jpg\" width=\"238\" height=\"152\" /\u003e","hotel_star_ratings":"A","popup_desrciption":"","tourism_webiste_link":"","orig_fid":1593},"geometry":{"x":79.853400400000055,"y":6.8987406000000533}},{"attributes":{"objectid":230,"name":"The exchange restaurant","address":"No. 39/4/1,canal raw,colombo 01.","type":"Restaurants","latitude":6.933224,"longitude":79.844218,"id":"1594","stars":"Grade&nbsp;&nbsp;&nbsp;&nbsp;&nbsp;&nbsp;&nbsp;&nbsp;&nbsp;:&nbsp;B","link":"","email_id":"bhashaka@gmail.com","phonenumber":"","website_link_hotels":"","district":"Colombo","photo_link":"\u003cimg src=\"accomadation.jpg\" width=\"238\" height=\"152\" /\u003e","hotel_star_ratings":"B","popup_desrciption":"","tourism_webiste_link":"","orig_fid":1594},"geometry":{"x":79.844218000000069,"y":6.9332240000000525}},{"attributes":{"objectid":231,"name":"The grand tourist holiday resort","address":"4/b/2,stage 1,lake road,harischandra mawatha,anuradhapura.","type":"Restaurants","latitude":8.3344975,"longitude":80.4139727,"id":"1595","stars":"Grade&nbsp;&nbsp;&nbsp;&nbsp;&nbsp;&nbsp;&nbsp;&nbsp;&nbsp;:&nbsp;B","link":"","email_id":"thegranddamian@gmail.com","phonenumber":"0252235173","website_link_hotels":"","district":"Anuradhapura","photo_link":"\u003cimg src=\"accomadation.jpg\" width=\"238\" height=\"152\" /\u003e","hotel_star_ratings":"B","popup_desrciption":"","tourism_webiste_link":"","orig_fid":1595},"geometry":{"x":80.413972700000045,"y":8.3344975000000545}},{"attributes":{"objectid":232,"name":"The mango tree","address":"No.82,dharmapala mawatha,colombo-03","type":"Restaurants","latitude":6.9126123,"longitude":79.8532393,"id":"1596","stars":"Grade&nbsp;&nbsp;&nbsp;&nbsp;&nbsp;&nbsp;&nbsp;&nbsp;&nbsp;:&nbsp;A","link":"","email_id":"viraj@themangotree.net","phonenumber":"0117620620","website_link_hotels":"","district":"Colombo","photo_link":"\u003cimg src=\"accomadation.jpg\" width=\"238\" height=\"152\" /\u003e","hotel_star_ratings":"A","popup_desrciption":"","tourism_webiste_link":"","orig_fid":1596},"geometry":{"x":79.853239300000041,"y":6.9126123000000348}},{"attributes":{"objectid":233,"name":"The manhattan fish market","address":"997/1,sri jayawardanapura road,rajagiriya.","type":"Restaurants","latitude":6.9087779,"longitude":79.8983301,"id":"1597","stars":"Grade&nbsp;&nbsp;&nbsp;&nbsp;&nbsp;&nbsp;&nbsp;&nbsp;&nbsp;:&nbsp;A","link":"http://www.themanhattanfishmarket.lk","email_id":"jcikhalil@gmail.com","phonenumber":"0112575722","website_link_hotels":"","district":"Colombo","photo_link":"\u003cimg src=\"accomadation.jpg\" width=\"238\" height=\"152\" /\u003e","hotel_star_ratings":"A","popup_desrciption":"","tourism_webiste_link":"","orig_fid":1597},"geometry":{"x":79.898330100000067,"y":6.9087779000000751}},{"attributes":{"objectid":234,"name":"The new pan restaurant","address":"No. 218/4 , negombo road , wattala","type":"Restaurants","latitude":6.9878757,"longitude":79.8907885,"id":"1598","stars":"Grade&nbsp;&nbsp;&nbsp;&nbsp;&nbsp;&nbsp;&nbsp;&nbsp;&nbsp;:&nbsp;A","link":"","email_id":"","phonenumber":"0112933760","website_link_hotels":"","district":"Gampaha","photo_link":"\u003cimg src=\"accomadation.jpg\" width=\"238\" height=\"152\" /\u003e","hotel_star_ratings":"A","popup_desrciption":"","tourism_webiste_link":"","orig_fid":1598},"geometry":{"x":79.890788500000042,"y":6.9878757000000746}},{"attributes":{"objectid":235,"name":"The pan restaurant","address":"No.107,old negombo road,wattala","type":"Restaurants","latitude":6.9878757,"longitude":79.8907885,"id":"1599","stars":"Grade&nbsp;&nbsp;&nbsp;&nbsp;&nbsp;&nbsp;&nbsp;&nbsp;&nbsp;:&nbsp;A","link":"http://-\" \u003e-\u003c/a\u003e","email_id":"patrickram@hotmail.com","phonenumber":"0112933760","website_link_hotels":"","district":"Gampaha","photo_link":"\u003cimg src=\"accomadation.jpg\" width=\"238\" height=\"152\" /\u003e","hotel_star_ratings":"A","popup_desrciption":"","tourism_webiste_link":"","orig_fid":1599},"geometry":{"x":79.890788500000042,"y":6.9878757000000746}},{"attributes":{"objectid":236,"name":"The re-pub.lk","address":"57, hospital street, colombo 01.","type":"Restaurants","latitude":6.933841,"longitude":79.844358,"id":"1600","stars":"Grade&nbsp;&nbsp;&nbsp;&nbsp;&nbsp;&nbsp;&nbsp;&nbsp;&nbsp;:&nbsp;A","link":"","email_id":"kumarachandrasena@hotmail.com","phonenumber":"0112431887","website_link_hotels":"","district":"Colombo","photo_link":"\u003cimg src=\"accomadation.jpg\" width=\"238\" height=\"152\" /\u003e","hotel_star_ratings":"A","popup_desrciption":"","tourism_webiste_link":"","orig_fid":1600},"geometry":{"x":79.844358000000057,"y":6.9338410000000295}},{"attributes":{"objectid":237,"name":"The regent country club","address":"5/1,21st lane, isurupura,malabe","type":"Restaurants","latitude":6.9114307,"longitude":79.979825,"id":"1601","stars":"Grade&nbsp;&nbsp;&nbsp;&nbsp;&nbsp;&nbsp;&nbsp;&nbsp;&nbsp;:&nbsp;A","link":"","email_id":"s.accountant@theregent.lk","phonenumber":"0117777770","website_link_hotels":"","district":"Colombo","photo_link":"\u003cimg src=\"accomadation.jpg\" width=\"238\" height=\"152\" /\u003e","hotel_star_ratings":"A","popup_desrciption":"","tourism_webiste_link":"","orig_fid":1601},"geometry":{"x":79.979825000000062,"y":6.9114307000000395}},{"attributes":{"objectid":238,"name":"The sizzle restaurant","address":"32,walukarama road,colombo 03","type":"Restaurants","latitude":6.904513,"longitude":79.852924,"id":"1602","stars":"Grade&nbsp;&nbsp;&nbsp;&nbsp;&nbsp;&nbsp;&nbsp;&nbsp;&nbsp;:&nbsp;A","link":"http://www.thesizzle.org","email_id":"hiroshi@thesizzle.org","phonenumber":"0757668882","website_link_hotels":"","district":"Colombo","photo_link":"\u003cimg src=\"accomadation.jpg\" width=\"238\" height=\"152\" /\u003e","hotel_star_ratings":"A","popup_desrciption":"","tourism_webiste_link":"","orig_fid":1602},"geometry":{"x":79.85292400000003,"y":6.9045130000000654}},{"attributes":{"objectid":239,"name":"The sushibar samurai","address":"Ethukale,porutota road,negombo","type":"Restaurants","latitude":7.241667,"longitude":79.841936,"id":"1603","stars":"Grade&nbsp;&nbsp;&nbsp;&nbsp;&nbsp;&nbsp;&nbsp;&nbsp;&nbsp;:&nbsp;A","link":"","email_id":"info@sushisamurai.lk","phonenumber":"0312279500","website_link_hotels":"","district":"Gampaha","photo_link":"\u003cimg src=\"accomadation.jpg\" width=\"238\" height=\"152\" /\u003e","hotel_star_ratings":"A","popup_desrciption":"","tourism_webiste_link":"","orig_fid":1603},"geometry":{"x":79.841936000000032,"y":7.2416670000000636}},{"attributes":{"objectid":240,"name":"The white house restaurant.","address":"No 31 galle road, ambalangoda.","type":"Restaurants","latitude":6.237814,"longitude":80.054894,"id":"1604","stars":"Grade&nbsp;&nbsp;&nbsp;&nbsp;&nbsp;&nbsp;&nbsp;&nbsp;&nbsp;:&nbsp;A","link":"","email_id":"sisiraindunil@yahoo.com","phonenumber":"0912254355","website_link_hotels":"","district":"Galle","photo_link":"\u003cimg src=\"accomadation.jpg\" width=\"238\" height=\"152\" /\u003e","hotel_star_ratings":"A","popup_desrciption":"","tourism_webiste_link":"","orig_fid":1604},"geometry":{"x":80.054894000000047,"y":6.2378140000000712}},{"attributes":{"objectid":241,"name":"Tong ni roast meat restaurant","address":"No.59, walukarama road, colombo 03","type":"Restaurants","latitude":6.9054765,"longitude":79.85464,"id":"1605","stars":"Grade&nbsp;&nbsp;&nbsp;&nbsp;&nbsp;&nbsp;&nbsp;&nbsp;&nbsp;:&nbsp;A","link":"","email_id":"gerardstave@live.com","phonenumber":"0774708703","website_link_hotels":"","district":"Colombo","photo_link":"\u003cimg src=\"accomadation.jpg\" width=\"238\" height=\"152\" /\u003e","hotel_star_ratings":"A","popup_desrciption":"","tourism_webiste_link":"","orig_fid":1605},"geometry":{"x":79.854640000000074,"y":6.9054765000000202}},{"attributes":{"objectid":242,"name":"Tranquil ultra lounge","address":"No:85b,dharmapala mawatha,colombo 7","type":"Restaurants","latitude":6.9132356,"longitude":79.8543824,"id":"1606","stars":"Grade&nbsp;&nbsp;&nbsp;&nbsp;&nbsp;&nbsp;&nbsp;&nbsp;&nbsp;:&nbsp;A","link":"","email_id":"tranquilutralounge@gmail.com","phonenumber":"0112302210","website_link_hotels":"","district":"Colombo","photo_link":"\u003cimg src=\"accomadation.jpg\" width=\"238\" height=\"152\" /\u003e","hotel_star_ratings":"A","popup_desrciption":"","tourism_webiste_link":"","orig_fid":1606},"geometry":{"x":79.854382400000077,"y":6.9132356000000641}},{"attributes":{"objectid":243,"name":"Tsing tao","address":"Ms -5 first floor,race course,reid avenue,colombo 7","type":"Restaurants","latitude":6.905275,"longitude":79.860936,"id":"1607","stars":"Grade&nbsp;&nbsp;&nbsp;&nbsp;&nbsp;&nbsp;&nbsp;&nbsp;&nbsp;:&nbsp;A","link":"","email_id":"jwimalananda@yahoo.com","phonenumber":"0112698989","website_link_hotels":"","district":"Colombo","photo_link":"\u003cimg src=\"accomadation.jpg\" width=\"238\" height=\"152\" /\u003e","hotel_star_ratings":"A","popup_desrciption":"","tourism_webiste_link":"","orig_fid":1607},"geometry":{"x":79.860936000000038,"y":6.9052750000000742}},{"attributes":{"objectid":244,"name":"Tusker restaurant","address":"83, ethukala road, katuwa","type":"Restaurants","latitude":7.235909,"longitude":79.841425,"id":"1608","stars":"Grade&nbsp;&nbsp;&nbsp;&nbsp;&nbsp;&nbsp;&nbsp;&nbsp;&nbsp;:&nbsp;A","link":"","email_id":"yannickhertogs@gmail.com","phonenumber":"0312226999","website_link_hotels":"","district":"Gampaha","photo_link":"\u003cimg src=\"accomadation.jpg\" width=\"238\" height=\"152\" /\u003e","hotel_star_ratings":"A","popup_desrciption":"","tourism_webiste_link":"","orig_fid":1608},"geometry":{"x":79.841425000000072,"y":7.2359090000000492}},{"attributes":{"objectid":245,"name":"Vienna karoke bar and restaurant","address":"6a,6ay,alfred house road,colombo 3","type":"Restaurants","latitude":6.8986018,"longitude":79.8529485,"id":"1609","stars":"Grade&nbsp;&nbsp;&nbsp;&nbsp;&nbsp;&nbsp;&nbsp;&nbsp;&nbsp;:&nbsp;B","link":"","email_id":"nancywang8881@gmail.com","phonenumber":"","website_link_hotels":"","district":"Colombo","photo_link":"\u003cimg src=\"accomadation.jpg\" width=\"238\" height=\"152\" /\u003e","hotel_star_ratings":"B","popup_desrciption":"","tourism_webiste_link":"","orig_fid":1609},"geometry":{"x":79.852948500000082,"y":6.8986018000000513}},{"attributes":{"objectid":246,"name":"Whighte and co cafe","address":"24,aloe avenue ,colombo 03","type":"Restaurants","latitude":6.905194,"longitude":79.850081,"id":"1610","stars":"Grade&nbsp;&nbsp;&nbsp;&nbsp;&nbsp;&nbsp;&nbsp;&nbsp;&nbsp;:&nbsp;A","link":"","email_id":"mrizhan@gmail.com","phonenumber":"0114345854","website_link_hotels":"","district":"Colombo","photo_link":"\u003cimg src=\"accomadation.jpg\" width=\"238\" height=\"152\" /\u003e","hotel_star_ratings":"A","popup_desrciption":"","tourism_webiste_link":"","orig_fid":1610},"geometry":{"x":79.850081000000046,"y":6.9051940000000513}},{"attributes":{"objectid":247,"name":"Xiang yun chinese restaurant","address":"No:935,peradeniya road,kandy","type":"Restaurants","latitude":7.273424,"longitude":80.609211,"id":"1611","stars":"Grade&nbsp;&nbsp;&nbsp;&nbsp;&nbsp;&nbsp;&nbsp;&nbsp;&nbsp;:&nbsp;A","link":"","email_id":"xiangyunresv@sltnet.lk","phonenumber":"0812068111","website_link_hotels":"","district":"Kandy","photo_link":"\u003cimg src=\"accomadation.jpg\" width=\"238\" height=\"152\" /\u003e","hotel_star_ratings":"A","popup_desrciption":"","tourism_webiste_link":"","orig_fid":1611},"geometry":{"x":80.609211000000073,"y":7.2734240000000341}},{"attributes":{"objectid":248,"name":"Xilation chinese restaurant","address":"No. 126, havelock road, colombo 05","type":"Restaurants","latitude":6.8923143,"longitude":79.8597566,"id":"1612","stars":"Grade&nbsp;&nbsp;&nbsp;&nbsp;&nbsp;&nbsp;&nbsp;&nbsp;&nbsp;:&nbsp;A","link":"","email_id":"xiloffice@yahoo.com","phonenumber":"0112508887","website_link_hotels":"","district":"Colombo","photo_link":"\u003cimg src=\"accomadation.jpg\" width=\"238\" height=\"152\" /\u003e","hotel_star_ratings":"A","popup_desrciption":"","tourism_webiste_link":"","orig_fid":1612},"geometry":{"x":79.859756600000082,"y":6.8923143000000664}}]}