{"type":"FeatureCollection","features":[{"type":"Feature","id":1,"geometry":{"type":"Point","coordinates":[81.388304178000055,8.355618780000043]},"properties":{"objectid":1,"name":"Ullakalie Lagoon","capture_type":"Historical behavior","wb_number":"172","point_x":542753.22028100002,"point_y":923633.45286999992,"zone_name":null}},{"type":"Feature","id":2,"geometry":{"type":"Point","coordinates":[81.390402419000054,8.3567062620000456]},"properties":{"objectid":2,"name":"Ullakalie Lagoon","capture_type":"Historical behavior","wb_number":"172","point_x":542984.12598100002,"point_y":923753.90866999992,"zone_name":null}},{"type":"Feature","id":3,"geometry":{"type":"Point","coordinates":[81.355112820000045,8.4787025180000342]},"properties":{"objectid":3,"name":"Ilakanthai","capture_type":"Historical behavior","wb_number":"173","point_x":539086.37950000004,"point_y":937237.63840000005,"zone_name":null}},{"type":"Feature","id":4,"geometry":{"type":"Point","coordinates":[81.347946758000035,8.5008774090000543]},"properties":{"objectid":4,"name":"Vaduvanankal","capture_type":"Historical behavior","wb_number":"174","point_x":538295.42150000005,"point_y":939688.49670000002,"zone_name":null}},{"type":"Feature","id":5,"geometry":{"type":"Point","coordinates":[81.34222578300006,8.5044788730000391]},"properties":{"objectid":5,"name":"Siuvallamanal","capture_type":"Historical behavior","wb_number":"175","point_x":537665.40549999999,"point_y":940086.10030000005,"zone_name":null}},{"type":"Feature","id":6,"geometry":{"type":"Point","coordinates":[81.331453076000059,8.5128332760000376]},"properties":{"objectid":6,"name":"Pakkayakalachenai","capture_type":"Historical behavior","wb_number":"176","point_x":536478.95669999998,"point_y":941008.69990000001,"zone_name":null}},{"type":"Feature","id":7,"geometry":{"type":"Point","coordinates":[81.287503812000068,8.4890086150000457]},"properties":{"objectid":7,"name":"Sampoor Canal","capture_type":"Historical behavior","wb_number":"177","point_x":531643.914429,"point_y":938370.88145499991,"zone_name":null}},{"type":"Feature","id":8,"geometry":{"type":"Point","coordinates":[81.278830471000049,8.4658836830000723]},"properties":{"objectid":8,"name":"Kaddaiparichchan Aru","capture_type":"Historical behavior","wb_number":"178","point_x":530691.11580000003,"point_y":935813.59820000001,"zone_name":null}},{"type":"Feature","id":9,"geometry":{"type":"Point","coordinates":[81.252713948000064,8.4616487550000556]},"properties":{"objectid":9,"name":"Verical Aru","capture_type":"Historical behavior","wb_number":"179","point_x":527816.73210000002,"point_y":935343.44209999999,"zone_name":null}},{"type":"Feature","id":10,"geometry":{"type":"Point","coordinates":[81.229957412000033,8.4600976690000493]},"properties":{"objectid":10,"name":"Mahaweli Ganga","capture_type":"Historical behavior","wb_number":"180","point_x":525311.9621,"point_y":935170.40930000006,"zone_name":null}},{"type":"Feature","id":11,"geometry":{"type":"Point","coordinates":[81.20324262400004,8.4688083680000545]},"properties":{"objectid":11,"name":"Uppu Aru","capture_type":"Historical behavior","wb_number":"181","point_x":522370.8861,"point_y":936131.78319999995,"zone_name":null}},{"type":"Feature","id":12,"geometry":{"type":"Point","coordinates":[81.19094296600008,8.505278234000059]},"properties":{"objectid":12,"name":"Thambalam Bay","capture_type":"Historical behavior","wb_number":"182","point_x":521015.07640000002,"point_y":940163.01670000004,"zone_name":null}},{"type":"Feature","id":13,"geometry":{"type":"Point","coordinates":[81.192529172000036,8.5087942630000271]},"properties":{"objectid":13,"name":"Thambalam Bay","capture_type":"Historical behavior","wb_number":" ","point_x":521189.4608,"point_y":940551.81740000006,"zone_name":null}},{"type":"Feature","id":14,"geometry":{"type":"Point","coordinates":[81.174313391000055,8.733332027000074]},"properties":{"objectid":14,"name":"Sinnakarachchi","capture_type":"Historical behavior","wb_number":"184","point_x":519173.33319999999,"point_y":965374.74879999994,"zone_name":null}},{"type":"Feature","id":15,"geometry":{"type":"Point","coordinates":[81.121534294000071,8.7907066300000452]},"properties":{"objectid":15,"name":"Periyakarachchi","capture_type":"Historical behavior","wb_number":"185","point_x":513365.9179,"point_y":971715.58219999995,"zone_name":null}},{"type":"Feature","id":16,"geometry":{"type":"Point","coordinates":[81.069156820000046,8.8592974710000476]},"properties":{"objectid":16,"name":"Kodikkaddi Aru","capture_type":"Historical behavior","wb_number":"186","point_x":507604.21799999999,"point_y":979297.26359999995,"zone_name":null}},{"type":"Feature","id":17,"geometry":{"type":"Point","coordinates":[81.070165303000067,8.8583196940000448]},"properties":{"objectid":17,"name":"Kodikkaddi Aru","capture_type":"Historical behavior","wb_number":" ","point_x":507715.1274,"point_y":979189.18480000005,"zone_name":null}},{"type":"Feature","id":18,"geometry":{"type":"Point","coordinates":[81.015214048000075,8.9179297600000496]},"properties":{"objectid":18,"name":"Yan Oya","capture_type":"Historical behavior","wb_number":"187","point_x":501672.61190000002,"point_y":985778.77480000001,"zone_name":null}},{"type":"Feature","id":19,"geometry":{"type":"Point","coordinates":[81.003351223000038,8.9351803290000475]},"properties":{"objectid":19,"name":"Kalkerni","capture_type":"Historical behavior","wb_number":"188","point_x":500368.41159999999,"point_y":987685.9094,"zone_name":null}},{"type":"Feature","id":20,"geometry":{"type":"Point","coordinates":[80.990237354000044,8.9508434930000362]},"properties":{"objectid":20,"name":"Pulmuddai","capture_type":"Historical behavior","wb_number":"189","point_x":498926.80420000001,"point_y":989417.59230000002,"zone_name":null}},{"type":"Feature","id":21,"geometry":{"type":"Point","coordinates":[80.966377004000037,8.984509858000024]},"properties":{"objectid":21,"name":"Kokilai","capture_type":"Historical behavior","wb_number":"190","point_x":496304.20520000003,"point_y":993139.80039999995,"zone_name":null}},{"type":"Feature","id":22,"geometry":{"type":"Point","coordinates":[80.962478977000046,8.9917104110000423]},"properties":{"objectid":22,"name":"Kokilai","capture_type":"Historical behavior","wb_number":" ","point_x":495875.82059999998,"point_y":993935.91469999996,"zone_name":null}},{"type":"Feature","id":23,"geometry":{"type":"Point","coordinates":[81.403519422000045,8.2623043790000565]},"properties":{"objectid":23,"name":"Verugal Aru 2","capture_type":"GPS","wb_number":" ","point_x":544438.98109999998,"point_y":913318.68000000005,"zone_name":null}},{"type":"Feature","id":24,"geometry":{"type":"Point","coordinates":[81.401450090000083,8.2756623040000363]},"properties":{"objectid":24,"name":"Verugal Aru 2","capture_type":"GPS","wb_number":" ","point_x":544209.5969,"point_y":914795.24369999999,"zone_name":null}},{"type":"Feature","id":25,"geometry":{"type":"Point","coordinates":[81.354712930000062,8.4782980510000243]},"properties":{"objectid":25,"name":"Ilakanthai","capture_type":"Historical behavior","wb_number":" ","point_x":539042.40480000002,"point_y":937192.88190000004,"zone_name":null}},{"type":"Feature","id":26,"geometry":{"type":"Point","coordinates":[81.347849280000048,8.4996856910000247]},"properties":{"objectid":26,"name":"Vaduvanankal","capture_type":"Historical behavior","wb_number":" ","point_x":538284.81110000005,"point_y":939556.73510000005,"zone_name":null}},{"type":"Feature","id":27,"geometry":{"type":"Point","coordinates":[81.341687017000083,8.5046156650000739]},"properties":{"objectid":27,"name":"Siuvallamanal","capture_type":"Historical behavior","wb_number":" ","point_x":537606.09490000003,"point_y":940101.17110000004,"zone_name":null}},{"type":"Feature","id":28,"geometry":{"type":"Point","coordinates":[81.332349005000083,8.5124190560000557]},"properties":{"objectid":28,"name":"Pakkayakalachenai","capture_type":"Historical behavior","wb_number":" ","point_x":536577.60100000002,"point_y":940962.98990000004,"zone_name":null}},{"type":"Feature","id":29,"geometry":{"type":"Point","coordinates":[81.287868765000042,8.4884608190000677]},"properties":{"objectid":29,"name":"Sampoor Canal","capture_type":"Historical behavior","wb_number":" ","point_x":531684.12800000003,"point_y":938310.34939999995,"zone_name":null}},{"type":"Feature","id":30,"geometry":{"type":"Point","coordinates":[81.277746424000043,8.464790128000061]},"properties":{"objectid":30,"name":"Kaddaiparichchan Aru","capture_type":"Historical behavior","wb_number":" ","point_x":530571.87910000002,"point_y":935692.61450000003,"zone_name":null}},{"type":"Feature","id":31,"geometry":{"type":"Point","coordinates":[81.259888292000085,8.4627837490000388]},"properties":{"objectid":31,"name":"Verical Aru","capture_type":"Historical behavior","wb_number":" ","point_x":528606.34803999995,"point_y":935469.4413859999,"zone_name":null}},{"type":"Feature","id":32,"geometry":{"type":"Point","coordinates":[81.231682195000076,8.461439948000077]},"properties":{"objectid":32,"name":"Mahaweli Ganga","capture_type":"Historical behavior","wb_number":" ","point_x":525501.72580000001,"point_y":935318.91740000003,"zone_name":null}},{"type":"Feature","id":33,"geometry":{"type":"Point","coordinates":[81.20240694000006,8.4710902770000303]},"properties":{"objectid":33,"name":"Uppu Aru","capture_type":"Historical behavior","wb_number":" ","point_x":522278.7708,"point_y":936384.01119999995,"zone_name":null}},{"type":"Feature","id":34,"geometry":{"type":"Point","coordinates":[81.175442621000059,8.7298837710000612]},"properties":{"objectid":34,"name":"Sinnakarachchi","capture_type":"Historical behavior","wb_number":" ","point_x":519297.71870000003,"point_y":964993.58050000004,"zone_name":null}},{"type":"Feature","id":35,"geometry":{"type":"Point","coordinates":[81.118936684000062,8.7922203980000404]},"properties":{"objectid":35,"name":"Periyakarachchi","capture_type":"Historical behavior","wb_number":" ","point_x":513080.18829999998,"point_y":971882.84710000001,"zone_name":null}},{"type":"Feature","id":36,"geometry":{"type":"Point","coordinates":[81.018824308000035,8.911083073000043]},"properties":{"objectid":36,"name":"Yan Oya","capture_type":"Historical behavior","wb_number":" ","point_x":502069.5575,"point_y":985021.84589999996,"zone_name":null}},{"type":"Feature","id":37,"geometry":{"type":"Point","coordinates":[81.004371073000073,8.9347547010000312]},"properties":{"objectid":37,"name":"Kalkerni","capture_type":"Historical behavior","wb_number":" ","point_x":500480.52779999998,"point_y":987638.85439999995,"zone_name":null}},{"type":"Feature","id":38,"geometry":{"type":"Point","coordinates":[80.99132499600006,8.9489978860000292]},"properties":{"objectid":38,"name":"Pulmudai","capture_type":"Historical behavior","wb_number":" ","point_x":499046.36249999999,"point_y":989213.54469999997,"zone_name":null}},{"type":"Feature","id":39,"geometry":{"type":"Point","coordinates":[81.220277494000072,8.621333016000051]},"properties":{"objectid":39,"name":"Uppuveli Lagoon","capture_type":" ","wb_number":"183","point_x":524236.28749999998,"point_y":952995.21840000001,"zone_name":null}},{"type":"Feature","id":40,"geometry":{"type":"Point","coordinates":[81.219609148000075,8.6211861730000692]},"properties":{"objectid":40,"name":"Uppuveli Lagoon","capture_type":" ","wb_number":" ","point_x":524162.76089999999,"point_y":952978.94169999997,"zone_name":null}},{"type":"Feature","id":41,"geometry":{"type":"Point","coordinates":[]},"properties":{"objectid":41,"name":" ","capture_type":" ","wb_number":" ","point_x":0,"point_y":0,"zone_name":null}},{"type":"Feature","id":42,"geometry":{"type":"Point","coordinates":[81.242971675000035,8.4619129570000382]},"properties":{"objectid":42,"name":"Verical Aru2","capture_type":" ","wb_number":" ","point_x":526744.35601900006,"point_y":935371.96841600002,"zone_name":null}},{"type":"Feature","id":43,"geometry":{"type":"Point","coordinates":[81.244197498000062,8.4617925320000609]},"properties":{"objectid":43,"name":"Verical Aru2","capture_type":" ","wb_number":" ","point_x":526879.29378800001,"point_y":935358.73922299989,"zone_name":null}},{"type":"Feature","id":44,"geometry":{"type":"Point","coordinates":[81.211187558000063,8.4659257400000456]},"properties":{"objectid":44,"name":"Uppu Aru2","capture_type":" ","wb_number":" ","point_x":523245.560489,"point_y":935813.560467,"zone_name":null}},{"type":"Feature","id":45,"geometry":{"type":"Point","coordinates":[81.212509020000084,8.465201056000069]},"properties":{"objectid":45,"name":"Uppu Aru2","capture_type":" ","wb_number":" ","point_x":523391.05911000003,"point_y":935733.5223229999,"zone_name":null}}]}