{"type":"FeatureCollection","features":[{"type":"Feature","id":1,"geometry":{"type":"Point","coordinates":[79.800103579000051,6.9591014910000695]},"properties":{"objectid":1,"port_name":"Colombo Port","id":"0","port_type":"International","description":null,"gfcode":null,"creation_method":null,"year_of_creation":null,"revision_method":null,"year_of_revision":null}},{"type":"Feature","id":2,"geometry":{"type":"Point","coordinates":[81.324168515000054,8.5821177610000632]},"properties":{"objectid":2,"port_name":"Trincomalee Port","id":"0","port_type":"International","description":null,"gfcode":null,"creation_method":null,"year_of_creation":null,"revision_method":null,"year_of_revision":null}},{"type":"Feature","id":3,"geometry":{"type":"Point","coordinates":[81.070922650000057,6.0636701650000759]},"properties":{"objectid":3,"port_name":"Hambanthota Port","id":"0","port_type":"International","description":null,"gfcode":null,"creation_method":null,"year_of_creation":null,"revision_method":null,"year_of_revision":null}},{"type":"Feature","id":4,"geometry":{"type":"Point","coordinates":[80.040846318000035,9.8652467110000543]},"properties":{"objectid":4,"port_name":"Kakasanthurai Port","id":"0","port_type":null,"description":null,"gfcode":null,"creation_method":null,"year_of_creation":null,"revision_method":null,"year_of_revision":null}},{"type":"Feature","id":5,"geometry":{"type":"Point","coordinates":[81.871614987000044,7.0939858550000281]},"properties":{"objectid":5,"port_name":"Oluvil Port","id":"0","port_type":null,"description":null,"gfcode":null,"creation_method":null,"year_of_creation":null,"revision_method":null,"year_of_revision":null}},{"type":"Feature","id":6,"geometry":{"type":"Point","coordinates":[80.246659987000044,9.876602427000023]},"properties":{"objectid":6,"port_name":"Point Pedro Port","id":"0","port_type":null,"description":null,"gfcode":null,"creation_method":null,"year_of_creation":null,"revision_method":null,"year_of_revision":null}}]}