{"displayFieldName":"name","fieldAliases":{"objectid":"OBJECTID","name":"Name","address":"Address","working_hours":"Working Hours"},"geometryType":"esriGeometryPoint","spatialReference":{"wkid":4326,"latestWkid":4326},"fields":[{"name":"objectid","type":"esriFieldTypeOID","alias":"OBJECTID"},{"name":"name","type":"esriFieldTypeString","alias":"Name","length":120},{"name":"address","type":"esriFieldTypeString","alias":"Address","length":300},{"name":"working_hours","type":"esriFieldTypeString","alias":"Working Hours","length":50}],"features":[{"attributes":{"objectid":1,"name":"Shopping Centre Piliyandala","address":"Piliyandala, Sri Lanka","working_hours":null},"geometry":{"x":79.923943200000053,"y":6.8012686000000713}},{"attributes":{"objectid":2,"name":"Noritake Factory Store","address":"B389, Nugegoda, Sri Lanka","working_hours":null},"geometry":{"x":79.890813800000046,"y":6.8572655000000395}},{"attributes":{"objectid":3,"name":"Co-operative shop","address":"Moratuwa 10400, Sri Lanka","working_hours":null},"geometry":{"x":79.894526100000064,"y":6.7923958000000653}},{"attributes":{"objectid":4,"name":"ODEL","address":"G-3, Udeshi City Shopping Complex, Makola Rd, Kiribathgoda, Sri Lanka","working_hours":null},"geometry":{"x":79.928939900000046,"y":6.9770883000000481}},{"attributes":{"objectid":5,"name":"Crescat Boulevard","address":"89 Galle Rd, Colombo 00300, Sri Lanka","working_hours":null},"geometry":{"x":79.848392100000069,"y":6.9172500000000241}},{"attributes":{"objectid":6,"name":"Samanpura Hardware","address":"Station Rd, Moratuwa 10400, Sri Lanka","working_hours":null},"geometry":{"x":79.87944200000004,"y":6.8005967000000282}},{"attributes":{"objectid":7,"name":"Colombo City Centre","address":"137 Sir James Pieris Mawatha, Colombo 00200, Sri Lanka","working_hours":null},"geometry":{"x":79.85537110000007,"y":6.9176674000000276}},{"attributes":{"objectid":8,"name":"Prosthetic and Orthotic Centre","address":"51/1A Isipathana Mawatha, Colombo 00500, Sri Lanka","working_hours":null},"geometry":{"x":79.865517300000079,"y":6.8887198000000467}},{"attributes":{"objectid":9,"name":"On Look","address":"Sunethara Mawatha, Nugegoda, Sri Lanka","working_hours":null},"geometry":{"x":79.892582100000084,"y":6.8564184000000523}},{"attributes":{"objectid":10,"name":"Sethma Saree Shop","address":"18 Old Kottawa Rd, Nugegoda, Sri Lanka","working_hours":null},"geometry":{"x":79.902620300000081,"y":6.8742523000000233}},{"attributes":{"objectid":11,"name":"Supun Super Center","address":"16, R. D. Mel Mawatha, Colombo 07, R. A. De Mel Mawatha, Colombo, Sri Lanka","working_hours":null},"geometry":{"x":79.859604200000035,"y":6.8881631000000425}},{"attributes":{"objectid":12,"name":"Crescat Shopping Mall","address":"Galle Road, Colombo, Sri Lanka","working_hours":null},"geometry":{"x":79.848129700000072,"y":6.9170217000000207}},{"attributes":{"objectid":13,"name":"Matara Kade Retail Shop","address":"D.J.Wijesiriwardena Mawatha, Dehiwala-Mount Lavinia, Sri Lanka","working_hours":null},"geometry":{"x":79.869407200000069,"y":6.8329052000000274}},{"attributes":{"objectid":14,"name":"Mount City Shopping Complex","address":"143 Galle Rd, Dehiwala-Mount Lavinia, Sri Lanka","working_hours":null},"geometry":{"x":79.869104100000072,"y":6.8275197000000389}},{"attributes":{"objectid":15,"name":"Economics Center - Rathmalana","address":"Bodhirukkarama Rd, Dehiwala-Mount Lavinia, Sri Lanka","working_hours":null},"geometry":{"x":79.874221100000057,"y":6.8089332000000695}},{"attributes":{"objectid":16,"name":"Odel","address":"4 Hotel Rd, Dehiwala-Mount Lavinia, Sri Lanka","working_hours":null},"geometry":{"x":79.866874500000051,"y":6.8413973000000396}},{"attributes":{"objectid":17,"name":"Arcade Independence Square","address":"Independence Square, Colombo 00700, Sri Lanka","working_hours":null},"geometry":{"x":79.868959300000085,"y":6.9025913000000401}},{"attributes":{"objectid":18,"name":"Dutch Hospital Shopping Precinct","address":"Hospital St, Colombo 00100, Sri Lanka","working_hours":null},"geometry":{"x":79.843504600000074,"y":6.9336730000000557}},{"attributes":{"objectid":19,"name":"K-Zone","address":"Rawatawatta Methodist Church, A2, Moratuwa 10400, Sri Lanka","working_hours":null},"geometry":{"x":79.88760700000006,"y":6.7957545000000437}},{"attributes":{"objectid":20,"name":"Majestic City","address":"10 Station Rd, Colombo, Sri Lanka","working_hours":null},"geometry":{"x":79.855036300000052,"y":6.894173300000034}}]}