{"type":"FeatureCollection","features":[{"type":"Feature","id":1,"geometry":{"type":"Point","coordinates":[80.03333333300003,9.6833333330000642]},"properties":{"objectid":1,"serial_number":"43404","station_name":"JAFFNA","district":"JAFFNA","latitude":9.68333333,"longitude":80.033333329999991,"begin_date":-3123014400000,"end_date":253402214400000,"description":null,"qualifier":"Synoptic","elevation":3.1000000000000001}},{"type":"Feature","id":2,"geometry":{"type":"Point","coordinates":[80.81666666700005,9.2500000000000568]},"properties":{"objectid":2,"serial_number":"43410","station_name":"MULLAITIVU","district":"MULLAITIVU","latitude":9.25,"longitude":80.816666669999989,"begin_date":-3218832000000,"end_date":253402214400000,"description":null,"qualifier":"Synoptic","elevation":13}},{"type":"Feature","id":3,"geometry":{"type":"Point","coordinates":[79.916666667000072,8.9833333330000755]},"properties":{"objectid":3,"serial_number":"43413","station_name":"MANNAR","district":"MANNAR","latitude":8.9833333300000007,"longitude":79.916666669999998,"begin_date":-3145305600000,"end_date":253402214400000,"description":null,"qualifier":"Synoptic","elevation":3.6000000000000001}},{"type":"Feature","id":4,"geometry":{"type":"Point","coordinates":[80.500000000000057,8.7500000000000568]},"properties":{"objectid":4,"serial_number":"43415","station_name":"VAVUNIYA","district":"VAVUNIYA","latitude":8.75,"longitude":80.5,"begin_date":-2819059200000,"end_date":253402214400000,"description":null,"qualifier":"Synoptic","elevation":97.5}},{"type":"Feature","id":5,"geometry":{"type":"Point","coordinates":[81.250000000000057,8.5833333330000414]},"properties":{"objectid":5,"serial_number":"43418","station_name":"TRINCOMALEE","district":"TRINCOMALEE","latitude":8.5833333300000003,"longitude":81.25,"begin_date":-3187209600000,"end_date":253402214400000,"description":null,"qualifier":"Synoptic","elevation":23.899999999999999}},{"type":"Feature","id":6,"geometry":{"type":"Point","coordinates":[80.383333333000053,8.3500000000000227]},"properties":{"objectid":6,"serial_number":"43421","station_name":"ANURADHAPURA","district":"ANURADHAPURA","latitude":8.3499999999999996,"longitude":80.383333329999999,"begin_date":-3144700800000,"end_date":253402214400000,"description":null,"qualifier":"Synoptic","elevation":92.5}},{"type":"Feature","id":7,"geometry":{"type":"Point","coordinates":[80.466666667000084,8.1166666670000609]},"properties":{"objectid":7,"serial_number":"43422","station_name":"MAHA ILLUPPALLAMA","district":"ANURADHAPURA","latitude":8.1166666700000007,"longitude":80.466666669999995,"begin_date":-3218832000000,"end_date":253402214400000,"description":null,"qualifier":"Synoptic","elevation":117.2}},{"type":"Feature","id":8,"geometry":{"type":"Point","coordinates":[79.833333333000041,8.0333333330000301]},"properties":{"objectid":8,"serial_number":"43424","station_name":"PUTTALAM","district":"PUTTALAM","latitude":8.0333333300000014,"longitude":79.833333329999988,"begin_date":-3187209600000,"end_date":253402214400000,"description":null,"qualifier":"Synoptic","elevation":2.1000000000000001}},{"type":"Feature","id":9,"geometry":{"type":"Point","coordinates":[81.700000000000045,7.7166666670000268]},"properties":{"objectid":9,"serial_number":"43436","station_name":"BATTICALOA","district":"BATTICALOA","latitude":7.7166666699999995,"longitude":81.700000000000003,"begin_date":-3184531200000,"end_date":253402214400000,"description":null,"qualifier":"Synoptic","elevation":7.7999999999999998}},{"type":"Feature","id":10,"geometry":{"type":"Point","coordinates":[80.366666667000061,7.4666666670000268]},"properties":{"objectid":10,"serial_number":"43441","station_name":"KURUNEGALA","district":"KURUNEGALA","latitude":7.4666666699999995,"longitude":80.366666670000001,"begin_date":-2669241600000,"end_date":253402214400000,"description":null,"qualifier":"Synoptic","elevation":116.09999999999999}},{"type":"Feature","id":11,"geometry":{"type":"Point","coordinates":[80.633333333000053,7.3333333330000414]},"properties":{"objectid":11,"serial_number":"43444","station_name":"KATUGASTOTA","district":"KANDY","latitude":7.3333333300000003,"longitude":80.633333329999999,"begin_date":-3218832000000,"end_date":253402214400000,"description":null,"qualifier":"Synoptic","elevation":417.10000000000002}},{"type":"Feature","id":12,"geometry":{"type":"Point","coordinates":[79.883333333000053,7.1666666670000723]},"properties":{"objectid":12,"serial_number":"43450","station_name":"KATUNAYAKA","district":"GAMPAHA","latitude":7.1666666699999997,"longitude":79.883333329999999,"begin_date":-3218832000000,"end_date":253402214400000,"description":null,"qualifier":"Synoptic","elevation":8.5}},{"type":"Feature","id":13,"geometry":{"type":"Point","coordinates":[79.866666667000061,6.9000000000000341]},"properties":{"objectid":13,"serial_number":"43466","station_name":"COLOMBO","district":"COLOMBO","latitude":6.9000000000000004,"longitude":79.866666670000001,"begin_date":-3171571200000,"end_date":253402214400000,"description":null,"qualifier":"Synoptic","elevation":7.2999999999999998}},{"type":"Feature","id":14,"geometry":{"type":"Point","coordinates":[79.883333333000053,6.8166666670000495]},"properties":{"objectid":14,"serial_number":"43467","station_name":"RATMALANA","district":"COLOMBO","latitude":6.81666667,"longitude":79.883333329999999,"begin_date":-3218832000000,"end_date":253402214400000,"description":null,"qualifier":"Synoptic","elevation":5}},{"type":"Feature","id":15,"geometry":{"type":"Point","coordinates":[80.766666667000038,6.9666666670000268]},"properties":{"objectid":15,"serial_number":"43473","station_name":"NUWARA ELIYA","district":"NUWARA ELIYA","latitude":6.9666666699999995,"longitude":80.766666669999992,"begin_date":-3186432000000,"end_date":253402214400000,"description":null,"qualifier":"Synoptic","elevation":1893.5999999999999}},{"type":"Feature","id":16,"geometry":{"type":"Point","coordinates":[80.966666667000084,6.8166666670000495]},"properties":{"objectid":16,"serial_number":"43476","station_name":"DIYATALAWA","district":"BADULLA","latitude":6.81666667,"longitude":80.966666669999995,"begin_date":-2177452800000,"end_date":650937600000,"description":null,"qualifier":"Synoptic","elevation":0}},{"type":"Feature","id":17,"geometry":{"type":"Point","coordinates":[81.050000000000068,6.9833333330000755]},"properties":{"objectid":17,"serial_number":"43479","station_name":"BADULLA","district":"BADULLA","latitude":6.9833333299999998,"longitude":81.049999999999997,"begin_date":-3197750400000,"end_date":253402214400000,"description":null,"qualifier":"Synoptic","elevation":669.60000000000002}},{"type":"Feature","id":18,"geometry":{"type":"Point","coordinates":[80.400000000000034,6.6833333330000642]},"properties":{"objectid":18,"serial_number":"43486","station_name":"RATNAPURA","district":"RATNAPURA","latitude":6.68333333,"longitude":80.400000000000006,"begin_date":-3166214400000,"end_date":253402214400000,"description":null,"qualifier":"Synoptic","elevation":86.299999999999997}},{"type":"Feature","id":19,"geometry":{"type":"Point","coordinates":[80.216666667000084,6.0333333330000301]},"properties":{"objectid":19,"serial_number":"43495","station_name":"GALLE","district":"GALLE","latitude":6.0333333299999996,"longitude":80.216666669999995,"begin_date":-3187209600000,"end_date":253402214400000,"description":null,"qualifier":"Synoptic","elevation":12.5}},{"type":"Feature","id":20,"geometry":{"type":"Point","coordinates":[81.133333333000053,6.1166666670000609]},"properties":{"objectid":20,"serial_number":"43497","station_name":"HAMBANTOTA","district":"HAMBANTOTA","latitude":6.1166666699999999,"longitude":81.133333329999999,"begin_date":-3187209600000,"end_date":253402214400000,"description":null,"qualifier":"Synoptic","elevation":15.5}},{"type":"Feature","id":21,"geometry":{"type":"Point","coordinates":[81.833333333000041,6.8833333330000528]},"properties":{"objectid":21,"serial_number":"43999","station_name":"POTTUVIL","district":"AMPARAI","latitude":6.8833333300000001,"longitude":81.833333329999988,"begin_date":-3218832000000,"end_date":253402214400000,"description":null,"qualifier":"Synoptic","elevation":3.6000000000000001}},{"type":"Feature","id":22,"geometry":{"type":"Point","coordinates":[80.966666667000084,6.8166666670000495]},"properties":{"objectid":22,"serial_number":"143476","station_name":"BANDARAWELA","district":"BADULLA","latitude":6.81666667,"longitude":80.966666669999995,"begin_date":651110400000,"end_date":253402214400000,"description":null,"qualifier":"Synoptic","elevation":1225.3}},{"type":"Feature","id":23,"geometry":{"type":"Point","coordinates":[81.300000000000068,6.5000000000000568]},"properties":{"objectid":23,"serial_number":"43MMM","station_name":"MONARAGALA","district":"MONARAGALA","latitude":6.5,"longitude":81.299999999999997,"begin_date":1230940800000,"end_date":253402214400000,"description":null,"qualifier":"Synoptic","elevation":165}},{"type":"Feature","id":24,"geometry":{"type":"Point","coordinates":[81.050000000000068,7.8666666670000609]},"properties":{"objectid":24,"serial_number":"43PPP","station_name":"POLONNARUWA","district":"POLONNARUWA","latitude":7.8666666699999999,"longitude":81.049999999999997,"begin_date":1230854400000,"end_date":253402214400000,"description":null,"qualifier":"Synoptic","elevation":43}},{"type":"Feature","id":25,"geometry":{"type":"Point","coordinates":[81.144166667000036,6.3038888890000635]},"properties":{"objectid":25,"serial_number":"43MAT","station_name":"MATTALA","district":"HAMBANTOTA","latitude":6.3038888899999996,"longitude":81.14416666999999,"begin_date":1356998400000,"end_date":253402214400000,"description":null,"qualifier":"Synoptic","elevation":60.600000000000001}}]}