{"displayFieldName":"name","fieldAliases":{"objectid":"objectid","name":"name","address":"address","rooms":"rooms","district":"district","aga_division":"AGA Division","ps_mc_uc":"PS/MC/UC","logitiute":"logitiute","latitude":"latitude","orig_fid":"orig_fid"},"geometryType":"esriGeometryPoint","spatialReference":{"wkid":4326,"latestWkid":4326},"fields":[{"name":"objectid","type":"esriFieldTypeOID","alias":"objectid"},{"name":"name","type":"esriFieldTypeString","alias":"name","length":255},{"name":"address","type":"esriFieldTypeString","alias":"address","length":255},{"name":"rooms","type":"esriFieldTypeDouble","alias":"rooms"},{"name":"district","type":"esriFieldTypeString","alias":"district","length":255},{"name":"aga_division","type":"esriFieldTypeString","alias":"AGA Division","length":255},{"name":"ps_mc_uc","type":"esriFieldTypeString","alias":"PS/MC/UC","length":255},{"name":"logitiute","type":"esriFieldTypeDouble","alias":"logitiute"},{"name":"latitude","type":"esriFieldTypeDouble","alias":"latitude"},{"name":"orig_fid","type":"esriFieldTypeInteger","alias":"orig_fid"}],"features":[{"attributes":{"objectid":1,"name":"THE GATEWAY HOTEL AIRPORT GARDEN COLOMBO","address":"234/238, COLOMBO-NEGOMBO ROAD, SEEDUWA","rooms":309.0,"district":"Gampaha","aga_division":"Negombo","ps_mc_uc":"Negombo Divisional Secretariat","logitiute":79.86942,"latitude":7.143205,"orig_fid":-1},"geometry":{"x":79.869420000000048,"y":7.1432050000000231}},{"attributes":{"objectid":2,"name":"CORAL ROCK BY BANSEI","address":"NO.340, GALL ROAD, HIKKADUWA","rooms":30.0,"district":"Galle","aga_division":"Hikkaduwa","ps_mc_uc":"Hikkaduwa Divisional Secretariat","logitiute":80.100061,"latitude":6.134378,"orig_fid":-1},"geometry":{"x":80.100061000000039,"y":6.1343780000000265}},{"attributes":{"objectid":3,"name":"LAVENDISH WILD SAFARI HOTEL","address":"NO 01 ELA, HANDUNGAMUWA, WASGAMUWA, MATALE","rooms":24.0,"district":"Matale","aga_division":"Matale","ps_mc_uc":"Matale Divisional Secretariat","logitiute":80.925984,"latitude":7.618698,"orig_fid":-1},"geometry":{"x":80.925984000000085,"y":7.6186980000000517}},{"attributes":{"objectid":4,"name":"SIDDHALEPA AYURVEDA HEALTH RESORT","address":"SAMANTHARA ROAD, WADDUWA","rooms":50.0,"district":"Kalutara","aga_division":"Kalutara Pradeshiya Sabha","ps_mc_uc":"Kalutara Divisional Secretariat","logitiute":79.935723,"latitude":6.642573,"orig_fid":-1},"geometry":{"x":79.935723000000053,"y":6.6425730000000272}},{"attributes":{"objectid":5,"name":"ROYAL PALMS BEACH HOTEL","address":"DE ABREW ROAD, WASKADUWA, KALUTARA","rooms":123.0,"district":"Kalutara","aga_division":"Kalutara Pradeshiya Sabha","ps_mc_uc":"Kalutara Divisional Secretariat","logitiute":79.948656,"latitude":6.610027,"orig_fid":-1},"geometry":{"x":79.948656000000085,"y":6.6100270000000592}},{"attributes":{"objectid":6,"name":"SEA LOTUS PARK HOTEL","address":"NO.33,ALLESGARDEN,TRINCOMALEE.","rooms":25.0,"district":"Trincomalee","aga_division":"Trincomalee","ps_mc_uc":"Trincomalee Divisional Secretariat","logitiute":81.218406,"latitude":8.614524,"orig_fid":-1},"geometry":{"x":81.218406000000073,"y":8.614524000000074}},{"attributes":{"objectid":7,"name":"AVANI KALUTARA RESORT","address":"40,ST. SEBASTIANS ROAD,KATUKURUNDA, KALUTARA","rooms":105.0,"district":"Kalutara","aga_division":"Kalutara Pradeshiya Sabha","ps_mc_uc":"Kalutara Divisional Secretariat","logitiute":79.960416,"latitude":6.568479,"orig_fid":-1},"geometry":{"x":79.960416000000066,"y":6.5684790000000248}},{"attributes":{"objectid":8,"name":"HOTEL LANKA PARADISE","address":"1/9, AMARASENA MAWATHA, HIKKADUWA.","rooms":21.0,"district":"Galle","aga_division":"Hikkaduwa","ps_mc_uc":"Hikkaduwa Divisional Secretariat","logitiute":80.102984,"latitude":6.139194,"orig_fid":-1},"geometry":{"x":80.102984000000049,"y":6.1391940000000318}},{"attributes":{"objectid":9,"name":"WELCOMBE HOTEL","address":"NO. 66, LOWER ROAD, ORRS HILL, TRINCOMALEE","rooms":20.0,"district":"Trincomalee","aga_division":"Trincomalee","ps_mc_uc":"Trincomalee Divisional Secretariat","logitiute":81.215834,"latitude":8.570034,"orig_fid":-1},"geometry":{"x":81.215834000000029,"y":8.570034000000021}},{"attributes":{"objectid":10,"name":"THILANKA RESORTS & SPA","address":"NO.51,GODAWALAYAYA,MORAGOLLA,DAMBULLA.","rooms":12.0,"district":"Matale","aga_division":"Dambulla Pradeshiya Sabha","ps_mc_uc":"Dambulla Divisional Secretariat","logitiute":80.6552693,"latitude":7.8221483,"orig_fid":-1},"geometry":{"x":80.655269300000043,"y":7.8221483000000376}},{"attributes":{"objectid":11,"name":"HOTEL LANKA SUPER CORALS","address":"NO.390,GALLE ROAD,HIKKADUWA.","rooms":100.0,"district":"Galle","aga_division":"Hikkaduwa","ps_mc_uc":"Hikkaduwa Divisional Secretariat","logitiute":80.102295,"latitude":6.129903,"orig_fid":-1},"geometry":{"x":80.102295000000083,"y":6.1299030000000698}},{"attributes":{"objectid":12,"name":"ELEPHANT REACH HOTEL","address":"YALA JUNCTION,KIRINDA TISSAMAHARAMA.","rooms":28.0,"district":"Hambantota","aga_division":"Hambantota","ps_mc_uc":"Thissamaharama Divisional Secretariat","logitiute":81.331186,"latitude":6.228965,"orig_fid":-1},"geometry":{"x":81.331186000000059,"y":6.2289650000000734}},{"attributes":{"objectid":13,"name":"JETWING BEACH","address":"ETHUKALA,NEGOMBO.","rooms":78.0,"district":"Gampaha","aga_division":"Negombo","ps_mc_uc":"Negombo Divisional Secretariat","logitiute":79.841713,"latitude":7.243757,"orig_fid":-1},"geometry":{"x":79.841713000000084,"y":7.2437570000000733}},{"attributes":{"objectid":14,"name":"JETWING LIGHTHOUSE","address":"DADELLA,GALLE.","rooms":85.0,"district":"Galle","aga_division":"Galle","ps_mc_uc":"Galle Divisional Secretariat","logitiute":80.194348,"latitude":6.042663,"orig_fid":-1},"geometry":{"x":80.194348000000048,"y":6.0426630000000614}},{"attributes":{"objectid":15,"name":"JETWING LAGOON","address":"PAMUNUGAMA ROAD, THALHENA,NEGOMBO.","rooms":55.0,"district":"Gampaha","aga_division":"Negombo","ps_mc_uc":"Negombo Divisional Secretariat","logitiute":79.8237105,"latitude":7.1680341,"orig_fid":-1},"geometry":{"x":79.823710500000061,"y":7.1680341000000567}},{"attributes":{"objectid":16,"name":"THE SAFARI","address":"TISSAMAHARAMA","rooms":57.0,"district":"Hambantota","aga_division":"Thissamaharama","ps_mc_uc":"Thissamaharama Divisional Secretariat","logitiute":81.291211,"latitude":6.287747,"orig_fid":-1},"geometry":{"x":81.291211000000033,"y":6.2877470000000244}},{"attributes":{"objectid":17,"name":"THE LAKE","address":"NEW TOWN, POLONNNARUWA.","rooms":40.0,"district":"Polonnaruwa","aga_division":"Polonnaruwa","ps_mc_uc":"Thamankaduwa Divisional Secretariat","logitiute":80.992612,"latitude":7.924354,"orig_fid":-1},"geometry":{"x":80.992612000000065,"y":7.9243540000000507}},{"attributes":{"objectid":18,"name":"SERENE GRAND HOTEL","address":"NO.113, RAJAPIHILLA MAWATHA, KANDY","rooms":21.0,"district":"Kandy","aga_division":"Kandy","ps_mc_uc":"Kandy Divisional Secretariat","logitiute":80.641491,"latitude":7.286564,"orig_fid":-1},"geometry":{"x":80.64149100000003,"y":7.2865640000000553}},{"attributes":{"objectid":19,"name":"DICKWELLA RESORT","address":"BATEEGAMA,DICKWELLA.","rooms":61.0,"district":"Matara","aga_division":"Matara","ps_mc_uc":"Dickwella Divisional Secretariat","logitiute":80.685998,"latitude":5.959117,"orig_fid":-1},"geometry":{"x":80.685998000000041,"y":5.9591170000000488}},{"attributes":{"objectid":20,"name":"AYURVEDA PARAGON","address":"P.O.BOX 01, 80615, TALPE","rooms":82.0,"district":"Galle","aga_division":"Habaraduwa","ps_mc_uc":"Habaraduwa Divisional Secretariat","logitiute":80.284404,"latitude":5.995887,"orig_fid":-1},"geometry":{"x":80.284404000000052,"y":5.9958870000000388}},{"attributes":{"objectid":21,"name":"THE TOURMALINE","address":"ANNIEWATTE, KANDY","rooms":24.0,"district":"Kandy","aga_division":"Kandy","ps_mc_uc":"Ganga Ihala Korale Divisional Secretariat","logitiute":80.625623,"latitude":7.291288,"orig_fid":-1},"geometry":{"x":80.625623000000076,"y":7.2912880000000655}},{"attributes":{"objectid":22,"name":"JETWING AYURVEDA","address":"NO.14, ETTHUKALA, NEGOMBO","rooms":12.0,"district":"Gampaha","aga_division":"Negombo","ps_mc_uc":"Negombo Divisional Secretariat","logitiute":79.841884,"latitude":7.236983,"orig_fid":-1},"geometry":{"x":79.84188400000005,"y":7.2369830000000661}},{"attributes":{"objectid":23,"name":"GREEN PARADISE AGRO ECO HOTEL","address":"KUBUKKADANWALA,DAMBULLA.","rooms":67.0,"district":"Matale","aga_division":"Matale","ps_mc_uc":"Matale Divisional Secretariat","logitiute":80.733751,"latitude":7.899706,"orig_fid":-1},"geometry":{"x":80.733751000000041,"y":7.8997060000000374}},{"attributes":{"objectid":24,"name":"CORAL SANDS HOTEL","address":"326,GALLE ROAD,HIKKADUWA.","rooms":72.0,"district":"Galle","aga_division":"Hikkaduwa","ps_mc_uc":"Hikkaduwa Divisional Secretariat","logitiute":80.099676,"latitude":6.136629,"orig_fid":-1},"geometry":{"x":80.099676000000045,"y":6.1366290000000276}},{"attributes":{"objectid":25,"name":"ROYAL CASTLE","address":"140,LEWIS PLACE,NEGOMBO.","rooms":20.0,"district":"Gampaha","aga_division":"Negombo","ps_mc_uc":"Negombo Divisional Secretariat","logitiute":79.840848,"latitude":7.228003,"orig_fid":-1},"geometry":{"x":79.840848000000051,"y":7.2280030000000579}},{"attributes":{"objectid":26,"name":"PELWEHERA VILLAGE RESORT","address":"BULAGALA JUNCTION,PELWEHERA,DAMBULLA.","rooms":16.0,"district":"Matale","aga_division":"Dambulla Pradeshiya Sabha","ps_mc_uc":"Dambulla Divisional Secretariat","logitiute":80.669359,"latitude":7.903622,"orig_fid":-1},"geometry":{"x":80.669359000000043,"y":7.9036220000000412}},{"attributes":{"objectid":27,"name":"HOTEL THILANKA","address":"NO.3,SANGAMITTA MAWATHA,KANDY.","rooms":86.0,"district":"Kandy","aga_division":"Kandy","ps_mc_uc":"Kandy Divisional Secretariat","logitiute":80.645743,"latitude":7.291327,"orig_fid":-1},"geometry":{"x":80.645743000000039,"y":7.2913270000000239}},{"attributes":{"objectid":28,"name":"TURYAA - KALUTARA","address":"KUDAWASKADUWA, KALUTARA","rooms":96.0,"district":"Kalutara","aga_division":"Kalutara Pradeshiya Sabha","ps_mc_uc":"Kalutara Divisional Secretariat","logitiute":79.9387718,"latitude":6.6289085,"orig_fid":-1},"geometry":{"x":79.93877180000004,"y":6.6289085000000227}},{"attributes":{"objectid":29,"name":"BANDARAWELA HOTEL","address":"NO 14, WELIMADA ROAD, BANDARAWELA","rooms":33.0,"district":"Badulla","aga_division":"Bandarawela Pradeshiya Sabha","ps_mc_uc":"Bandarawela Divisional Secretariat","logitiute":80.989062,"latitude":6.831583,"orig_fid":-1},"geometry":{"x":80.989062000000047,"y":6.8315830000000233}},{"attributes":{"objectid":30,"name":"HARIDRA RESORT & SPA","address":"921,PARALLEL ROAD,POHODDARAMULLA,WADDUWA.","rooms":32.0,"district":"Kalutara","aga_division":"Kalutara Pradeshiya Sabha","ps_mc_uc":"Wadduwa","logitiute":79.934133,"latitude":6.644964,"orig_fid":-1},"geometry":{"x":79.934133000000031,"y":6.6449640000000727}},{"attributes":{"objectid":31,"name":"UNAWATUNA BEACH RESORT","address":"PARANGIYAWATTA,UNAWATUNA,GALLE","rooms":73.0,"district":"Galle","aga_division":"Habaraduwa","ps_mc_uc":"Habaraduwa Divisional Secretariat","logitiute":80.2470003,"latitude":6.0104413,"orig_fid":-1},"geometry":{"x":80.247000300000082,"y":6.010441300000025}},{"attributes":{"objectid":32,"name":"HIKKADUWA BEACH HOTEL","address":"298,GALLE ROAD,HIKKADUWA","rooms":52.0,"district":"Galle","aga_division":"Hikkaduwa","ps_mc_uc":"Hikkaduwa Divisional Secretariat","logitiute":80.099433,"latitude":6.138497,"orig_fid":-1},"geometry":{"x":80.099433000000033,"y":6.1384970000000294}},{"attributes":{"objectid":33,"name":"PALM PARADISE CABANAS","address":"GOYAMBOKKA,TANGALLE","rooms":22.0,"district":"Hambantota","aga_division":"Hambantota","ps_mc_uc":"Tangalle Divisional Secretariat","logitiute":80.7802,"latitude":6.009518,"orig_fid":-1},"geometry":{"x":80.780200000000036,"y":6.009518000000071}},{"attributes":{"objectid":34,"name":"AIDA HOTEL","address":"NO.12A,MANGALA MAWATHA,BENTOTA","rooms":34.0,"district":"Galle","aga_division":"Bentota Pradeshiya Sabha","ps_mc_uc":"Benthota Divisional Secretariat","logitiute":79.9960523,"latitude":6.4245209,"orig_fid":-1},"geometry":{"x":79.996052300000031,"y":6.4245209000000614}},{"attributes":{"objectid":35,"name":"ALPINE HOTEL","address":"NO.4 ,HADDON HILL ROAD,NUWARAELIYA","rooms":25.0,"district":"Nuwara Eliya","aga_division":"Nuwara Eliya","ps_mc_uc":"Nuwara Eliya Divisional Secretariat","logitiute":80.7637973,"latitude":6.9625923,"orig_fid":-1},"geometry":{"x":80.763797300000078,"y":6.9625923000000398}},{"attributes":{"objectid":36,"name":"CITRUS - HIKKADUWA","address":"NO.400,GALLE ROAD,HIKKADUWA","rooms":54.0,"district":"Galle","aga_division":"Galle","ps_mc_uc":"Hikkaduwa Divisional Secretariat","logitiute":80.102953,"latitude":6.129744,"orig_fid":-1},"geometry":{"x":80.10295300000007,"y":6.1297440000000734}},{"attributes":{"objectid":37,"name":"AMBALAMA LEISURE LOUNGE","address":"IHALA HANWELLA,HANWELLA","rooms":14.0,"district":"Colombo","aga_division":"Colombo","ps_mc_uc":"Colombo Divisional Secretariat","logitiute":80.095664,"latitude":6.912643,"orig_fid":-1},"geometry":{"x":80.095664000000056,"y":6.9126430000000596}},{"attributes":{"objectid":38,"name":"AYURVEDA WALAUWA","address":"WARAHENA,BENTOTA","rooms":20.0,"district":"Galle","aga_division":"Galle","ps_mc_uc":"Benthota Divisional Secretariat","logitiute":79.999999,"latitude":6.42,"orig_fid":-1},"geometry":{"x":79.999999000000059,"y":6.4200000000000728}},{"attributes":{"objectid":39,"name":"BARBERYN AYURVEDIC BEACH RESORT","address":"KAPPARATOTA,WELIGAMA","rooms":60.0,"district":"Matara","aga_division":"Weligama Pradeshiya Sabha","ps_mc_uc":"Weligama Divisional Secretariat","logitiute":80.407254,"latitude":5.959899,"orig_fid":-1},"geometry":{"x":80.40725400000008,"y":5.959899000000064}},{"attributes":{"objectid":40,"name":"BINVINO","address":"GAMPOLA WATTA, NARANVITA, GAMPOLA.","rooms":25.0,"district":"Kandy","aga_division":"Kandy","ps_mc_uc":"Doluwa Divisional Secretariat","logitiute":80.589352,"latitude":7.167381,"orig_fid":-1},"geometry":{"x":80.589352000000076,"y":7.1673810000000344}},{"attributes":{"objectid":41,"name":"CLUB PARADISE HOTEL","address":"NATIONAL HOLIDAY RESORT,BENTOTA","rooms":24.0,"district":"Galle","aga_division":"Bentota Pradeshiya Sabha","ps_mc_uc":"Benthota Divisional Secretariat","logitiute":79.9894613,"latitude":6.4373579,"orig_fid":-1},"geometry":{"x":79.989461300000073,"y":6.4373579000000518}},{"attributes":{"objectid":42,"name":"HOTEL COUNTRY COMFORT","address":"32,POLICE STATION ROAD,ELLA","rooms":18.0,"district":"Badulla","aga_division":"Ella Pradeshiya Sabha","ps_mc_uc":"Ella Divisional Secretariat","logitiute":81.048373,"latitude":6.876185,"orig_fid":-1},"geometry":{"x":81.048373000000083,"y":6.8761850000000209}},{"attributes":{"objectid":43,"name":"DREAM BEACH HOTEL","address":"NO.509,GALLE ROAD AMBALANGODA","rooms":24.0,"district":"Galle","aga_division":"Galle","ps_mc_uc":"Ambalangoda Divisional Secretariat","logitiute":80.046462,"latitude":6.245428,"orig_fid":-1},"geometry":{"x":80.046462000000076,"y":6.2454280000000608}},{"attributes":{"objectid":44,"name":"HOTEL EVA LANKA","address":"HOTEL EVA LANKA,TANGALLE ROAD,TANGALLE.","rooms":29.0,"district":"Hambantota","aga_division":"Hambantota","ps_mc_uc":"Tangalle Divisional Secretariat","logitiute":80.762216,"latitude":6.002818,"orig_fid":-1},"geometry":{"x":80.76221600000008,"y":6.0028180000000475}},{"attributes":{"objectid":45,"name":"HOTEL EDEN GARDEN","address":"SIGIRIYA ROAD,INAMALUWA,DAMBULLA","rooms":36.0,"district":"Matale","aga_division":"Dambulla Pradeshiya Sabha","ps_mc_uc":"Dambulla Divisional Secretariat","logitiute":80.688691,"latitude":7.929571,"orig_fid":-1},"geometry":{"x":80.688691000000063,"y":7.9295710000000668}},{"attributes":{"objectid":46,"name":"ELLA JUNGLE RESORT","address":"UVA,KARANDAGOLLA,ELLA","rooms":22.0,"district":"Badulla","aga_division":"Badulla","ps_mc_uc":"Badulla Divisional Secretariat","logitiute":81.0715806,"latitude":6.8268869,"orig_fid":-1},"geometry":{"x":81.071580600000061,"y":6.8268869000000336}},{"attributes":{"objectid":47,"name":"GOLDEN STAR BEACH HOTEL","address":"NO.163,LEWIS PLACE,NEGOMBO","rooms":62.0,"district":"Gampaha","aga_division":"Negombo","ps_mc_uc":"Negombo Divisional Secretariat","logitiute":79.840343,"latitude":7.226821,"orig_fid":-1},"geometry":{"x":79.840343000000075,"y":7.2268210000000295}},{"attributes":{"objectid":48,"name":"HANTANE SHADOW RESORT","address":"SPRING HILL ESTATE,HEERASSAGALA,KANDY","rooms":11.0,"district":"Kandy","aga_division":"Kandy","ps_mc_uc":"Ganga Ihala Korale Divisional Secretariat","logitiute":80.632433,"latitude":7.261332,"orig_fid":-1},"geometry":{"x":80.632433000000049,"y":7.2613320000000385}},{"attributes":{"objectid":49,"name":"HELGAS FOLLY","address":"NO.70,RAJAPIHILLA MAWATHA,KANDY.","rooms":25.0,"district":"Kandy","aga_division":"Kandy","ps_mc_uc":"Ganga Ihala Korale Divisional Secretariat","logitiute":80.646196,"latitude":7.284489,"orig_fid":-1},"geometry":{"x":80.646196000000032,"y":7.2844890000000646}},{"attributes":{"objectid":50,"name":"BAY BEACH HOTEL","address":"KAPPARATOTA,WELIGAMA","rooms":60.0,"district":"Matara","aga_division":"Weligama Pradeshiya Sabha","ps_mc_uc":"Weligama Divisional Secretariat","logitiute":80.418936,"latitude":5.959292,"orig_fid":-1},"geometry":{"x":80.418936000000031,"y":5.9592920000000618}},{"attributes":{"objectid":51,"name":"HILL CLUB","address":"29,GRAND HOTEL ROAD,NUWARAELIYA","rooms":39.0,"district":"Nuwara Eliya","aga_division":"Nuwara Eliya","ps_mc_uc":"Nuwara Eliya Divisional Secretariat","logitiute":80.763416,"latitude":6.970311,"orig_fid":-1},"geometry":{"x":80.763416000000063,"y":6.9703110000000379}},{"attributes":{"objectid":52,"name":"POLONNARUWA HOLIDAY INN","address":"POLONNARUWA HOLIDAY INN, BENDIWEWA, POLONNARUWA","rooms":24.0,"district":"Polonnaruwa","aga_division":"Polonnaruwa","ps_mc_uc":"Polonnaruwa Divisional Secretariat","logitiute":80.988284,"latitude":7.959284,"orig_fid":-1},"geometry":{"x":80.988284000000078,"y":7.9592840000000251}},{"attributes":{"objectid":53,"name":"HOTEL CHANDRIKA","address":"KATARAGAMA ROAD, TISSAMAHARAMA","rooms":20.0,"district":"Hambantota","aga_division":"Hambantota","ps_mc_uc":"Hambantota Divisional Secretariat","logitiute":81.331018,"latitude":6.412938,"orig_fid":-1},"geometry":{"x":81.331018000000086,"y":6.4129380000000538}},{"attributes":{"objectid":54,"name":"HOTEL CHATHUMEDURA VILLAGE INN","address":"NO.258/1,IHALAYAGODA,YAGODA","rooms":22.0,"district":"Gampaha","aga_division":"Gampaha","ps_mc_uc":"Gampaha Divisional Secretariat","logitiute":80.000686,"latitude":7.053018,"orig_fid":-1},"geometry":{"x":80.00068600000003,"y":7.0530180000000655}},{"attributes":{"objectid":55,"name":"HOTEL HEMALEE","address":"POLONNARUWA ROAD,GIRITALE","rooms":16.0,"district":"Polonnaruwa","aga_division":"Hingurakgoda Pradeshiya Sabha","ps_mc_uc":"Hingurakgoda Divisional Secretariat","logitiute":80.926184,"latitude":7.995609,"orig_fid":-1},"geometry":{"x":80.926184000000035,"y":7.9956090000000586}},{"attributes":{"objectid":56,"name":"OLYMPUS PLAZA HOTEL","address":"NO.75,WELIMADA ROAD,HAPUTALE","rooms":30.0,"district":"Badulla","aga_division":"Haputale","ps_mc_uc":"Haputale Divisional Secretariat","logitiute":80.952255,"latitude":6.766203,"orig_fid":-1},"geometry":{"x":80.952255000000036,"y":6.7662030000000755}},{"attributes":{"objectid":57,"name":"INDURUWA BEACH RESORT","address":"GALLE ROAD,KAIKAWALA,INDURUWA","rooms":90.0,"district":"Galle","aga_division":"Galle","ps_mc_uc":"Galle Divisional Secretariat","logitiute":80.008537,"latitude":6.376688,"orig_fid":-1},"geometry":{"x":80.008537000000047,"y":6.3766880000000583}},{"attributes":{"objectid":58,"name":"INSIGHT","address":"NO.67,MATARA ROAD,AHANGAMA.","rooms":32.0,"district":"Galle","aga_division":"Habaraduwa","ps_mc_uc":"Habaraduwa Divisional Secretariat","logitiute":80.359938,"latitude":5.973159,"orig_fid":-1},"geometry":{"x":80.359938000000056,"y":5.9731590000000665}},{"attributes":{"objectid":59,"name":"KOSGODA BEACH RESORT","address":"P.O.BOX.1,NUPE,KOSGODA","rooms":50.0,"district":"Galle","aga_division":"Galle","ps_mc_uc":"Balapitiya Divisional Secretariat","logitiute":80.024891,"latitude":6.341,"orig_fid":-1},"geometry":{"x":80.024891000000082,"y":6.341000000000065}},{"attributes":{"objectid":60,"name":"LAYA LEISURE - KUKULEGANGA","address":"AUSKVALLY,MOLAKAWA","rooms":64.0,"district":"Kalutara","aga_division":"Kalutara Pradeshiya Sabha","ps_mc_uc":"Baduraliya","logitiute":80.233872,"latitude":6.582918,"orig_fid":-1},"geometry":{"x":80.233872000000076,"y":6.5829180000000633}},{"attributes":{"objectid":61,"name":"KUMUDU VALLEY RESORT","address":"THALDEKA ROAD,NAINAMADAMA","rooms":10.0,"district":"Puttalam","aga_division":"Wennappuwa Pradeshiya Sabha","ps_mc_uc":"Wennappuwa Divisional Secretariat","logitiute":79.840704,"latitude":7.305658,"orig_fid":-1},"geometry":{"x":79.840704000000073,"y":7.3056580000000508}},{"attributes":{"objectid":62,"name":"LANKA PRINCESS HOTEL","address":"KALUWAMODARA,BERUWELA","rooms":94.0,"district":"Kalutara","aga_division":"Beruwala Pradeshiya Sabha","ps_mc_uc":"Beruwala Divisional Secretariat","logitiute":79.989498,"latitude":6.443611,"orig_fid":-1},"geometry":{"x":79.989498000000083,"y":6.4436110000000326}},{"attributes":{"objectid":63,"name":"RICHRON BEACH HOTEL","address":"BEACH ROAD,MARAWILA","rooms":25.0,"district":"Puttalam","aga_division":"Nattandiya Pradeshiya Sabha","ps_mc_uc":"Nattandiya Divisional Secretariat","logitiute":79.81845,"latitude":7.40603,"orig_fid":-1},"geometry":{"x":79.818450000000041,"y":7.4060300000000439}},{"attributes":{"objectid":64,"name":"LAWRENCE HILL PARADISE","address":"47,WAULAGODA MIDDLE ROAD,HIKKADUWA","rooms":14.0,"district":"Galle","aga_division":"Hikkaduwa","ps_mc_uc":"Hikkaduwa Divisional Secretariat","logitiute":80.1012754,"latitude":6.1346957,"orig_fid":-1},"geometry":{"x":80.101275400000077,"y":6.1346957000000657}},{"attributes":{"objectid":65,"name":"NAVRO BEACH RESORT","address":"NO.40,BEACH ROAD,PANADURA","rooms":24.0,"district":"Kalutara","aga_division":"Panadura Pradeshiya Sabha","ps_mc_uc":"Panadura Divisional Secretariat","logitiute":79.902238,"latitude":6.713466,"orig_fid":-1},"geometry":{"x":79.902238000000068,"y":6.7134660000000395}},{"attributes":{"objectid":66,"name":"HERITANCE AYURVEDA MAHAGEDARA","address":"GALLE ROAD,MORAGALLE,BERUWALA","rooms":64.0,"district":"Kalutara","aga_division":"Beruwala Pradeshiya Sabha","ps_mc_uc":"Beruwala Divisional Secretariat","logitiute":79.985631,"latitude":6.446616,"orig_fid":-1},"geometry":{"x":79.985631000000069,"y":6.4466160000000627}},{"attributes":{"objectid":67,"name":"THE TAMARIND TREE","address":"NO 1, ADIAMBALAMA ESTATE, YATIYANA, MINUWANGODA.","rooms":57.0,"district":"Gampaha","aga_division":"Katunayake-Seeduwa","ps_mc_uc":"Katana Divisional Secretariat","logitiute":79.918624,"latitude":7.182871,"orig_fid":-1},"geometry":{"x":79.918624000000079,"y":7.1828710000000342}},{"attributes":{"objectid":68,"name":"SILVAS BEACH HOTEL","address":"NO.16,ETHUKALA,NEGOMBO","rooms":17.0,"district":"Gampaha","aga_division":"Negombo","ps_mc_uc":"Negombo Divisional Secretariat","logitiute":79.8365076,"latitude":7.2336371,"orig_fid":-1},"geometry":{"x":79.836507600000061,"y":7.2336371000000668}},{"attributes":{"objectid":69,"name":"STAR DUST BEACH HOTEL","address":"ARUGAMBAY,POTTUVIL","rooms":11.0,"district":"Ampara","aga_division":"Ampara","ps_mc_uc":"Pottuvil Divisional Secretariat","logitiute":81.831336,"latitude":6.850021,"orig_fid":-1},"geometry":{"x":81.831336000000078,"y":6.8500210000000266}},{"attributes":{"objectid":70,"name":"OASIS BEACH RESORT","address":"31,PORUTOTA ROAD,ETHUKALA,NEGOMBO","rooms":40.0,"district":"Gampaha","aga_division":"Katunayake-Seeduwa","ps_mc_uc":"Negombo Divisional Secretariat","logitiute":79.841527,"latitude":7.239711,"orig_fid":-1},"geometry":{"x":79.841527000000042,"y":7.2397110000000566}},{"attributes":{"objectid":71,"name":"98 ACRES RESORT","address":"UVA GREENLANDS ESTATE,NAMUNUKULA ROAD,ELLA","rooms":28.0,"district":"Badulla","aga_division":"Ella Pradeshiya Sabha","ps_mc_uc":"Ella Divisional Secretariat","logitiute":81.0602823,"latitude":6.8712053,"orig_fid":-1},"geometry":{"x":81.06028230000004,"y":6.8712053000000424}},{"attributes":{"objectid":72,"name":"OCEAN BEACH CLUB","address":"PATUWATHA,DODANDUWA,HIKADUWA","rooms":16.0,"district":"Galle","aga_division":"Hikkaduwa","ps_mc_uc":"Hikkaduwa Divisional Secretariat","logitiute":80.118766,"latitude":6.116199,"orig_fid":-1},"geometry":{"x":80.118766000000051,"y":6.1161990000000515}},{"attributes":{"objectid":73,"name":"ORIENT HOTEL","address":"NO.12,DHARMAPALA MAWATHA,BANDARAWELA","rooms":35.0,"district":"Badulla","aga_division":"Bandarawela Pradeshiya Sabha","ps_mc_uc":"Bandarawela Divisional Secretariat","logitiute":80.987658,"latitude":6.833521,"orig_fid":-1},"geometry":{"x":80.987658000000067,"y":6.8335210000000757}},{"attributes":{"objectid":74,"name":"AMAGI LAGOON RESORT AND SPA","address":"640/82,COLOMBO ROAD,KURANA,NEGAMBO","rooms":22.0,"district":"Gampaha","aga_division":"Negombo","ps_mc_uc":"Negombo Divisional Secretariat","logitiute":79.85484,"latitude":7.190497,"orig_fid":-1},"geometry":{"x":79.854840000000081,"y":7.1904970000000503}},{"attributes":{"objectid":75,"name":"THE RAINFOREST","address":"ENSELWATTE ESTATE, DENIYAYA.","rooms":16.0,"district":"Matara","aga_division":"Kotapola Pradeshiya Sabha","ps_mc_uc":"Kotapola Divisional Secretariat","logitiute":80.596512,"latitude":6.389513,"orig_fid":-1},"geometry":{"x":80.596512000000075,"y":6.3895130000000222}},{"attributes":{"objectid":76,"name":"KAMILI BEACH VILLA","address":"NO.531,FIRST STATION ROAD,WASKADUWA,KALUTARA","rooms":24.0,"district":"Kalutara","aga_division":"Kalutara Pradeshiya Sabha","ps_mc_uc":"Kalutara Divisional Secretariat","logitiute":79.940258,"latitude":6.629886,"orig_fid":-1},"geometry":{"x":79.940258000000085,"y":6.6298860000000559}},{"attributes":{"objectid":77,"name":"STAR LIGHT HOTEL","address":"GALLE ROAD,80615,TALPE","rooms":14.0,"district":"Galle","aga_division":"Habaraduwa","ps_mc_uc":"Habaraduwa Divisional Secretariat","logitiute":80.271503,"latitude":5.998994,"orig_fid":-1},"geometry":{"x":80.271503000000052,"y":5.9989940000000388}},{"attributes":{"objectid":78,"name":"RANDIYA HOTEL","address":"394/19A,MUDITHA MAWATHA,ANURADHAPURA","rooms":14.0,"district":"Anuradhapura","aga_division":"Anuradhapura","ps_mc_uc":"Anuradhapura East","logitiute":80.418003,"latitude":8.330308,"orig_fid":-1},"geometry":{"x":80.418003000000056,"y":8.3303080000000591}},{"attributes":{"objectid":79,"name":"P.T. GARDEN HOTEL","address":"NO.540A/4,SAMURDHI MAWATHA,WALGAMA,MALWANA","rooms":21.0,"district":"Gampaha","aga_division":"Biyagama Pradeshiya Sabha","ps_mc_uc":"Biyagama Divisional Secretariat","logitiute":80.005875,"latitude":6.963166,"orig_fid":-1},"geometry":{"x":80.00587500000006,"y":6.9631660000000579}},{"attributes":{"objectid":80,"name":"PEACOCK BEACH HOTEL LTD","address":"TISSA ROAD,HAMBANTOTA","rooms":111.0,"district":"Hambantota","aga_division":"Hambantota","ps_mc_uc":"Hambantota Divisional Secretariat","logitiute":81.131521,"latitude":6.133387,"orig_fid":-1},"geometry":{"x":81.131521000000077,"y":6.1333870000000275}},{"attributes":{"objectid":81,"name":"HOTEL PICTURESQUE","address":"NO:503,THEMBILIYANA ESTATE,DEHIOWITA","rooms":10.0,"district":"Kegalle","aga_division":"Dehiowita Pradeshiya Sabha","ps_mc_uc":"Dehiovita Divisional Secretariat","logitiute":80.242826,"latitude":6.965811,"orig_fid":-1},"geometry":{"x":80.242826000000036,"y":6.9658110000000306}},{"attributes":{"objectid":82,"name":"PRINCE HOTEL BANDARAWELA","address":"BADULLA ROAD,BINDUNUWEWA,BANDARAWELA","rooms":30.0,"district":"Badulla","aga_division":"Ella Pradeshiya Sabha","ps_mc_uc":"Ella Divisional Secretariat","logitiute":81.009061,"latitude":6.832354,"orig_fid":-1},"geometry":{"x":81.009061000000031,"y":6.8323540000000662}},{"attributes":{"objectid":83,"name":"QUEENS HOTEL","address":"NO:04,DALADA VEEDIYA,KANDY","rooms":67.0,"district":"Kandy","aga_division":"Kandy","ps_mc_uc":"Gagawata","logitiute":80.638068,"latitude":7.293287,"orig_fid":-1},"geometry":{"x":80.638068000000032,"y":7.2932870000000207}},{"attributes":{"objectid":84,"name":"RAMADA KATUNAYAKE","address":"842,NEGOMBO ROAD,SEEDUWA","rooms":56.0,"district":"Gampaha","aga_division":"Katana Pradeshiya Sabha","ps_mc_uc":"Katana Divisional Secretariat","logitiute":79.881486,"latitude":7.111464,"orig_fid":-1},"geometry":{"x":79.881486000000052,"y":7.1114640000000691}},{"attributes":{"objectid":85,"name":"PALM GROOVE HOLIDAY INN","address":"ARUGAMBAY,POTUVIL","rooms":23.0,"district":"Ampara","aga_division":"Ampara","ps_mc_uc":"Pottuvil Divisional Secretariat","logitiute":81.828488,"latitude":6.837743,"orig_fid":-1},"geometry":{"x":81.82848800000005,"y":6.8377430000000459}},{"attributes":{"objectid":86,"name":"PALM VILLAGE HOTEL","address":"262,OLD COLOMBO RD,USWETAKEIYAWA","rooms":50.0,"district":"Gampaha","aga_division":"Wattala Pradeshiya Sabha","ps_mc_uc":"Wattala Divisional Secretariat","logitiute":79.860648,"latitude":7.034292,"orig_fid":-1},"geometry":{"x":79.860648000000083,"y":7.0342920000000504}},{"attributes":{"objectid":87,"name":"HOTEL RANATHISARA","address":"NO:51,KANDY RD,NITTAMBUWA","rooms":12.0,"district":"Gampaha","aga_division":"Attanagalla Pradeshiya Sabha","ps_mc_uc":"Attanagalla Divisional Secretariat","logitiute":80.096877,"latitude":7.14695,"orig_fid":-1},"geometry":{"x":80.096877000000063,"y":7.1469500000000608}},{"attributes":{"objectid":88,"name":"HOTEL SUDU ARALIYA","address":"NEWTOWN,POLONNARUWA","rooms":104.0,"district":"Polonnaruwa","aga_division":"Polonnaruwa","ps_mc_uc":"Thamankaduwa Divisional Secretariat","logitiute":80.993733,"latitude":7.923266,"orig_fid":-1},"geometry":{"x":80.993733000000077,"y":7.9232660000000692}},{"attributes":{"objectid":89,"name":"HOTEL SUNSET BEACH","address":"NO.5, CARRON PLACE, LEWIS ROAD,NEGOMBO.","rooms":35.0,"district":"Gampaha","aga_division":"Negombo","ps_mc_uc":"Negombo Divisional Secretariat","logitiute":79.839776,"latitude":7.225328,"orig_fid":-1},"geometry":{"x":79.839776000000029,"y":7.2253280000000473}},{"attributes":{"objectid":90,"name":"HOTEL SUISSE","address":"NO:30,SANGARAJA MAWATHA,KANDY","rooms":90.0,"district":"Kandy","aga_division":"Kandy","ps_mc_uc":"Gagawata","logitiute":80.642924,"latitude":7.288387,"orig_fid":-1},"geometry":{"x":80.64292400000005,"y":7.288387000000057}},{"attributes":{"objectid":91,"name":"TALALLA RETREAT CENTRE","address":"SAMPAYA HOUSE, TALALLA SOUTH, GANDARA.","rooms":32.0,"district":"Matara","aga_division":"Matara","ps_mc_uc":"Matara Divisional Secretariat","logitiute":80.620954,"latitude":5.943955,"orig_fid":-1},"geometry":{"x":80.62095400000004,"y":5.9439550000000736}},{"attributes":{"objectid":92,"name":"SERENE PAVILIONS","address":"NO20,UPALI MAWATHA,WADDUWA","rooms":15.0,"district":"Kalutara","aga_division":"Kalutara Pradeshiya Sabha","ps_mc_uc":"Panadura Divisional Secretariat","logitiute":79.922221,"latitude":6.671541,"orig_fid":-1},"geometry":{"x":79.922221000000036,"y":6.6715410000000475}},{"attributes":{"objectid":93,"name":"AVENRA BEACH HOTEL","address":"NO 714, NARIGAMA HIKKADUWA","rooms":62.0,"district":"Galle","aga_division":"Hikkaduwa","ps_mc_uc":"Hikkaduwa Divisional Secretariat","logitiute":80.111157,"latitude":6.123829,"orig_fid":-1},"geometry":{"x":80.111157000000048,"y":6.1238290000000575}},{"attributes":{"objectid":94,"name":"THE PRIVILEGE","address":"260,SAMANTHARA ROAD,MOLLIGODA,WADDUWA.","rooms":25.0,"district":"Kalutara","aga_division":"Panadura Pradeshiya Sabha","ps_mc_uc":"Panadura Divisional Secretariat","logitiute":79.931298,"latitude":6.653508,"orig_fid":-1},"geometry":{"x":79.931298000000083,"y":6.6535080000000448}},{"attributes":{"objectid":95,"name":"SEA GARDEN HOTEL","address":"ETHUKALA,NEGOMBO","rooms":27.0,"district":"Gampaha","aga_division":"Gampaha","ps_mc_uc":"Negombo Divisional Secretariat","logitiute":79.857376,"latitude":7.265322,"orig_fid":-1},"geometry":{"x":79.857376000000045,"y":7.265322000000026}},{"attributes":{"objectid":96,"name":"THE ROCK","address":"60,UNIQUE VIEW RD,NUWARAELIYA","rooms":10.0,"district":"Nuwara Eliya","aga_division":"Nuwara Eliya","ps_mc_uc":"Nuwara Eliya Divisional Secretariat","logitiute":80.76234,"latitude":6.963454,"orig_fid":-1},"geometry":{"x":80.762340000000052,"y":6.9634540000000698}},{"attributes":{"objectid":97,"name":"SARASA HOTEL","address":"937 KANDY ROAD,WEDAMULLA,KELANIYA","rooms":19.0,"district":"Gampaha","aga_division":"Gampaha","ps_mc_uc":"Kelaniya Divisional Secretariat","logitiute":79.904795,"latitude":6.968135,"orig_fid":-1},"geometry":{"x":79.904795000000036,"y":6.9681350000000748}},{"attributes":{"objectid":98,"name":"SANMALI BEACH HOTEL","address":"BEACH ROAD,MARAWILA","rooms":20.0,"district":"Puttalam","aga_division":"Puttalam Pradeshiya Sabha","ps_mc_uc":"Mahawa Divisional Secretariat","logitiute":79.815459,"latitude":7.41773,"orig_fid":-1},"geometry":{"x":79.815459000000033,"y":7.4177300000000628}},{"attributes":{"objectid":99,"name":"ROBINSON HOTEL","address":"82,TISSA ROAD,KATHARAGAMA","rooms":19.0,"district":"Moneragala","aga_division":"Hambantota","ps_mc_uc":"Katharagama Divisional Secretariat","logitiute":81.329274,"latitude":6.409072,"orig_fid":-1},"geometry":{"x":81.329274000000055,"y":6.4090720000000374}},{"attributes":{"objectid":100,"name":"RENUKA CITY HOTEL","address":"326,GALLE ROAD,COLOMBO 3","rooms":40.0,"district":"Colombo","aga_division":"Colombo","ps_mc_uc":"Colombo Divisional Secretariat","logitiute":79.850427,"latitude":6.908534,"orig_fid":-1},"geometry":{"x":79.850427000000082,"y":6.9085340000000315}},{"attributes":{"objectid":101,"name":"THE SWISS RESIDENCE","address":"NO:23,BAHIRAWAKANDA,KANDY","rooms":40.0,"district":"Kandy","aga_division":"Kandy","ps_mc_uc":"Gagawata","logitiute":80.630297,"latitude":7.297024,"orig_fid":-1},"geometry":{"x":80.630297000000041,"y":7.2970240000000217}},{"attributes":{"objectid":102,"name":"VILLA RANMENIKA","address":"GALLE ROAD, AHUNGALLA.","rooms":14.0,"district":"Galle","aga_division":"Galle","ps_mc_uc":"Balapitiya Divisional Secretariat","logitiute":80.034545,"latitude":6.308305,"orig_fid":-1},"geometry":{"x":80.034545000000037,"y":6.3083050000000753}},{"attributes":{"objectid":103,"name":"MICHELLE BOUTIQUE HOTEL","address":"432,GALLE ROAD,BALAPITIYA","rooms":10.0,"district":"Galle","aga_division":"Galle","ps_mc_uc":"Galle Divisional Secretariat","logitiute":80.036511,"latitude":6.263385,"orig_fid":-1},"geometry":{"x":80.036511000000075,"y":6.263385000000028}},{"attributes":{"objectid":104,"name":"TREE OF LIFE","address":"YAHALATENNA,BARIGAMA,WERELLAGAMA,KANDY.","rooms":43.0,"district":"Kandy","aga_division":"Kandy","ps_mc_uc":"Harispattuwa Divisional Secretariat","logitiute":80.576826,"latitude":7.319187,"orig_fid":-1},"geometry":{"x":80.57682600000004,"y":7.3191870000000563}},{"attributes":{"objectid":105,"name":"CATAMARAN BEACH HOTEL","address":"NO: 209, LEWIS PLACE, NEGOMBO","rooms":46.0,"district":"Gampaha","aga_division":"Jaffna","ps_mc_uc":"Negombo Divisional Secretariat","logitiute":79.84064,"latitude":7.227908,"orig_fid":-1},"geometry":{"x":79.840640000000064,"y":7.2279080000000704}},{"attributes":{"objectid":106,"name":"MADULKELLE TEA & ECO LODGE","address":"RICHLAND ROAD, MADULKELLE.","rooms":11.0,"district":"Kandy","aga_division":"Kandy","ps_mc_uc":"Kandy Divisional Secretariat","logitiute":80.723882,"latitude":7.393303,"orig_fid":-1},"geometry":{"x":80.72388200000006,"y":7.3933030000000599}},{"attributes":{"objectid":107,"name":"EARLS REEF BERUWALA","address":"NO. 91/22,MARADANA ROAD,MORAGALLA,BERUWALA.","rooms":54.0,"district":"Kalutara","aga_division":"Beruwala Pradeshiya Sabha","ps_mc_uc":"Beruwala Divisional Secretariat","logitiute":79.977927,"latitude":6.453929,"orig_fid":-1},"geometry":{"x":79.977927000000079,"y":6.4539290000000733}},{"attributes":{"objectid":108,"name":"HOTEL GOODWOOD PLAZA","address":"CANADA FRIENDSHIP ROAD,KATUNAYAKE.","rooms":32.0,"district":"Gampaha","aga_division":"Katana Pradeshiya Sabha","ps_mc_uc":"Katana Divisional Secretariat","logitiute":79.881579,"latitude":7.16576,"orig_fid":-1},"geometry":{"x":79.881579000000045,"y":7.1657600000000343}},{"attributes":{"objectid":109,"name":"UGA BAY RESORT & SPA","address":"COCONUT BOARD ROAD,KALKUDAH,PASSIKUDAH.","rooms":48.0,"district":"Batticaloa","aga_division":"Kalkudha","ps_mc_uc":"Valaichchenai Divisional Secretariat","logitiute":81.5593553,"latitude":7.9267033,"orig_fid":-1},"geometry":{"x":81.55935530000005,"y":7.9267033000000424}},{"attributes":{"objectid":110,"name":"SAUNTER PARADISE HOTEL","address":"TRINCOMALEE ROAD, AWDANGAWA, KIMBISSA, HABARANA","rooms":10.0,"district":"Matale","aga_division":"Dambulla Pradeshiya Sabha","ps_mc_uc":"Dambulla Divisional Secretariat","logitiute":80.724123,"latitude":7.992861,"orig_fid":-1},"geometry":{"x":80.724123000000077,"y":7.9928610000000617}},{"attributes":{"objectid":111,"name":"OKRIN HOTEL","address":"NO 110,DETAGAMUWA,KATHARAGAMA","rooms":16.0,"district":"Moneragala","aga_division":"Katharagama","ps_mc_uc":"Katharagama Divisional Secretariat","logitiute":81.324962,"latitude":6.400263,"orig_fid":-1},"geometry":{"x":81.324962000000085,"y":6.4002630000000522}},{"attributes":{"objectid":112,"name":"JAFFNA HERITAGE HOTEL","address":"NO 195,TEMPLE ROAD,NALLUR,JAFFNA","rooms":10.0,"district":"Jaffna","aga_division":"Jaffna","ps_mc_uc":"Jaffna Divisional Secretariat","logitiute":80.028005,"latitude":9.670882,"orig_fid":-1},"geometry":{"x":80.028005000000064,"y":9.6708820000000628}},{"attributes":{"objectid":113,"name":"BUDDIMA SAMUDRA","address":"PUTTALAM ROAD,NIKAWERATIYA","rooms":14.0,"district":"Kurunegala","aga_division":"Nikaweratiya Pradeshiya Sabha","ps_mc_uc":"Nikaweratiya Divisional Secretariat","logitiute":80.124388,"latitude":7.738671,"orig_fid":-1},"geometry":{"x":80.124388000000067,"y":7.7386710000000676}},{"attributes":{"objectid":114,"name":"AMAARA SKY HOTEL","address":"72/22, A. B. DAMUNUPOLA MAWATHA, KANDY.","rooms":12.0,"district":"Kandy","aga_division":"Kandy","ps_mc_uc":"Kandy Divisional Secretariat","logitiute":80.627342,"latitude":7.292234,"orig_fid":-1},"geometry":{"x":80.627342000000056,"y":7.2922340000000645}},{"attributes":{"objectid":115,"name":"HOTEL SOBANA","address":"KIRIIBBANWEWA, SEVANAGALA, EMBILIPITIYA.","rooms":17.0,"district":"Ratnapura","aga_division":"Thanamalwila Pradeshiya Sabha","ps_mc_uc":"Sevanagala Divisional Secretariat","logitiute":80.964044,"latitude":6.384522,"orig_fid":-1},"geometry":{"x":80.964044000000058,"y":6.3845220000000609}},{"attributes":{"objectid":116,"name":"FRESCO WATER VILLA","address":"FRESCO WATER VILLA (PVT) LTD,SIGIRIYA ROAD,KIMBISSA","rooms":36.0,"district":"Matale","aga_division":"Dambulla Pradeshiya Sabha","ps_mc_uc":"Dambulla Divisional Secretariat","logitiute":80.735044,"latitude":7.945932,"orig_fid":-1},"geometry":{"x":80.735044000000073,"y":7.9459320000000275}},{"attributes":{"objectid":117,"name":"JUNGLE BEACH RESORT","address":"27TH KM POST, PULMUDEI ROAD, KUCHCHAVELI, TRINCOMALEE","rooms":48.0,"district":"Trincomalee","aga_division":"Kuchchaveli","ps_mc_uc":"Kuchchaveli Divisional Secretariat","logitiute":81.135534,"latitude":8.771857,"orig_fid":-1},"geometry":{"x":81.135534000000064,"y":8.7718570000000682}},{"attributes":{"objectid":118,"name":"AMAYA BEACH PASSIKUDAH","address":"NATIONAL HOLIDAY RESORT, PASSIKUDAH, KALKUDAH","rooms":126.0,"district":"Batticaloa","aga_division":"Kalkudha","ps_mc_uc":"Koralai Pattu Divisional Secretariat","logitiute":81.569581,"latitude":7.925952,"orig_fid":-1},"geometry":{"x":81.569581000000085,"y":7.9259520000000521}},{"attributes":{"objectid":119,"name":"SUBHAS HOTEL","address":"49, VICTORIA ROAD, JAFFNA","rooms":11.0,"district":"Jaffna","aga_division":"Jaffna","ps_mc_uc":"Jaffna Divisional Secretariat","logitiute":80.016663,"latitude":9.66635,"orig_fid":-1},"geometry":{"x":80.016663000000051,"y":9.6663500000000226}},{"attributes":{"objectid":120,"name":"HOTEL J","address":"331/1, LEWIS PLACE, NEGOMBO.","rooms":35.0,"district":"Gampaha","aga_division":"Negombo","ps_mc_uc":"Negombo Divisional Secretariat","logitiute":79.841109,"latitude":7.232976,"orig_fid":-1},"geometry":{"x":79.841109000000074,"y":7.2329760000000647}},{"attributes":{"objectid":121,"name":"SHELL COAST RESORT PVT LTD","address":"UVARY,PESALAI,MANNAR","rooms":11.0,"district":"Mannar","aga_division":"Jaffna","ps_mc_uc":"Jaffna Divisional Secretariat","logitiute":79.824493,"latitude":9.028711,"orig_fid":-1},"geometry":{"x":79.824493000000075,"y":9.0287110000000439}},{"attributes":{"objectid":122,"name":"THAPROBAN PAVILION RESORT & SPA","address":"YADDEHIMULLA, UNAWATUNA.","rooms":16.0,"district":"Galle","aga_division":"Habaraduwa","ps_mc_uc":"Habaraduwa Divisional Secretariat","logitiute":80.240417,"latitude":6.009533,"orig_fid":-1},"geometry":{"x":80.240417000000036,"y":6.0095330000000331}},{"attributes":{"objectid":123,"name":"CAMELLIA RESORT & SPA","address":"AUDANGAWA, KIMBISSA, SIGIRIYA.","rooms":60.0,"district":"Matale","aga_division":"Dambulla Pradeshiya Sabha","ps_mc_uc":"Dambulla Divisional Secretariat","logitiute":80.7348373,"latitude":7.9952951,"orig_fid":-1},"geometry":{"x":80.734837300000038,"y":7.9952951000000212}},{"attributes":{"objectid":124,"name":"DUTCH BAY RESORTS","address":"DUTCH BAY ISLAND,KALPITIYA","rooms":17.0,"district":"Puttalam","aga_division":"Kalpitiya Pradeshiya Sabha","ps_mc_uc":"Kalpitiya Divisional Secretariat","logitiute":79.75646,"latitude":8.274467,"orig_fid":-1},"geometry":{"x":79.756460000000061,"y":8.2744670000000724}},{"attributes":{"objectid":125,"name":"ANILANA-EASTERN DEVELOPMENT ENTERPRISES","address":"NO.14,TOURISM DEVELOPMENT ZONE,PASSIKUDHA,KALKUDHA.","rooms":47.0,"district":"Batticaloa","aga_division":"Batticaloa","ps_mc_uc":"Batticaloa Divisional Secretariat","logitiute":81.574945,"latitude":7.925871,"orig_fid":-1},"geometry":{"x":81.574945000000071,"y":7.9258710000000292}},{"attributes":{"objectid":126,"name":"MAGAMPURA ECO VILLAGE RESORT","address":"KAWANTISSAPURA,KATARAGAMA ROAD,TISSAMAHARAMAYA","rooms":18.0,"district":"Hambantota","aga_division":"Thissamaharama","ps_mc_uc":"Thissamaharama Divisional Secretariat","logitiute":81.322712,"latitude":6.360924,"orig_fid":-1},"geometry":{"x":81.322712000000081,"y":6.3609240000000682}},{"attributes":{"objectid":127,"name":"GARTONS CAPE","address":"DENUWALA,AHANGAMA.","rooms":19.0,"district":"Galle","aga_division":"Weligama Pradeshiya Sabha","ps_mc_uc":"Weligama Divisional Secretariat","logitiute":80.382426,"latitude":5.965604,"orig_fid":-1},"geometry":{"x":80.382426000000066,"y":5.9656040000000417}},{"attributes":{"objectid":128,"name":"OAK RAY TEA BUSH","address":"PAHALA KADA VEEDIYA,RAMBODA","rooms":1.0,"district":"Nuwara Eliya","aga_division":"Nuwara Eliya","ps_mc_uc":"Nuwara Eliya Divisional Secretariat","logitiute":80.695354,"latitude":7.057137,"orig_fid":-1},"geometry":{"x":80.695354000000066,"y":7.0571370000000684}},{"attributes":{"objectid":129,"name":"HOTEL EAST LAGOON","address":"MUNAI LANE,UPPODAI LAKE ROAD,SINNA UPPODAI,BATICALOA","rooms":45.0,"district":"Batticaloa","aga_division":"Batticaloa","ps_mc_uc":"Batticaloa Divisional Secretariat","logitiute":81.704865,"latitude":7.728728,"orig_fid":-1},"geometry":{"x":81.704865000000041,"y":7.7287280000000464}},{"attributes":{"objectid":130,"name":"PEARL CITY HOTEL","address":"NO.17,BAUDDHALOKA MAWATHA,COLOMBO 04.","rooms":69.0,"district":"Colombo","aga_division":"Colombo","ps_mc_uc":"Colombo Divisional Secretariat","logitiute":79.855167,"latitude":6.895633,"orig_fid":-1},"geometry":{"x":79.855167000000051,"y":6.8956330000000321}},{"attributes":{"objectid":131,"name":"REEFS EDGE RESORTS","address":"NO 300,277/4,USWETAKEIYAWA","rooms":23.0,"district":"Gampaha","aga_division":"Wattala Pradeshiya Sabha","ps_mc_uc":"Wattala Divisional Secretariat","logitiute":79.856054,"latitude":7.051974,"orig_fid":-1},"geometry":{"x":79.856054000000086,"y":7.0519740000000297}},{"attributes":{"objectid":132,"name":"ANANTAYA RESORT & SPA","address":"KAURKUPONE, BANGADENIYA,CHILAW.","rooms":74.0,"district":"Puttalam","aga_division":"AKKARAIPATTU","ps_mc_uc":"Akkaraipattu Divisional Secretariat","logitiute":79.826082,"latitude":7.634506,"orig_fid":-1},"geometry":{"x":79.826082000000042,"y":7.6345060000000444}},{"attributes":{"objectid":133,"name":"MELHEIM RESORT","address":"LOWER BLACKWOOD,BERAGALA,HAPUTALE","rooms":14.0,"district":"Badulla","aga_division":"Haldummulla Pradeshiya Sabha","ps_mc_uc":"Haldummulla Divisional Secretariat","logitiute":80.918766,"latitude":6.759146,"orig_fid":-1},"geometry":{"x":80.918766000000062,"y":6.7591460000000438}},{"attributes":{"objectid":134,"name":"SHINAGAWA BEACH","address":"NO 30,OLD GURU NIWASA ROAD,BALAPITIYA","rooms":26.0,"district":"Galle","aga_division":"balapitiya","ps_mc_uc":"Balapitiya Divisional Secretariat","logitiute":80.038594,"latitude":6.291066,"orig_fid":-1},"geometry":{"x":80.038594000000046,"y":6.2910660000000576}},{"attributes":{"objectid":135,"name":"ALIYA RESORT & SPA","address":"AUDANGAWA,KIMBISSA,SIGIRIYA.","rooms":96.0,"district":"Matale","aga_division":"Dambulla Pradeshiya Sabha","ps_mc_uc":"Dambulla Divisional Secretariat","logitiute":80.7343613,"latitude":7.9991963,"orig_fid":-1},"geometry":{"x":80.734361300000046,"y":7.999196300000051}},{"attributes":{"objectid":136,"name":"RAJARATA HOTEL","address":"ROWING CLUB ROAD,ANURADHAPURA.","rooms":30.0,"district":"Anuradhapura","aga_division":"Anuradhapura","ps_mc_uc":"Anuradhapura East","logitiute":80.418972,"latitude":8.330589,"orig_fid":-1},"geometry":{"x":80.418972000000053,"y":8.3305890000000318}},{"attributes":{"objectid":137,"name":"PASSI BAY HOTEL","address":"103,PASSIKUDAH ROAD,PASSIKUDAH,VALACHCHENA.","rooms":22.0,"district":"Batticaloa","aga_division":"Batticaloa","ps_mc_uc":"Koralai Pattu Divisional Secretariat","logitiute":81.568689,"latitude":7.921889,"orig_fid":-1},"geometry":{"x":81.568689000000063,"y":7.9218890000000215}},{"attributes":{"objectid":138,"name":"THE LONG BEACH RESORT & SPA","address":"KOGGALA,HABARADUWA,SRI LANKA.","rooms":194.0,"district":"Galle","aga_division":"Habaraduwa","ps_mc_uc":"Habaraduwa Divisional Secretariat","logitiute":80.319034,"latitude":5.990802,"orig_fid":-1},"geometry":{"x":80.319034000000045,"y":5.9908020000000306}},{"attributes":{"objectid":139,"name":"AVASTA RESORT AND SPA","address":"NO 92,NIWANTHAKA CHETHIYA ROAD,ANURADHAPURAYA","rooms":13.0,"district":"Anuradhapura","aga_division":"Anuradhapura","ps_mc_uc":"Anuradhapura East","logitiute":80.416853,"latitude":8.3523,"orig_fid":-1},"geometry":{"x":80.41685300000006,"y":8.3523000000000707}},{"attributes":{"objectid":140,"name":"PLEDGE 3","address":"NO:03,ETHTHUKALA,NEGOMBO","rooms":14.0,"district":"Gampaha","aga_division":"Gampaha","ps_mc_uc":"Gampaha Divisional Secretariat","logitiute":79.84182656,"latitude":7.2362224,"orig_fid":-1},"geometry":{"x":79.841826558000037,"y":7.2362224010000205}},{"attributes":{"objectid":141,"name":"UTMT RESORT","address":"TANGALLE ROAD,BATTHEEGAMA WEST,DIKWELLA","rooms":26.0,"district":"Matara","aga_division":"Dickwella","ps_mc_uc":"Dickwella Divisional Secretariat","logitiute":80.6728793,"latitude":5.9603013,"orig_fid":-1},"geometry":{"x":80.672879300000034,"y":5.960301300000026}},{"attributes":{"objectid":142,"name":"SURIYA LUXURY RESORTS","address":"KAMMALA,WAIKKAL.","rooms":56.0,"district":"Puttalam","aga_division":"Wennappuwa Pradeshiya Sabha","ps_mc_uc":"Wennappuwa Divisional Secretariat","logitiute":79.839145,"latitude":7.300199,"orig_fid":-1},"geometry":{"x":79.83914500000003,"y":7.3001990000000205}},{"attributes":{"objectid":143,"name":"CITRUS WASKADUWA","address":"427,SAMANTHARA ROAD,KUDA WASKADUWA,WASKADUWA","rooms":150.0,"district":"Kalutara","aga_division":"Kalutara Pradeshiya Sabha","ps_mc_uc":"Kalutara Divisional Secretariat","logitiute":79.8655563,"latitude":6.9101903,"orig_fid":-1},"geometry":{"x":79.865556300000037,"y":6.9101903000000675}},{"attributes":{"objectid":144,"name":"THOMPUKANDAM VILLAGE RESORT","address":"NO 72,ADDAPALAM,NINTHAVUR.","rooms":10.0,"district":"Ampara","aga_division":"Ampara","ps_mc_uc":"Ninthavur Divisional Secretariat","logitiute":81.8561523,"latitude":7.3213613,"orig_fid":-1},"geometry":{"x":81.856152300000076,"y":7.321361300000035}},{"attributes":{"objectid":145,"name":"LIFE AYURVEDA RESORT","address":"NO:18,RATNAYAKE PLACE,THALPITIYA SOUTH,WADDUWA","rooms":19.0,"district":"Kalutara","aga_division":"Kalutara Pradeshiya Sabha","ps_mc_uc":"Kalutara Divisional Secretariat","logitiute":79.921694,"latitude":6.673982,"orig_fid":-1},"geometry":{"x":79.921694000000059,"y":6.6739820000000236}},{"attributes":{"objectid":146,"name":"ARALIYA GREEN HILLS HOTEL","address":"NO:10,GLEN FALL ROAD,NUWRA ELIYA","rooms":107.0,"district":"Nuwara Eliya","aga_division":"Nuwara Eliya","ps_mc_uc":"Nuwara Eliya Divisional Secretariat","logitiute":80.764481,"latitude":6.967075,"orig_fid":-1},"geometry":{"x":80.764481000000046,"y":6.9670750000000226}},{"attributes":{"objectid":147,"name":"WHISPERING PALMS HOTEL","address":"GALLE ROAD,YALEGAMA,INDURUWA","rooms":30.0,"district":"Galle","aga_division":"Galle","ps_mc_uc":"Galle Divisional Secretariat","logitiute":80.009107,"latitude":6.384061,"orig_fid":-1},"geometry":{"x":80.009107000000085,"y":6.3840610000000311}},{"attributes":{"objectid":148,"name":"MARINA PASSIKUDAH","address":"NO: 07, COCONUT BOARD ROAD, KALKUDAH, PASSIKUDAH","rooms":26.0,"district":"Batticaloa","aga_division":"Kalkudha","ps_mc_uc":"Koralai Pattu Divisional Secretariat","logitiute":81.56346,"latitude":7.92469,"orig_fid":-1},"geometry":{"x":81.563460000000077,"y":7.9246900000000551}},{"attributes":{"objectid":149,"name":"ANILANA HOTEL AND PROPERTIES LTD","address":"NO.1508, WARD NO.04, IRAKKANDI, NILAVELI","rooms":54.0,"district":"Trincomalee","aga_division":"Kuchchaveli","ps_mc_uc":"Kuchchaveli Divisional Secretariat","logitiute":81.186779,"latitude":8.7071,"orig_fid":-1},"geometry":{"x":81.186779000000058,"y":8.7071000000000254}},{"attributes":{"objectid":150,"name":"THAULLE RESORT","address":"NO.35 MAHADEIRA,YODAKANDIYA,TISSAMAHARAMA","rooms":28.0,"district":"Hambantota","aga_division":"Thissamaharama","ps_mc_uc":"Hambantota Divisional Secretariat","logitiute":81.313441,"latitude":6.263005,"orig_fid":-1},"geometry":{"x":81.313441000000068,"y":6.263005000000021}},{"attributes":{"objectid":151,"name":"DIVYAA LAGOON","address":"DUTCH BAY,KANDAKULIYA,KALPITIYA","rooms":14.0,"district":"Puttalam","aga_division":"Kalpitiya Pradeshiya Sabha","ps_mc_uc":"Kalpitiya Divisional Secretariat","logitiute":79.736306,"latitude":8.228088,"orig_fid":-1},"geometry":{"x":79.73630600000007,"y":8.2280880000000707}},{"attributes":{"objectid":152,"name":"THE COVANRO","address":"NO.353.AIRPORT ROAD,NAIWALA,VEYANGODA.","rooms":39.0,"district":"Gampaha","aga_division":"Minuwangoda Pradeshiya Sabha","ps_mc_uc":"Minuwangoda Divisional Secretariat","logitiute":80.036423,"latitude":7.158602,"orig_fid":-1},"geometry":{"x":80.03642300000007,"y":7.1586020000000303}},{"attributes":{"objectid":153,"name":"CAPE WELIGAMA","address":"331, KAPPARATHOTA ROAD, KALUKANDA, WELIGAMA.","rooms":40.0,"district":"Matara","aga_division":"Weligama Pradeshiya Sabha","ps_mc_uc":"Weligama Divisional Secretariat","logitiute":80.411151,"latitude":5.959346,"orig_fid":-1},"geometry":{"x":80.411151000000075,"y":5.9593460000000391}},{"attributes":{"objectid":154,"name":"CALAMANSI COVE BY JETWING","address":"62, WIJERAMA ROAD, BRAHAKMANAWATTE, BALAPITIYA","rooms":14.0,"district":"Galle","aga_division":"balapitiya","ps_mc_uc":"Balapitiya Divisional Secretariat","logitiute":80.036088,"latitude":6.285364,"orig_fid":-1},"geometry":{"x":80.036088000000063,"y":6.2853640000000723}},{"attributes":{"objectid":155,"name":"RESIDENCE BY UGA ESCAPES","address":"NO.20,PARK SYREET,COLOMBO 02","rooms":11.0,"district":"Colombo","aga_division":"Colombo","ps_mc_uc":"Colombo Divisional Secretariat","logitiute":79.858337,"latitude":6.917358,"orig_fid":-1},"geometry":{"x":79.858337000000063,"y":6.9173580000000356}},{"attributes":{"objectid":156,"name":"TAPROBANA RESORT WADDUWA","address":"NO.354/16, RATHNAYAKE ROAD, THALPITIYA,WADDUWA.","rooms":27.0,"district":"Kalutara","aga_division":"Panadura Pradeshiya Sabha","ps_mc_uc":"Panadura Divisional Secretariat","logitiute":79.92146,"latitude":6.676126,"orig_fid":-1},"geometry":{"x":79.921460000000081,"y":6.6761260000000675}},{"attributes":{"objectid":157,"name":"ROYAL RETREAT SIGIRIYA","address":"NO-110, T.B TENNAKOON MAWATHA KIBISSA SIGIRIYA","rooms":14.0,"district":"Matale","aga_division":"Dambulla Pradeshiya Sabha","ps_mc_uc":"Dambulla Divisional Secretariat","logitiute":80.7348,"latitude":7.948859,"orig_fid":-1},"geometry":{"x":80.734800000000064,"y":7.9488590000000272}},{"attributes":{"objectid":158,"name":"GALAVILLA BOUTIQUE HOTEL & SPA","address":"AGAWATTA ESTATE MORAGOLLA,THALATHUOYA KANDY","rooms":12.0,"district":"Kandy","aga_division":"Kandy","ps_mc_uc":"Pathahewaheta Divisional Secretariat","logitiute":80.695649,"latitude":7.220522,"orig_fid":-1},"geometry":{"x":80.69564900000006,"y":7.2205220000000736}},{"attributes":{"objectid":159,"name":"MUTHUMUNI AYURVEDA BEACH RESORT","address":"NO.80/24,BEACH SIDE,MORAGALLA,BERUWALA.","rooms":34.0,"district":"Kalutara","aga_division":"Beruwala Pradeshiya Sabha","ps_mc_uc":"Beruwala Divisional Secretariat","logitiute":79.983237,"latitude":6.448931,"orig_fid":-1},"geometry":{"x":79.983237000000031,"y":6.4489310000000728}},{"attributes":{"objectid":160,"name":"RUINS CHAAYA","address":"NEW TOWN ROAD,POLONNARUWA.","rooms":12.0,"district":"Polonnaruwa","aga_division":"Polonnaruwa","ps_mc_uc":"Thamankaduwa Divisional Secretariat","logitiute":81.004945,"latitude":7.927893,"orig_fid":-1},"geometry":{"x":81.004945000000077,"y":7.92789300000004}},{"attributes":{"objectid":161,"name":"W15 WELIGAMA","address":"506, NEW GALLE ROAD, PELHENA, WELIGAMA.","rooms":10.0,"district":"Matara","aga_division":"Weligama Pradeshiya Sabha","ps_mc_uc":"Weligama Divisional Secretariat","logitiute":80.437662,"latitude":5.973323,"orig_fid":-1},"geometry":{"x":80.437662000000046,"y":5.9733230000000503}},{"attributes":{"objectid":162,"name":"ANANTAMAA HOTEL","address":"NO.07(42),ALLES GARDEN,UPPUVELI,TRINCOMALEE","rooms":50.0,"district":"Trincomalee","aga_division":"Uppuveli Trinco Malee","ps_mc_uc":"Trincomalee Divisional Secretariat","logitiute":81.217883,"latitude":8.615049,"orig_fid":-1},"geometry":{"x":81.217883000000086,"y":8.6150490000000559}},{"attributes":{"objectid":163,"name":"THE STEUART BY CITRUS","address":"NO-45,JANADHIPATHI MAWATHA,COLOMBO-01","rooms":50.0,"district":"Colombo","aga_division":"Colombo","ps_mc_uc":"Colombo Divisional Secretariat","logitiute":79.843264,"latitude":6.934335,"orig_fid":-1},"geometry":{"x":79.843264000000033,"y":6.9343350000000328}},{"attributes":{"objectid":164,"name":"LAYA BEACH HOTEL","address":"NO.286/3,GALLE ROAD,THALPITIYA-NORTH WADDUWA.","rooms":28.0,"district":"Kalutara","aga_division":"Panadura Pradeshiya Sabha","ps_mc_uc":"Panadura Divisional Secretariat","logitiute":79.919552,"latitude":6.678863,"orig_fid":-1},"geometry":{"x":79.919552000000067,"y":6.6788630000000353}},{"attributes":{"objectid":165,"name":"GLORIA GRAND HOTEL","address":"YADDEHIMULLA ROAD,UNAWATUNA","rooms":20.0,"district":"Galle","aga_division":"Habaraduwa","ps_mc_uc":"Habaraduwa Divisional Secretariat","logitiute":80.248263,"latitude":6.011392,"orig_fid":-1},"geometry":{"x":80.248263000000065,"y":6.0113920000000576}},{"attributes":{"objectid":166,"name":"AMARANTHE BAY RESORTS & SPA","address":"NO.101,ALLES GARDEN ROAD,UPPUVELI,TRINCOMALEE","rooms":27.0,"district":"Trincomalee","aga_division":"Trincomalee","ps_mc_uc":"Trincomalee Divisional Secretariat","logitiute":81.215262,"latitude":8.618238,"orig_fid":-1},"geometry":{"x":81.215262000000052,"y":8.6182380000000762}},{"attributes":{"objectid":167,"name":"THE BEACH BOUTIQUE","address":"NO.510/2,BIMPANDURA,PAMUNUGAMA.","rooms":12.0,"district":"Gampaha","aga_division":"Wattala Pradeshiya Sabha","ps_mc_uc":"Wattala Divisional Secretariat","logitiute":79.849384,"latitude":7.078365,"orig_fid":-1},"geometry":{"x":79.849384000000043,"y":7.0783650000000762}},{"attributes":{"objectid":168,"name":"AMALOH BY JETWING","address":"NO.39/6,1ST CROSS ROAD,POLHENA,MATARA.","rooms":21.0,"district":"Matara","aga_division":"Matara","ps_mc_uc":"Matara Divisional Secretariat","logitiute":80.529536,"latitude":5.939338,"orig_fid":-1},"geometry":{"x":80.529536000000064,"y":5.9393380000000207}},{"attributes":{"objectid":169,"name":"TALAWAKELA REST HOUSE","address":"KOTMALE ROAD,TALAWAKELA","rooms":10.0,"district":"Nuwara Eliya","aga_division":"Talawa Pradeshiya Sabha","ps_mc_uc":"Nuwara Eliya Divisional Secretariat","logitiute":80.661498,"latitude":6.941417,"orig_fid":-1},"geometry":{"x":80.661498000000051,"y":6.9414170000000581}},{"attributes":{"objectid":170,"name":"AMAARA FOREST HOTEL","address":"NO:115,INDIGASWEWA,SIGIRIYA.","rooms":40.0,"district":"Matale","aga_division":"Dambulla Pradeshiya Sabha","ps_mc_uc":"Dambulla Divisional Secretariat","logitiute":80.747583,"latitude":8.000994,"orig_fid":-1},"geometry":{"x":80.747583000000077,"y":8.0009940000000483}},{"attributes":{"objectid":171,"name":"HOTEL ROCK FORT","address":"GURUKANDA WATTA-DALAWELLA,UNAWATUNA","rooms":18.0,"district":"Galle","aga_division":"Habaraduwa","ps_mc_uc":"Habaraduwa Divisional Secretariat","logitiute":80.256339,"latitude":6.003965,"orig_fid":-1},"geometry":{"x":80.256339000000082,"y":6.0039650000000506}},{"attributes":{"objectid":172,"name":"SOUTH LAKE RESORT","address":"KATHALUWA, AHANGAMA","rooms":24.0,"district":"Galle","aga_division":"Habaraduwa","ps_mc_uc":"Habaraduwa Divisional Secretariat","logitiute":80.336882,"latitude":5.983588,"orig_fid":-1},"geometry":{"x":80.33688200000006,"y":5.9835880000000543}},{"attributes":{"objectid":173,"name":"HOTEL TAMARIND TREE","address":"MAHASENPURA,TISSAMAHARAMAYA","rooms":20.0,"district":"Hambantota","aga_division":"Thissamaharama","ps_mc_uc":"Thissamaharama Divisional Secretariat","logitiute":81.296807,"latitude":6.292573,"orig_fid":-1},"geometry":{"x":81.296807000000058,"y":6.2925730000000613}},{"attributes":{"objectid":174,"name":"BLACKPOOL HOTEL","address":"MAHAGASTHOTA HILL CLIMB, BLACKPOOL, NUWARAELIYA","rooms":50.0,"district":"Nuwara Eliya","aga_division":"Nuwara Eliya","ps_mc_uc":"Nuwara Eliya Divisional Secretariat","logitiute":80.779097,"latitude":6.94233,"orig_fid":-1},"geometry":{"x":80.779097000000036,"y":6.9423300000000268}},{"attributes":{"objectid":175,"name":"JETWING KADURUKETHA","address":"WELLAWAYA","rooms":25.0,"district":"Moneragala","aga_division":"Wellawaya","ps_mc_uc":"Wellawaya Divisional Secretariat","logitiute":81.104838,"latitude":6.754837,"orig_fid":-1},"geometry":{"x":81.104838000000029,"y":6.7548370000000659}},{"attributes":{"objectid":176,"name":"JETWING JAFFNA","address":"NO:37,MAHATHMAGANDI ROAD,JAFFNA.","rooms":53.0,"district":"Jaffna","aga_division":"Jaffna","ps_mc_uc":"Jaffna Divisional Secretariat","logitiute":80.013588,"latitude":9.664915,"orig_fid":-1},"geometry":{"x":80.013588000000084,"y":9.6649150000000645}},{"attributes":{"objectid":177,"name":"ANI VILLAS","address":"KALUKATIYAWATTA,MALIYADDA,DICKWELLA","rooms":15.0,"district":"Matara","aga_division":"Dickwella","ps_mc_uc":"Dickwella Divisional Secretariat","logitiute":80.656847,"latitude":5.9571,"orig_fid":-1},"geometry":{"x":80.656847000000084,"y":5.9571000000000254}},{"attributes":{"objectid":178,"name":"ROCK SIDE BEACH RESORT","address":"GALLE ROAD, ATHURUWELLA, INDURUWA","rooms":18.0,"district":"Galle","aga_division":"Bentota Pradeshiya Sabha","ps_mc_uc":"Benthota Divisional Secretariat","logitiute":80.005415,"latitude":6.395497,"orig_fid":-1},"geometry":{"x":80.005415000000085,"y":6.3954970000000344}},{"attributes":{"objectid":179,"name":"CARDAMON HOTEL NILAVELI","address":"WARD 2, NILAVELI, TRINCOMALEE","rooms":22.0,"district":"Trincomalee","aga_division":"Kuchchaveli","ps_mc_uc":"Kuchchaveli Divisional Secretariat","logitiute":81.1990326,"latitude":8.6840867,"orig_fid":-1},"geometry":{"x":81.199032600000066,"y":8.684086700000023}},{"attributes":{"objectid":180,"name":"PASSI VILLAS PASSIKUDAH","address":"NO 12, LAND SIDE, KALKUDAH, PASSIKUDAH","rooms":50.0,"district":"Batticaloa","aga_division":"Kalkudha","ps_mc_uc":"Koralai Pattu Divisional Secretariat","logitiute":81.5705004,"latitude":7.9258409,"orig_fid":-1},"geometry":{"x":81.570500400000071,"y":7.9258409000000256}},{"attributes":{"objectid":181,"name":"VILLA THAWTHISA","address":"USWATHTHA IHALA, YADDEHIMULLA, UNAWATUNA","rooms":23.0,"district":"Galle","aga_division":"Habaraduwa","ps_mc_uc":"Habaraduwa Divisional Secretariat","logitiute":80.241116,"latitude":6.011171,"orig_fid":-1},"geometry":{"x":80.241116000000034,"y":6.0111710000000471}},{"attributes":{"objectid":182,"name":"BEACON BEACH NEGOMBO","address":"185, PORUTHOTA ROAD, NEGAMBO.","rooms":44.0,"district":"Gampaha","aga_division":"Negombo","ps_mc_uc":"Negombo Divisional Secretariat","logitiute":79.8421445,"latitude":7.2503138,"orig_fid":-1},"geometry":{"x":79.842144500000074,"y":7.2503138000000718}},{"attributes":{"objectid":183,"name":"PLATINUM-1","address":"NO 1, BAGATALLE ROAD, COLOMBO 03","rooms":40.0,"district":"Colombo","aga_division":"Colombo","ps_mc_uc":"Colombo Divisional Secretariat","logitiute":79.853385,"latitude":6.900651,"orig_fid":-1},"geometry":{"x":79.85338500000006,"y":6.9006510000000389}},{"attributes":{"objectid":184,"name":"CLUB WASKADUWA BEACH","address":"211, JAYANTHI MAWATHA, MAHA WASKADUWA NORTH, WASKADUWA","rooms":54.0,"district":"Kalutara","aga_division":"Kalutara","ps_mc_uc":"Kalutara Divisional Secretariat","logitiute":79.945675,"latitude":6.616287,"orig_fid":-1},"geometry":{"x":79.945675000000051,"y":6.6162870000000567}},{"attributes":{"objectid":185,"name":"ANANTARA KALUTARA RESORT","address":"ST. SEBASTIAN'S ROAD, KATUKURUNDA, KALUTARA","rooms":141.0,"district":"Kalutara","aga_division":"Kalutara Pradeshiya Sabha","ps_mc_uc":"Kalutara Divisional Secretariat","logitiute":79.9626948,"latitude":6.5659178,"orig_fid":-1},"geometry":{"x":79.962694800000065,"y":6.5659178000000225}},{"attributes":{"objectid":186,"name":"SIGIRIYA JUNGLES","address":"AUDANGAWA, KIBISSA, SIGIRIYA","rooms":60.0,"district":"Matale","aga_division":"Dambulla Pradeshiya Sabha","ps_mc_uc":"Dambulla Divisional Secretariat","logitiute":80.736974,"latitude":7.993996,"orig_fid":-1},"geometry":{"x":80.736974000000032,"y":7.9939960000000383}},{"attributes":{"objectid":187,"name":"KARUNAKARALA RESORT","address":"JESUNASARENU ROAD, THOPPUTHOTA, WAIKKALA","rooms":17.0,"district":"Puttalam","aga_division":"Wennappuwa Pradeshiya Sabha","ps_mc_uc":"Wennappuwa Divisional Secretariat","logitiute":79.859314,"latitude":7.2713071,"orig_fid":-1},"geometry":{"x":79.85931400000004,"y":7.2713071000000582}},{"attributes":{"objectid":188,"name":"ZMAX FAIRWAY COLOMBO","address":"NO 7, HOSPITAL STREET, COLOMBO 01","rooms":181.0,"district":"Colombo","aga_division":"Colombo","ps_mc_uc":"Colombo Divisional Secretariat","logitiute":79.8438746,"latitude":6.9340366,"orig_fid":-1},"geometry":{"x":79.843874600000049,"y":6.9340366000000699}},{"attributes":{"objectid":189,"name":"GRANDEEZA LUXURY HOTEL &BANQUETS","address":"772, COLOMBO ROAD, KURANA, NEGOMBO","rooms":40.0,"district":"Gampaha","aga_division":"Negombo","ps_mc_uc":"Negombo Divisional Secretariat","logitiute":79.8593549,"latitude":7.185642,"orig_fid":-1},"geometry":{"x":79.859354900000085,"y":7.1856420000000298}},{"attributes":{"objectid":190,"name":"AVENRA GANGARA HOTEL","address":"J.J. PINTO MAWATHA, NEW ROAD, WENNAPUWA","rooms":21.0,"district":"Puttalam","aga_division":"Wennappuwa Pradeshiya Sabha","ps_mc_uc":"Wennappuwa Divisional Secretariat","logitiute":79.850688,"latitude":7.351218,"orig_fid":-1},"geometry":{"x":79.850688000000048,"y":7.351218000000074}},{"attributes":{"objectid":191,"name":"THE BLUE WAVE HOTEL","address":"THE BLUE WAVE HOTEL ROAD, ARUGAMBAY , POTTUVIL 05","rooms":31.0,"district":"Ampara","aga_division":"MC","ps_mc_uc":"Pottuvil Divisional Secretariat","logitiute":81.830049,"latitude":6.844021,"orig_fid":-1},"geometry":{"x":81.830049000000031,"y":6.8440210000000548}},{"attributes":{"objectid":192,"name":"THE RAIN TREE HOTEL","address":"DEBARAWEWA ESTATE, SANDUNGAMA ROAD, TISSAMAHARAMA","rooms":22.0,"district":"Hambantota","aga_division":"Hambantota","ps_mc_uc":"Hambantota Divisional Secretariat","logitiute":81.2773297,"latitude":6.2852469,"orig_fid":-1},"geometry":{"x":81.277329700000053,"y":6.285246900000061}},{"attributes":{"objectid":193,"name":"ANARVA - SIDDHALEPA","address":"348, GALLE ROAD, MOUNT LAVINIA","rooms":98.0,"district":"Colombo","aga_division":"Colombo","ps_mc_uc":"Ratmalana Divisional Secretariat","logitiute":79.867102,"latitude":6.833158,"orig_fid":-1},"geometry":{"x":79.867102000000045,"y":6.8331580000000258}},{"attributes":{"objectid":194,"name":"MOVENPICK HOTEL COLOMBO","address":"NO.24 DARMAPALA MAWATHA, COLOMBO 03","rooms":219.0,"district":"Colombo","aga_division":"Colombo","ps_mc_uc":"Colombo Divisional Secretariat","logitiute":79.8506874,"latitude":6.9117582,"orig_fid":-1},"geometry":{"x":79.850687400000083,"y":6.9117582000000652}},{"attributes":{"objectid":195,"name":"MANDARINA COLOMBO","address":"433, GALLE ROAD, COLOMBO 03","rooms":72.0,"district":"Colombo","aga_division":"Colombo","ps_mc_uc":"Thimbirigasyaya Divisional Secretariat","logitiute":79.853611,"latitude":6.900092,"orig_fid":-1},"geometry":{"x":79.853611000000058,"y":6.9000920000000292}},{"attributes":{"objectid":196,"name":"JIE JIE BEACH BY JETWING","address":"NO.150,SAMUDRA MAWATHA,UYANKALEWATTA,PANADURA","rooms":180.0,"district":"Kalutara","aga_division":"Panadura Pradeshiya Sabha","ps_mc_uc":"Panadura Divisional Secretariat","logitiute":79.906137,"latitude":6.70343,"orig_fid":-1},"geometry":{"x":79.906137000000058,"y":6.7034300000000258}},{"attributes":{"objectid":197,"name":"R DEGREES HOTEL","address":"NO 457,GALLE ROAD,AMBALANGODA.","rooms":10.0,"district":"Galle","aga_division":"MC","ps_mc_uc":"Ambalangoda Divisional Secretariat","logitiute":80.048715,"latitude":6.243021,"orig_fid":-1},"geometry":{"x":80.048715000000072,"y":6.2430210000000557}},{"attributes":{"objectid":198,"name":"SEEROCK THE KINGS DOMAIN","address":"INDIGASWEWA,KIMBISSA.SIGIRIYA","rooms":12.0,"district":"Matale","aga_division":"Dambulla Pradeshiya Sabha","ps_mc_uc":"Dambulla Divisional Secretariat","logitiute":80.746197,"latitude":7.991713,"orig_fid":-1},"geometry":{"x":80.746197000000052,"y":7.9917130000000611}},{"attributes":{"objectid":199,"name":"AMARI GALLE","address":"523C-446,COLOMBO ROAD,GINTHOTA,GALLE.","rooms":172.0,"district":"Galle","aga_division":"Galle","ps_mc_uc":"Galle Divisional Secretariat","logitiute":80.181293,"latitude":6.052113,"orig_fid":-1},"geometry":{"x":80.181293000000039,"y":6.0521130000000767}},{"attributes":{"objectid":200,"name":"VILLA PINNAWALA AND RESTAURANT","address":"PINNALANDA WATTE,PINNAWALA, RAMBUKKANA","rooms":13.0,"district":"Kegalle","aga_division":"Kegalle","ps_mc_uc":"Rambukkana Divisional Secretariat","logitiute":80.385678,"latitude":7.301624,"orig_fid":-1},"geometry":{"x":80.385678000000041,"y":7.3016240000000607}},{"attributes":{"objectid":201,"name":"MARRIOT RESORT & SPA - WELIGAMA BAY","address":"NO. 700, MATARA ROAD, PELANA, WELIGAMA.","rooms":200.0,"district":"Matara","aga_division":"Weligama Pradeshiya Sabha","ps_mc_uc":"Weligama Divisional Secretariat","logitiute":80.439411,"latitude":5.973065,"orig_fid":-1},"geometry":{"x":80.439411000000064,"y":5.9730650000000765}},{"attributes":{"objectid":202,"name":"THE THINNAI","address":"NO 86, PALALY ROAD,,THINNAVELI,,JAFFNA","rooms":58.0,"district":"Jaffna","aga_division":"Nallur Pradeshiya Sabha","ps_mc_uc":"Nallur Divisional Secretariat","logitiute":80.0239728,"latitude":9.6871291,"orig_fid":-1},"geometry":{"x":80.023972800000081,"y":9.6871291000000497}},{"attributes":{"objectid":203,"name":"ARALIYA GREEN CITY","address":"NO 01,GRAND HOTEL ROAD,NUWARA ELIYA.","rooms":192.0,"district":"Nuwara Eliya","aga_division":"Nuwara Eliya","ps_mc_uc":"Nuwara Eliya Divisional Secretariat","logitiute":80.764482,"latitude":6.967075,"orig_fid":-1},"geometry":{"x":80.764482000000044,"y":6.9670750000000226}},{"attributes":{"objectid":204,"name":"SKYLOFT KANDY","address":"NO.26, DAZZLING RANGE, THAPODARAMAYA ROAD, HANTANA, KANDY.","rooms":18.0,"district":"Kandy","aga_division":"Gagawata Koralya","ps_mc_uc":"Gagawata","logitiute":80.625303,"latitude":7.273421,"orig_fid":-1},"geometry":{"x":80.625303000000031,"y":7.2734210000000417}},{"attributes":{"objectid":205,"name":"HOTEL NIPPON","address":"123, KUMARANRATNAM ROAD, COLOMBO 02","rooms":49.0,"district":"Colombo","aga_division":"Colombo","ps_mc_uc":"Colombo Divisional Secretariat","logitiute":79.8500985,"latitude":6.9239319,"orig_fid":-1},"geometry":{"x":79.850098500000058,"y":6.9239319000000705}},{"attributes":{"objectid":206,"name":"THIDAS ARANA HOTEL","address":"23RD,MILE POST,BANDIWEWA,POLONNARUWA","rooms":11.0,"district":"Polonnaruwa","aga_division":"Thamankaduwa Pradeshiya Sabha","ps_mc_uc":"Thamankaduwa Divisional Secretariat","logitiute":80.9860564,"latitude":7.9519377,"orig_fid":-1},"geometry":{"x":80.986056400000052,"y":7.9519377000000304}},{"attributes":{"objectid":207,"name":"ARIE LAGOON - NEGOMBO","address":"587,PAMUNUGAMA ROAD,THALAHENA, NEGOMBO","rooms":55.0,"district":"Gampaha","aga_division":"Negombo","ps_mc_uc":"Negombo Divisional Secretariat","logitiute":79.8233907,"latitude":7.1688026,"orig_fid":-1},"geometry":{"x":79.823390700000061,"y":7.1688026000000491}},{"attributes":{"objectid":208,"name":"THE VILLAS","address":"352/4,RATHNAYAKA ROAD,THALPITIYA SOUTH,WADDUWA,,","rooms":32.0,"district":"Kalutara","aga_division":"Panadura Pradeshiya Sabha","ps_mc_uc":"Panadura Divisional Secretariat","logitiute":79.923348,"latitude":6.670724,"orig_fid":-1},"geometry":{"x":79.923348000000033,"y":6.6707240000000638}}]}