{"type":"FeatureCollection","features":[{"type":"Feature","id":1,"geometry":{"type":"Point","coordinates":[79.869420000000048,7.1432050000000231]},"properties":{"objectid":1,"name":"THE GATEWAY HOTEL AIRPORT GARDEN COLOMBO","address":"234/238, COLOMBO-NEGOMBO ROAD, SEEDUWA","rooms":309,"district":"Gampaha","aga_division":"Negombo","ps_mc_uc":"Negombo Divisional Secretariat","logitiute":79.869420000000005,"latitude":7.143205,"orig_fid":-1}},{"type":"Feature","id":2,"geometry":{"type":"Point","coordinates":[80.100061000000039,6.1343780000000265]},"properties":{"objectid":2,"name":"CORAL ROCK BY BANSEI","address":"NO.340, GALL ROAD, HIKKADUWA","rooms":30,"district":"Galle","aga_division":"Hikkaduwa","ps_mc_uc":"Hikkaduwa Divisional Secretariat","logitiute":80.100060999999997,"latitude":6.1343779999999999,"orig_fid":-1}},{"type":"Feature","id":3,"geometry":{"type":"Point","coordinates":[80.925984000000085,7.6186980000000517]},"properties":{"objectid":3,"name":"LAVENDISH WILD SAFARI HOTEL","address":"NO 01 ELA, HANDUNGAMUWA, WASGAMUWA, MATALE","rooms":24,"district":"Matale","aga_division":"Matale","ps_mc_uc":"Matale Divisional Secretariat","logitiute":80.925984,"latitude":7.6186980000000002,"orig_fid":-1}},{"type":"Feature","id":4,"geometry":{"type":"Point","coordinates":[79.935723000000053,6.6425730000000272]},"properties":{"objectid":4,"name":"SIDDHALEPA AYURVEDA HEALTH RESORT","address":"SAMANTHARA ROAD, WADDUWA","rooms":50,"district":"Kalutara","aga_division":"Kalutara Pradeshiya Sabha","ps_mc_uc":"Kalutara Divisional Secretariat","logitiute":79.935722999999996,"latitude":6.6425730000000005,"orig_fid":-1}},{"type":"Feature","id":5,"geometry":{"type":"Point","coordinates":[79.948656000000085,6.6100270000000592]},"properties":{"objectid":5,"name":"ROYAL PALMS BEACH HOTEL","address":"DE ABREW ROAD, WASKADUWA, KALUTARA","rooms":123,"district":"Kalutara","aga_division":"Kalutara Pradeshiya Sabha","ps_mc_uc":"Kalutara Divisional Secretariat","logitiute":79.948656,"latitude":6.6100270000000005,"orig_fid":-1}},{"type":"Feature","id":6,"geometry":{"type":"Point","coordinates":[81.218406000000073,8.614524000000074]},"properties":{"objectid":6,"name":"SEA LOTUS PARK HOTEL","address":"NO.33,ALLESGARDEN,TRINCOMALEE.","rooms":25,"district":"Trincomalee","aga_division":"Trincomalee","ps_mc_uc":"Trincomalee Divisional Secretariat","logitiute":81.218406000000002,"latitude":8.6145239999999994,"orig_fid":-1}},{"type":"Feature","id":7,"geometry":{"type":"Point","coordinates":[79.960416000000066,6.5684790000000248]},"properties":{"objectid":7,"name":"AVANI KALUTARA RESORT","address":"40,ST. SEBASTIANS ROAD,KATUKURUNDA, KALUTARA","rooms":105,"district":"Kalutara","aga_division":"Kalutara Pradeshiya Sabha","ps_mc_uc":"Kalutara Divisional Secretariat","logitiute":79.960416000000009,"latitude":6.5684790000000008,"orig_fid":-1}},{"type":"Feature","id":8,"geometry":{"type":"Point","coordinates":[80.102984000000049,6.1391940000000318]},"properties":{"objectid":8,"name":"HOTEL LANKA PARADISE","address":"1/9, AMARASENA MAWATHA, HIKKADUWA.","rooms":21,"district":"Galle","aga_division":"Hikkaduwa","ps_mc_uc":"Hikkaduwa Divisional Secretariat","logitiute":80.102984000000006,"latitude":6.1391939999999998,"orig_fid":-1}},{"type":"Feature","id":9,"geometry":{"type":"Point","coordinates":[81.215834000000029,8.570034000000021]},"properties":{"objectid":9,"name":"WELCOMBE HOTEL","address":"NO. 66, LOWER ROAD, ORRS HILL, TRINCOMALEE","rooms":20,"district":"Trincomalee","aga_division":"Trincomalee","ps_mc_uc":"Trincomalee Divisional Secretariat","logitiute":81.215834000000001,"latitude":8.5700339999999997,"orig_fid":-1}},{"type":"Feature","id":10,"geometry":{"type":"Point","coordinates":[80.655269300000043,7.8221483000000376]},"properties":{"objectid":10,"name":"THILANKA RESORTS & SPA","address":"NO.51,GODAWALAYAYA,MORAGOLLA,DAMBULLA.","rooms":12,"district":"Matale","aga_division":"Dambulla Pradeshiya Sabha","ps_mc_uc":"Dambulla Divisional Secretariat","logitiute":80.6552693,"latitude":7.8221482999999994,"orig_fid":-1}},{"type":"Feature","id":11,"geometry":{"type":"Point","coordinates":[80.102295000000083,6.1299030000000698]},"properties":{"objectid":11,"name":"HOTEL LANKA SUPER CORALS","address":"NO.390,GALLE ROAD,HIKKADUWA.","rooms":100,"district":"Galle","aga_division":"Hikkaduwa","ps_mc_uc":"Hikkaduwa Divisional Secretariat","logitiute":80.102294999999998,"latitude":6.1299030000000005,"orig_fid":-1}},{"type":"Feature","id":12,"geometry":{"type":"Point","coordinates":[81.331186000000059,6.2289650000000734]},"properties":{"objectid":12,"name":"ELEPHANT REACH HOTEL","address":"YALA JUNCTION,KIRINDA TISSAMAHARAMA.","rooms":28,"district":"Hambantota","aga_division":"Hambantota","ps_mc_uc":"Thissamaharama Divisional Secretariat","logitiute":81.331186000000002,"latitude":6.2289650000000005,"orig_fid":-1}},{"type":"Feature","id":13,"geometry":{"type":"Point","coordinates":[79.841713000000084,7.2437570000000733]},"properties":{"objectid":13,"name":"JETWING BEACH","address":"ETHUKALA,NEGOMBO.","rooms":78,"district":"Gampaha","aga_division":"Negombo","ps_mc_uc":"Negombo Divisional Secretariat","logitiute":79.841712999999999,"latitude":7.2437569999999996,"orig_fid":-1}},{"type":"Feature","id":14,"geometry":{"type":"Point","coordinates":[80.194348000000048,6.0426630000000614]},"properties":{"objectid":14,"name":"JETWING LIGHTHOUSE","address":"DADELLA,GALLE.","rooms":85,"district":"Galle","aga_division":"Galle","ps_mc_uc":"Galle Divisional Secretariat","logitiute":80.194348000000005,"latitude":6.0426630000000001,"orig_fid":-1}},{"type":"Feature","id":15,"geometry":{"type":"Point","coordinates":[79.823710500000061,7.1680341000000567]},"properties":{"objectid":15,"name":"JETWING LAGOON","address":"PAMUNUGAMA ROAD, THALHENA,NEGOMBO.","rooms":55,"district":"Gampaha","aga_division":"Negombo","ps_mc_uc":"Negombo Divisional Secretariat","logitiute":79.823710500000004,"latitude":7.1680340999999999,"orig_fid":-1}},{"type":"Feature","id":16,"geometry":{"type":"Point","coordinates":[81.291211000000033,6.2877470000000244]},"properties":{"objectid":16,"name":"THE SAFARI","address":"TISSAMAHARAMA","rooms":57,"district":"Hambantota","aga_division":"Thissamaharama","ps_mc_uc":"Thissamaharama Divisional Secretariat","logitiute":81.291211000000004,"latitude":6.2877470000000004,"orig_fid":-1}},{"type":"Feature","id":17,"geometry":{"type":"Point","coordinates":[80.992612000000065,7.9243540000000507]},"properties":{"objectid":17,"name":"THE LAKE","address":"NEW TOWN, POLONNNARUWA.","rooms":40,"district":"Polonnaruwa","aga_division":"Polonnaruwa","ps_mc_uc":"Thamankaduwa Divisional Secretariat","logitiute":80.992611999999994,"latitude":7.9243540000000001,"orig_fid":-1}},{"type":"Feature","id":18,"geometry":{"type":"Point","coordinates":[80.64149100000003,7.2865640000000553]},"properties":{"objectid":18,"name":"SERENE GRAND HOTEL","address":"NO.113, RAJAPIHILLA MAWATHA, KANDY","rooms":21,"district":"Kandy","aga_division":"Kandy","ps_mc_uc":"Kandy Divisional Secretariat","logitiute":80.641491000000002,"latitude":7.2865640000000003,"orig_fid":-1}},{"type":"Feature","id":19,"geometry":{"type":"Point","coordinates":[80.685998000000041,5.9591170000000488]},"properties":{"objectid":19,"name":"DICKWELLA RESORT","address":"BATEEGAMA,DICKWELLA.","rooms":61,"district":"Matara","aga_division":"Matara","ps_mc_uc":"Dickwella Divisional Secretariat","logitiute":80.685997999999998,"latitude":5.959117,"orig_fid":-1}},{"type":"Feature","id":20,"geometry":{"type":"Point","coordinates":[80.284404000000052,5.9958870000000388]},"properties":{"objectid":20,"name":"AYURVEDA PARAGON","address":"P.O.BOX 01, 80615, TALPE","rooms":82,"district":"Galle","aga_division":"Habaraduwa","ps_mc_uc":"Habaraduwa Divisional Secretariat","logitiute":80.284404000000009,"latitude":5.9958869999999997,"orig_fid":-1}},{"type":"Feature","id":21,"geometry":{"type":"Point","coordinates":[80.625623000000076,7.2912880000000655]},"properties":{"objectid":21,"name":"THE TOURMALINE","address":"ANNIEWATTE, KANDY","rooms":24,"district":"Kandy","aga_division":"Kandy","ps_mc_uc":"Ganga Ihala Korale Divisional Secretariat","logitiute":80.625623000000004,"latitude":7.2912879999999998,"orig_fid":-1}},{"type":"Feature","id":22,"geometry":{"type":"Point","coordinates":[79.84188400000005,7.2369830000000661]},"properties":{"objectid":22,"name":"JETWING AYURVEDA","address":"NO.14, ETTHUKALA, NEGOMBO","rooms":12,"district":"Gampaha","aga_division":"Negombo","ps_mc_uc":"Negombo Divisional Secretariat","logitiute":79.841884000000007,"latitude":7.2369830000000004,"orig_fid":-1}},{"type":"Feature","id":23,"geometry":{"type":"Point","coordinates":[80.733751000000041,7.8997060000000374]},"properties":{"objectid":23,"name":"GREEN PARADISE AGRO ECO HOTEL","address":"KUBUKKADANWALA,DAMBULLA.","rooms":67,"district":"Matale","aga_division":"Matale","ps_mc_uc":"Matale Divisional Secretariat","logitiute":80.733750999999998,"latitude":7.8997060000000001,"orig_fid":-1}},{"type":"Feature","id":24,"geometry":{"type":"Point","coordinates":[80.099676000000045,6.1366290000000276]},"properties":{"objectid":24,"name":"CORAL SANDS HOTEL","address":"326,GALLE ROAD,HIKKADUWA.","rooms":72,"district":"Galle","aga_division":"Hikkaduwa","ps_mc_uc":"Hikkaduwa Divisional Secretariat","logitiute":80.099676000000002,"latitude":6.1366289999999992,"orig_fid":-1}},{"type":"Feature","id":25,"geometry":{"type":"Point","coordinates":[79.840848000000051,7.2280030000000579]},"properties":{"objectid":25,"name":"ROYAL CASTLE","address":"140,LEWIS PLACE,NEGOMBO.","rooms":20,"district":"Gampaha","aga_division":"Negombo","ps_mc_uc":"Negombo Divisional Secretariat","logitiute":79.840848000000008,"latitude":7.2280030000000002,"orig_fid":-1}},{"type":"Feature","id":26,"geometry":{"type":"Point","coordinates":[80.669359000000043,7.9036220000000412]},"properties":{"objectid":26,"name":"PELWEHERA VILLAGE RESORT","address":"BULAGALA JUNCTION,PELWEHERA,DAMBULLA.","rooms":16,"district":"Matale","aga_division":"Dambulla Pradeshiya Sabha","ps_mc_uc":"Dambulla Divisional Secretariat","logitiute":80.669359,"latitude":7.9036220000000004,"orig_fid":-1}},{"type":"Feature","id":27,"geometry":{"type":"Point","coordinates":[80.645743000000039,7.2913270000000239]},"properties":{"objectid":27,"name":"HOTEL THILANKA","address":"NO.3,SANGAMITTA MAWATHA,KANDY.","rooms":86,"district":"Kandy","aga_division":"Kandy","ps_mc_uc":"Kandy Divisional Secretariat","logitiute":80.64574300000001,"latitude":7.2913269999999999,"orig_fid":-1}},{"type":"Feature","id":28,"geometry":{"type":"Point","coordinates":[79.93877180000004,6.6289085000000227]},"properties":{"objectid":28,"name":"TURYAA - KALUTARA","address":"KUDAWASKADUWA, KALUTARA","rooms":96,"district":"Kalutara","aga_division":"Kalutara Pradeshiya Sabha","ps_mc_uc":"Kalutara Divisional Secretariat","logitiute":79.938771799999998,"latitude":6.6289084999999996,"orig_fid":-1}},{"type":"Feature","id":29,"geometry":{"type":"Point","coordinates":[80.989062000000047,6.8315830000000233]},"properties":{"objectid":29,"name":"BANDARAWELA HOTEL","address":"NO 14, WELIMADA ROAD, BANDARAWELA","rooms":33,"district":"Badulla","aga_division":"Bandarawela Pradeshiya Sabha","ps_mc_uc":"Bandarawela Divisional Secretariat","logitiute":80.989062000000004,"latitude":6.8315830000000002,"orig_fid":-1}},{"type":"Feature","id":30,"geometry":{"type":"Point","coordinates":[79.934133000000031,6.6449640000000727]},"properties":{"objectid":30,"name":"HARIDRA RESORT & SPA","address":"921,PARALLEL ROAD,POHODDARAMULLA,WADDUWA.","rooms":32,"district":"Kalutara","aga_division":"Kalutara Pradeshiya Sabha","ps_mc_uc":"Wadduwa","logitiute":79.934133000000003,"latitude":6.6449639999999999,"orig_fid":-1}},{"type":"Feature","id":31,"geometry":{"type":"Point","coordinates":[80.247000300000082,6.010441300000025]},"properties":{"objectid":31,"name":"UNAWATUNA BEACH RESORT","address":"PARANGIYAWATTA,UNAWATUNA,GALLE","rooms":73,"district":"Galle","aga_division":"Habaraduwa","ps_mc_uc":"Habaraduwa Divisional Secretariat","logitiute":80.247000299999996,"latitude":6.0104413000000001,"orig_fid":-1}},{"type":"Feature","id":32,"geometry":{"type":"Point","coordinates":[80.099433000000033,6.1384970000000294]},"properties":{"objectid":32,"name":"HIKKADUWA BEACH HOTEL","address":"298,GALLE ROAD,HIKKADUWA","rooms":52,"district":"Galle","aga_division":"Hikkaduwa","ps_mc_uc":"Hikkaduwa Divisional Secretariat","logitiute":80.099433000000005,"latitude":6.1384970000000001,"orig_fid":-1}},{"type":"Feature","id":33,"geometry":{"type":"Point","coordinates":[80.780200000000036,6.009518000000071]},"properties":{"objectid":33,"name":"PALM PARADISE CABANAS","address":"GOYAMBOKKA,TANGALLE","rooms":22,"district":"Hambantota","aga_division":"Hambantota","ps_mc_uc":"Tangalle Divisional Secretariat","logitiute":80.780199999999994,"latitude":6.0095179999999999,"orig_fid":-1}},{"type":"Feature","id":34,"geometry":{"type":"Point","coordinates":[79.996052300000031,6.4245209000000614]},"properties":{"objectid":34,"name":"AIDA HOTEL","address":"NO.12A,MANGALA MAWATHA,BENTOTA","rooms":34,"district":"Galle","aga_division":"Bentota Pradeshiya Sabha","ps_mc_uc":"Benthota Divisional Secretariat","logitiute":79.996052299999988,"latitude":6.4245209000000001,"orig_fid":-1}},{"type":"Feature","id":35,"geometry":{"type":"Point","coordinates":[80.763797300000078,6.9625923000000398]},"properties":{"objectid":35,"name":"ALPINE HOTEL","address":"NO.4 ,HADDON HILL ROAD,NUWARAELIYA","rooms":25,"district":"Nuwara Eliya","aga_division":"Nuwara Eliya","ps_mc_uc":"Nuwara Eliya Divisional Secretariat","logitiute":80.763797299999993,"latitude":6.9625923000000007,"orig_fid":-1}},{"type":"Feature","id":36,"geometry":{"type":"Point","coordinates":[80.10295300000007,6.1297440000000734]},"properties":{"objectid":36,"name":"CITRUS - HIKKADUWA","address":"NO.400,GALLE ROAD,HIKKADUWA","rooms":54,"district":"Galle","aga_division":"Galle","ps_mc_uc":"Hikkaduwa Divisional Secretariat","logitiute":80.102952999999999,"latitude":6.1297439999999996,"orig_fid":-1}},{"type":"Feature","id":37,"geometry":{"type":"Point","coordinates":[80.095664000000056,6.9126430000000596]},"properties":{"objectid":37,"name":"AMBALAMA LEISURE LOUNGE","address":"IHALA HANWELLA,HANWELLA","rooms":14,"district":"Colombo","aga_division":"Colombo","ps_mc_uc":"Colombo Divisional Secretariat","logitiute":80.095663999999999,"latitude":6.9126430000000001,"orig_fid":-1}},{"type":"Feature","id":38,"geometry":{"type":"Point","coordinates":[79.999999000000059,6.4200000000000728]},"properties":{"objectid":38,"name":"AYURVEDA WALAUWA","address":"WARAHENA,BENTOTA","rooms":20,"district":"Galle","aga_division":"Galle","ps_mc_uc":"Benthota Divisional Secretariat","logitiute":79.999999000000003,"latitude":6.4199999999999999,"orig_fid":-1}},{"type":"Feature","id":39,"geometry":{"type":"Point","coordinates":[80.40725400000008,5.959899000000064]},"properties":{"objectid":39,"name":"BARBERYN AYURVEDIC BEACH RESORT","address":"KAPPARATOTA,WELIGAMA","rooms":60,"district":"Matara","aga_division":"Weligama Pradeshiya Sabha","ps_mc_uc":"Weligama Divisional Secretariat","logitiute":80.407254000000009,"latitude":5.9598990000000001,"orig_fid":-1}},{"type":"Feature","id":40,"geometry":{"type":"Point","coordinates":[80.589352000000076,7.1673810000000344]},"properties":{"objectid":40,"name":"BINVINO","address":"GAMPOLA WATTA, NARANVITA, GAMPOLA.","rooms":25,"district":"Kandy","aga_division":"Kandy","ps_mc_uc":"Doluwa Divisional Secretariat","logitiute":80.589351999999991,"latitude":7.1673809999999998,"orig_fid":-1}},{"type":"Feature","id":41,"geometry":{"type":"Point","coordinates":[79.989461300000073,6.4373579000000518]},"properties":{"objectid":41,"name":"CLUB PARADISE HOTEL","address":"NATIONAL HOLIDAY RESORT,BENTOTA","rooms":24,"district":"Galle","aga_division":"Bentota Pradeshiya Sabha","ps_mc_uc":"Benthota Divisional Secretariat","logitiute":79.989461300000002,"latitude":6.4373579000000003,"orig_fid":-1}},{"type":"Feature","id":42,"geometry":{"type":"Point","coordinates":[81.048373000000083,6.8761850000000209]},"properties":{"objectid":42,"name":"HOTEL COUNTRY COMFORT","address":"32,POLICE STATION ROAD,ELLA","rooms":18,"district":"Badulla","aga_division":"Ella Pradeshiya Sabha","ps_mc_uc":"Ella Divisional Secretariat","logitiute":81.048372999999998,"latitude":6.8761850000000004,"orig_fid":-1}},{"type":"Feature","id":43,"geometry":{"type":"Point","coordinates":[80.046462000000076,6.2454280000000608]},"properties":{"objectid":43,"name":"DREAM BEACH HOTEL","address":"NO.509,GALLE ROAD AMBALANGODA","rooms":24,"district":"Galle","aga_division":"Galle","ps_mc_uc":"Ambalangoda Divisional Secretariat","logitiute":80.046462000000005,"latitude":6.2454280000000004,"orig_fid":-1}},{"type":"Feature","id":44,"geometry":{"type":"Point","coordinates":[80.76221600000008,6.0028180000000475]},"properties":{"objectid":44,"name":"HOTEL EVA LANKA","address":"HOTEL EVA LANKA,TANGALLE ROAD,TANGALLE.","rooms":29,"district":"Hambantota","aga_division":"Hambantota","ps_mc_uc":"Tangalle Divisional Secretariat","logitiute":80.762216000000009,"latitude":6.0028179999999995,"orig_fid":-1}},{"type":"Feature","id":45,"geometry":{"type":"Point","coordinates":[80.688691000000063,7.9295710000000668]},"properties":{"objectid":45,"name":"HOTEL EDEN GARDEN","address":"SIGIRIYA ROAD,INAMALUWA,DAMBULLA","rooms":36,"district":"Matale","aga_division":"Dambulla Pradeshiya Sabha","ps_mc_uc":"Dambulla Divisional Secretariat","logitiute":80.688690999999992,"latitude":7.9295710000000001,"orig_fid":-1}},{"type":"Feature","id":46,"geometry":{"type":"Point","coordinates":[81.071580600000061,6.8268869000000336]},"properties":{"objectid":46,"name":"ELLA JUNGLE RESORT","address":"UVA,KARANDAGOLLA,ELLA","rooms":22,"district":"Badulla","aga_division":"Badulla","ps_mc_uc":"Badulla Divisional Secretariat","logitiute":81.071580600000004,"latitude":6.8268869000000008,"orig_fid":-1}},{"type":"Feature","id":47,"geometry":{"type":"Point","coordinates":[79.840343000000075,7.2268210000000295]},"properties":{"objectid":47,"name":"GOLDEN STAR BEACH HOTEL","address":"NO.163,LEWIS PLACE,NEGOMBO","rooms":62,"district":"Gampaha","aga_division":"Negombo","ps_mc_uc":"Negombo Divisional Secretariat","logitiute":79.840343000000004,"latitude":7.2268210000000002,"orig_fid":-1}},{"type":"Feature","id":48,"geometry":{"type":"Point","coordinates":[80.632433000000049,7.2613320000000385]},"properties":{"objectid":48,"name":"HANTANE SHADOW RESORT","address":"SPRING HILL ESTATE,HEERASSAGALA,KANDY","rooms":11,"district":"Kandy","aga_division":"Kandy","ps_mc_uc":"Ganga Ihala Korale Divisional Secretariat","logitiute":80.632433000000006,"latitude":7.2613320000000003,"orig_fid":-1}},{"type":"Feature","id":49,"geometry":{"type":"Point","coordinates":[80.646196000000032,7.2844890000000646]},"properties":{"objectid":49,"name":"HELGAS FOLLY","address":"NO.70,RAJAPIHILLA MAWATHA,KANDY.","rooms":25,"district":"Kandy","aga_division":"Kandy","ps_mc_uc":"Ganga Ihala Korale Divisional Secretariat","logitiute":80.646196000000003,"latitude":7.2844889999999998,"orig_fid":-1}},{"type":"Feature","id":50,"geometry":{"type":"Point","coordinates":[80.418936000000031,5.9592920000000618]},"properties":{"objectid":50,"name":"BAY BEACH HOTEL","address":"KAPPARATOTA,WELIGAMA","rooms":60,"district":"Matara","aga_division":"Weligama Pradeshiya Sabha","ps_mc_uc":"Weligama Divisional Secretariat","logitiute":80.418935999999988,"latitude":5.9592920000000005,"orig_fid":-1}},{"type":"Feature","id":51,"geometry":{"type":"Point","coordinates":[80.763416000000063,6.9703110000000379]},"properties":{"objectid":51,"name":"HILL CLUB","address":"29,GRAND HOTEL ROAD,NUWARAELIYA","rooms":39,"district":"Nuwara Eliya","aga_division":"Nuwara Eliya","ps_mc_uc":"Nuwara Eliya Divisional Secretariat","logitiute":80.763416000000007,"latitude":6.9703109999999997,"orig_fid":-1}},{"type":"Feature","id":52,"geometry":{"type":"Point","coordinates":[80.988284000000078,7.9592840000000251]},"properties":{"objectid":52,"name":"POLONNARUWA HOLIDAY INN","address":"POLONNARUWA HOLIDAY INN, BENDIWEWA, POLONNARUWA","rooms":24,"district":"Polonnaruwa","aga_division":"Polonnaruwa","ps_mc_uc":"Polonnaruwa Divisional Secretariat","logitiute":80.988284000000007,"latitude":7.9592840000000002,"orig_fid":-1}},{"type":"Feature","id":53,"geometry":{"type":"Point","coordinates":[81.331018000000086,6.4129380000000538]},"properties":{"objectid":53,"name":"HOTEL CHANDRIKA","address":"KATARAGAMA ROAD, TISSAMAHARAMA","rooms":20,"district":"Hambantota","aga_division":"Hambantota","ps_mc_uc":"Hambantota Divisional Secretariat","logitiute":81.331018,"latitude":6.4129380000000005,"orig_fid":-1}},{"type":"Feature","id":54,"geometry":{"type":"Point","coordinates":[80.00068600000003,7.0530180000000655]},"properties":{"objectid":54,"name":"HOTEL CHATHUMEDURA VILLAGE INN","address":"NO.258/1,IHALAYAGODA,YAGODA","rooms":22,"district":"Gampaha","aga_division":"Gampaha","ps_mc_uc":"Gampaha Divisional Secretariat","logitiute":80.000686000000002,"latitude":7.0530179999999998,"orig_fid":-1}},{"type":"Feature","id":55,"geometry":{"type":"Point","coordinates":[80.926184000000035,7.9956090000000586]},"properties":{"objectid":55,"name":"HOTEL HEMALEE","address":"POLONNARUWA ROAD,GIRITALE","rooms":16,"district":"Polonnaruwa","aga_division":"Hingurakgoda Pradeshiya Sabha","ps_mc_uc":"Hingurakgoda Divisional Secretariat","logitiute":80.926184000000006,"latitude":7.995609,"orig_fid":-1}},{"type":"Feature","id":56,"geometry":{"type":"Point","coordinates":[80.952255000000036,6.7662030000000755]},"properties":{"objectid":56,"name":"OLYMPUS PLAZA HOTEL","address":"NO.75,WELIMADA ROAD,HAPUTALE","rooms":30,"district":"Badulla","aga_division":"Haputale","ps_mc_uc":"Haputale Divisional Secretariat","logitiute":80.952255000000008,"latitude":6.766203,"orig_fid":-1}},{"type":"Feature","id":57,"geometry":{"type":"Point","coordinates":[80.008537000000047,6.3766880000000583]},"properties":{"objectid":57,"name":"INDURUWA BEACH RESORT","address":"GALLE ROAD,KAIKAWALA,INDURUWA","rooms":90,"district":"Galle","aga_division":"Galle","ps_mc_uc":"Galle Divisional Secretariat","logitiute":80.008537000000004,"latitude":6.3766879999999997,"orig_fid":-1}},{"type":"Feature","id":58,"geometry":{"type":"Point","coordinates":[80.359938000000056,5.9731590000000665]},"properties":{"objectid":58,"name":"INSIGHT","address":"NO.67,MATARA ROAD,AHANGAMA.","rooms":32,"district":"Galle","aga_division":"Habaraduwa","ps_mc_uc":"Habaraduwa Divisional Secretariat","logitiute":80.359938,"latitude":5.9731590000000008,"orig_fid":-1}},{"type":"Feature","id":59,"geometry":{"type":"Point","coordinates":[80.024891000000082,6.341000000000065]},"properties":{"objectid":59,"name":"KOSGODA BEACH RESORT","address":"P.O.BOX.1,NUPE,KOSGODA","rooms":50,"district":"Galle","aga_division":"Galle","ps_mc_uc":"Balapitiya Divisional Secretariat","logitiute":80.024890999999997,"latitude":6.3410000000000002,"orig_fid":-1}},{"type":"Feature","id":60,"geometry":{"type":"Point","coordinates":[80.233872000000076,6.5829180000000633]},"properties":{"objectid":60,"name":"LAYA LEISURE - KUKULEGANGA","address":"AUSKVALLY,MOLAKAWA","rooms":64,"district":"Kalutara","aga_division":"Kalutara Pradeshiya Sabha","ps_mc_uc":"Baduraliya","logitiute":80.233872000000005,"latitude":6.5829180000000003,"orig_fid":-1}},{"type":"Feature","id":61,"geometry":{"type":"Point","coordinates":[79.840704000000073,7.3056580000000508]},"properties":{"objectid":61,"name":"KUMUDU VALLEY RESORT","address":"THALDEKA ROAD,NAINAMADAMA","rooms":10,"district":"Puttalam","aga_division":"Wennappuwa Pradeshiya Sabha","ps_mc_uc":"Wennappuwa Divisional Secretariat","logitiute":79.840704000000002,"latitude":7.3056580000000002,"orig_fid":-1}},{"type":"Feature","id":62,"geometry":{"type":"Point","coordinates":[79.989498000000083,6.4436110000000326]},"properties":{"objectid":62,"name":"LANKA PRINCESS HOTEL","address":"KALUWAMODARA,BERUWELA","rooms":94,"district":"Kalutara","aga_division":"Beruwala Pradeshiya Sabha","ps_mc_uc":"Beruwala Divisional Secretariat","logitiute":79.989497999999998,"latitude":6.4436109999999998,"orig_fid":-1}},{"type":"Feature","id":63,"geometry":{"type":"Point","coordinates":[79.818450000000041,7.4060300000000439]},"properties":{"objectid":63,"name":"RICHRON BEACH HOTEL","address":"BEACH ROAD,MARAWILA","rooms":25,"district":"Puttalam","aga_division":"Nattandiya Pradeshiya Sabha","ps_mc_uc":"Nattandiya Divisional Secretariat","logitiute":79.818449999999999,"latitude":7.4060299999999994,"orig_fid":-1}},{"type":"Feature","id":64,"geometry":{"type":"Point","coordinates":[80.101275400000077,6.1346957000000657]},"properties":{"objectid":64,"name":"LAWRENCE HILL PARADISE","address":"47,WAULAGODA MIDDLE ROAD,HIKKADUWA","rooms":14,"district":"Galle","aga_division":"Hikkaduwa","ps_mc_uc":"Hikkaduwa Divisional Secretariat","logitiute":80.101275400000006,"latitude":6.1346957,"orig_fid":-1}},{"type":"Feature","id":65,"geometry":{"type":"Point","coordinates":[79.902238000000068,6.7134660000000395]},"properties":{"objectid":65,"name":"NAVRO BEACH RESORT","address":"NO.40,BEACH ROAD,PANADURA","rooms":24,"district":"Kalutara","aga_division":"Panadura Pradeshiya Sabha","ps_mc_uc":"Panadura Divisional Secretariat","logitiute":79.902237999999997,"latitude":6.7134660000000004,"orig_fid":-1}},{"type":"Feature","id":66,"geometry":{"type":"Point","coordinates":[79.985631000000069,6.4466160000000627]},"properties":{"objectid":66,"name":"HERITANCE AYURVEDA MAHAGEDARA","address":"GALLE ROAD,MORAGALLE,BERUWALA","rooms":64,"district":"Kalutara","aga_division":"Beruwala Pradeshiya Sabha","ps_mc_uc":"Beruwala Divisional Secretariat","logitiute":79.985631000000012,"latitude":6.4466159999999997,"orig_fid":-1}},{"type":"Feature","id":67,"geometry":{"type":"Point","coordinates":[79.918624000000079,7.1828710000000342]},"properties":{"objectid":67,"name":"THE TAMARIND TREE","address":"NO 1, ADIAMBALAMA ESTATE, YATIYANA, MINUWANGODA.","rooms":57,"district":"Gampaha","aga_division":"Katunayake-Seeduwa","ps_mc_uc":"Katana Divisional Secretariat","logitiute":79.918623999999994,"latitude":7.1828710000000004,"orig_fid":-1}},{"type":"Feature","id":68,"geometry":{"type":"Point","coordinates":[79.836507600000061,7.2336371000000668]},"properties":{"objectid":68,"name":"SILVAS BEACH HOTEL","address":"NO.16,ETHUKALA,NEGOMBO","rooms":17,"district":"Gampaha","aga_division":"Negombo","ps_mc_uc":"Negombo Divisional Secretariat","logitiute":79.836507600000004,"latitude":7.2336371000000002,"orig_fid":-1}},{"type":"Feature","id":69,"geometry":{"type":"Point","coordinates":[81.831336000000078,6.8500210000000266]},"properties":{"objectid":69,"name":"STAR DUST BEACH HOTEL","address":"ARUGAMBAY,POTTUVIL","rooms":11,"district":"Ampara","aga_division":"Ampara","ps_mc_uc":"Pottuvil Divisional Secretariat","logitiute":81.831335999999993,"latitude":6.8500209999999999,"orig_fid":-1}},{"type":"Feature","id":70,"geometry":{"type":"Point","coordinates":[79.841527000000042,7.2397110000000566]},"properties":{"objectid":70,"name":"OASIS BEACH RESORT","address":"31,PORUTOTA ROAD,ETHUKALA,NEGOMBO","rooms":40,"district":"Gampaha","aga_division":"Katunayake-Seeduwa","ps_mc_uc":"Negombo Divisional Secretariat","logitiute":79.841526999999999,"latitude":7.2397109999999998,"orig_fid":-1}},{"type":"Feature","id":71,"geometry":{"type":"Point","coordinates":[81.06028230000004,6.8712053000000424]},"properties":{"objectid":71,"name":"98 ACRES RESORT","address":"UVA GREENLANDS ESTATE,NAMUNUKULA ROAD,ELLA","rooms":28,"district":"Badulla","aga_division":"Ella Pradeshiya Sabha","ps_mc_uc":"Ella Divisional Secretariat","logitiute":81.060282299999997,"latitude":6.8712052999999997,"orig_fid":-1}},{"type":"Feature","id":72,"geometry":{"type":"Point","coordinates":[80.118766000000051,6.1161990000000515]},"properties":{"objectid":72,"name":"OCEAN BEACH CLUB","address":"PATUWATHA,DODANDUWA,HIKADUWA","rooms":16,"district":"Galle","aga_division":"Hikkaduwa","ps_mc_uc":"Hikkaduwa Divisional Secretariat","logitiute":80.118766000000008,"latitude":6.1161989999999999,"orig_fid":-1}},{"type":"Feature","id":73,"geometry":{"type":"Point","coordinates":[80.987658000000067,6.8335210000000757]},"properties":{"objectid":73,"name":"ORIENT HOTEL","address":"NO.12,DHARMAPALA MAWATHA,BANDARAWELA","rooms":35,"district":"Badulla","aga_division":"Bandarawela Pradeshiya Sabha","ps_mc_uc":"Bandarawela Divisional Secretariat","logitiute":80.987657999999996,"latitude":6.8335210000000002,"orig_fid":-1}},{"type":"Feature","id":74,"geometry":{"type":"Point","coordinates":[79.854840000000081,7.1904970000000503]},"properties":{"objectid":74,"name":"AMAGI LAGOON RESORT AND SPA","address":"640/82,COLOMBO ROAD,KURANA,NEGAMBO","rooms":22,"district":"Gampaha","aga_division":"Negombo","ps_mc_uc":"Negombo Divisional Secretariat","logitiute":79.854839999999996,"latitude":7.1904970000000006,"orig_fid":-1}},{"type":"Feature","id":75,"geometry":{"type":"Point","coordinates":[80.596512000000075,6.3895130000000222]},"properties":{"objectid":75,"name":"THE RAINFOREST","address":"ENSELWATTE ESTATE, DENIYAYA.","rooms":16,"district":"Matara","aga_division":"Kotapola Pradeshiya Sabha","ps_mc_uc":"Kotapola Divisional Secretariat","logitiute":80.596512000000004,"latitude":6.389513,"orig_fid":-1}},{"type":"Feature","id":76,"geometry":{"type":"Point","coordinates":[79.940258000000085,6.6298860000000559]},"properties":{"objectid":76,"name":"KAMILI BEACH VILLA","address":"NO.531,FIRST STATION ROAD,WASKADUWA,KALUTARA","rooms":24,"district":"Kalutara","aga_division":"Kalutara Pradeshiya Sabha","ps_mc_uc":"Kalutara Divisional Secretariat","logitiute":79.940258,"latitude":6.6298859999999999,"orig_fid":-1}},{"type":"Feature","id":77,"geometry":{"type":"Point","coordinates":[80.271503000000052,5.9989940000000388]},"properties":{"objectid":77,"name":"STAR LIGHT HOTEL","address":"GALLE ROAD,80615,TALPE","rooms":14,"district":"Galle","aga_division":"Habaraduwa","ps_mc_uc":"Habaraduwa Divisional Secretariat","logitiute":80.27150300000001,"latitude":5.9989939999999997,"orig_fid":-1}},{"type":"Feature","id":78,"geometry":{"type":"Point","coordinates":[80.418003000000056,8.3303080000000591]},"properties":{"objectid":78,"name":"RANDIYA HOTEL","address":"394/19A,MUDITHA MAWATHA,ANURADHAPURA","rooms":14,"district":"Anuradhapura","aga_division":"Anuradhapura","ps_mc_uc":"Anuradhapura East","logitiute":80.418003000000013,"latitude":8.3303079999999987,"orig_fid":-1}},{"type":"Feature","id":79,"geometry":{"type":"Point","coordinates":[80.00587500000006,6.9631660000000579]},"properties":{"objectid":79,"name":"P.T. GARDEN HOTEL","address":"NO.540A/4,SAMURDHI MAWATHA,WALGAMA,MALWANA","rooms":21,"district":"Gampaha","aga_division":"Biyagama Pradeshiya Sabha","ps_mc_uc":"Biyagama Divisional Secretariat","logitiute":80.005874999999989,"latitude":6.9631660000000002,"orig_fid":-1}},{"type":"Feature","id":80,"geometry":{"type":"Point","coordinates":[81.131521000000077,6.1333870000000275]},"properties":{"objectid":80,"name":"PEACOCK BEACH HOTEL LTD","address":"TISSA ROAD,HAMBANTOTA","rooms":111,"district":"Hambantota","aga_division":"Hambantota","ps_mc_uc":"Hambantota Divisional Secretariat","logitiute":81.131521000000006,"latitude":6.1333869999999999,"orig_fid":-1}},{"type":"Feature","id":81,"geometry":{"type":"Point","coordinates":[80.242826000000036,6.9658110000000306]},"properties":{"objectid":81,"name":"HOTEL PICTURESQUE","address":"NO:503,THEMBILIYANA ESTATE,DEHIOWITA","rooms":10,"district":"Kegalle","aga_division":"Dehiowita Pradeshiya Sabha","ps_mc_uc":"Dehiovita Divisional Secretariat","logitiute":80.242826000000008,"latitude":6.9658109999999995,"orig_fid":-1}},{"type":"Feature","id":82,"geometry":{"type":"Point","coordinates":[81.009061000000031,6.8323540000000662]},"properties":{"objectid":82,"name":"PRINCE HOTEL BANDARAWELA","address":"BADULLA ROAD,BINDUNUWEWA,BANDARAWELA","rooms":30,"district":"Badulla","aga_division":"Ella Pradeshiya Sabha","ps_mc_uc":"Ella Divisional Secretariat","logitiute":81.009061000000003,"latitude":6.8323540000000005,"orig_fid":-1}},{"type":"Feature","id":83,"geometry":{"type":"Point","coordinates":[80.638068000000032,7.2932870000000207]},"properties":{"objectid":83,"name":"QUEENS HOTEL","address":"NO:04,DALADA VEEDIYA,KANDY","rooms":67,"district":"Kandy","aga_division":"Kandy","ps_mc_uc":"Gagawata","logitiute":80.638068000000004,"latitude":7.2932869999999994,"orig_fid":-1}},{"type":"Feature","id":84,"geometry":{"type":"Point","coordinates":[79.881486000000052,7.1114640000000691]},"properties":{"objectid":84,"name":"RAMADA KATUNAYAKE","address":"842,NEGOMBO ROAD,SEEDUWA","rooms":56,"district":"Gampaha","aga_division":"Katana Pradeshiya Sabha","ps_mc_uc":"Katana Divisional Secretariat","logitiute":79.881485999999995,"latitude":7.1114639999999998,"orig_fid":-1}},{"type":"Feature","id":85,"geometry":{"type":"Point","coordinates":[81.82848800000005,6.8377430000000459]},"properties":{"objectid":85,"name":"PALM GROOVE HOLIDAY INN","address":"ARUGAMBAY,POTUVIL","rooms":23,"district":"Ampara","aga_division":"Ampara","ps_mc_uc":"Pottuvil Divisional Secretariat","logitiute":81.828488000000007,"latitude":6.8377429999999997,"orig_fid":-1}},{"type":"Feature","id":86,"geometry":{"type":"Point","coordinates":[79.860648000000083,7.0342920000000504]},"properties":{"objectid":86,"name":"PALM VILLAGE HOTEL","address":"262,OLD COLOMBO RD,USWETAKEIYAWA","rooms":50,"district":"Gampaha","aga_division":"Wattala Pradeshiya Sabha","ps_mc_uc":"Wattala Divisional Secretariat","logitiute":79.860648000000012,"latitude":7.0342920000000007,"orig_fid":-1}},{"type":"Feature","id":87,"geometry":{"type":"Point","coordinates":[80.096877000000063,7.1469500000000608]},"properties":{"objectid":87,"name":"HOTEL RANATHISARA","address":"NO:51,KANDY RD,NITTAMBUWA","rooms":12,"district":"Gampaha","aga_division":"Attanagalla Pradeshiya Sabha","ps_mc_uc":"Attanagalla Divisional Secretariat","logitiute":80.096877000000006,"latitude":7.1469499999999995,"orig_fid":-1}},{"type":"Feature","id":88,"geometry":{"type":"Point","coordinates":[80.993733000000077,7.9232660000000692]},"properties":{"objectid":88,"name":"HOTEL SUDU ARALIYA","address":"NEWTOWN,POLONNARUWA","rooms":104,"district":"Polonnaruwa","aga_division":"Polonnaruwa","ps_mc_uc":"Thamankaduwa Divisional Secretariat","logitiute":80.993733000000006,"latitude":7.9232659999999999,"orig_fid":-1}},{"type":"Feature","id":89,"geometry":{"type":"Point","coordinates":[79.839776000000029,7.2253280000000473]},"properties":{"objectid":89,"name":"HOTEL SUNSET BEACH","address":"NO.5, CARRON PLACE, LEWIS ROAD,NEGOMBO.","rooms":35,"district":"Gampaha","aga_division":"Negombo","ps_mc_uc":"Negombo Divisional Secretariat","logitiute":79.839776000000001,"latitude":7.2253280000000002,"orig_fid":-1}},{"type":"Feature","id":90,"geometry":{"type":"Point","coordinates":[80.64292400000005,7.288387000000057]},"properties":{"objectid":90,"name":"HOTEL SUISSE","address":"NO:30,SANGARAJA MAWATHA,KANDY","rooms":90,"district":"Kandy","aga_division":"Kandy","ps_mc_uc":"Gagawata","logitiute":80.642923999999994,"latitude":7.2883869999999993,"orig_fid":-1}},{"type":"Feature","id":91,"geometry":{"type":"Point","coordinates":[80.62095400000004,5.9439550000000736]},"properties":{"objectid":91,"name":"TALALLA RETREAT CENTRE","address":"SAMPAYA HOUSE, TALALLA SOUTH, GANDARA.","rooms":32,"district":"Matara","aga_division":"Matara","ps_mc_uc":"Matara Divisional Secretariat","logitiute":80.620954000000012,"latitude":5.9439549999999999,"orig_fid":-1}},{"type":"Feature","id":92,"geometry":{"type":"Point","coordinates":[79.922221000000036,6.6715410000000475]},"properties":{"objectid":92,"name":"SERENE PAVILIONS","address":"NO20,UPALI MAWATHA,WADDUWA","rooms":15,"district":"Kalutara","aga_division":"Kalutara Pradeshiya Sabha","ps_mc_uc":"Panadura Divisional Secretariat","logitiute":79.922221000000008,"latitude":6.6715410000000004,"orig_fid":-1}},{"type":"Feature","id":93,"geometry":{"type":"Point","coordinates":[80.111157000000048,6.1238290000000575]},"properties":{"objectid":93,"name":"AVENRA BEACH HOTEL","address":"NO 714, NARIGAMA HIKKADUWA","rooms":62,"district":"Galle","aga_division":"Hikkaduwa","ps_mc_uc":"Hikkaduwa Divisional Secretariat","logitiute":80.111156999999992,"latitude":6.1238289999999997,"orig_fid":-1}},{"type":"Feature","id":94,"geometry":{"type":"Point","coordinates":[79.931298000000083,6.6535080000000448]},"properties":{"objectid":94,"name":"THE PRIVILEGE","address":"260,SAMANTHARA ROAD,MOLLIGODA,WADDUWA.","rooms":25,"district":"Kalutara","aga_division":"Panadura Pradeshiya Sabha","ps_mc_uc":"Panadura Divisional Secretariat","logitiute":79.931297999999998,"latitude":6.6535080000000004,"orig_fid":-1}},{"type":"Feature","id":95,"geometry":{"type":"Point","coordinates":[79.857376000000045,7.265322000000026]},"properties":{"objectid":95,"name":"SEA GARDEN HOTEL","address":"ETHUKALA,NEGOMBO","rooms":27,"district":"Gampaha","aga_division":"Gampaha","ps_mc_uc":"Negombo Divisional Secretariat","logitiute":79.857376000000002,"latitude":7.2653220000000003,"orig_fid":-1}},{"type":"Feature","id":96,"geometry":{"type":"Point","coordinates":[80.762340000000052,6.9634540000000698]},"properties":{"objectid":96,"name":"THE ROCK","address":"60,UNIQUE VIEW RD,NUWARAELIYA","rooms":10,"district":"Nuwara Eliya","aga_division":"Nuwara Eliya","ps_mc_uc":"Nuwara Eliya Divisional Secretariat","logitiute":80.762339999999995,"latitude":6.9634540000000005,"orig_fid":-1}},{"type":"Feature","id":97,"geometry":{"type":"Point","coordinates":[79.904795000000036,6.9681350000000748]},"properties":{"objectid":97,"name":"SARASA HOTEL","address":"937 KANDY ROAD,WEDAMULLA,KELANIYA","rooms":19,"district":"Gampaha","aga_division":"Gampaha","ps_mc_uc":"Kelaniya Divisional Secretariat","logitiute":79.904795000000007,"latitude":6.9681349999999993,"orig_fid":-1}},{"type":"Feature","id":98,"geometry":{"type":"Point","coordinates":[79.815459000000033,7.4177300000000628]},"properties":{"objectid":98,"name":"SANMALI BEACH HOTEL","address":"BEACH ROAD,MARAWILA","rooms":20,"district":"Puttalam","aga_division":"Puttalam Pradeshiya Sabha","ps_mc_uc":"Mahawa Divisional Secretariat","logitiute":79.81545899999999,"latitude":7.4177299999999997,"orig_fid":-1}},{"type":"Feature","id":99,"geometry":{"type":"Point","coordinates":[81.329274000000055,6.4090720000000374]},"properties":{"objectid":99,"name":"ROBINSON HOTEL","address":"82,TISSA ROAD,KATHARAGAMA","rooms":19,"district":"Moneragala","aga_division":"Hambantota","ps_mc_uc":"Katharagama Divisional Secretariat","logitiute":81.329273999999998,"latitude":6.4090720000000001,"orig_fid":-1}},{"type":"Feature","id":100,"geometry":{"type":"Point","coordinates":[79.850427000000082,6.9085340000000315]},"properties":{"objectid":100,"name":"RENUKA CITY HOTEL","address":"326,GALLE ROAD,COLOMBO 3","rooms":40,"district":"Colombo","aga_division":"Colombo","ps_mc_uc":"Colombo Divisional Secretariat","logitiute":79.850426999999996,"latitude":6.9085340000000004,"orig_fid":-1}},{"type":"Feature","id":101,"geometry":{"type":"Point","coordinates":[80.630297000000041,7.2970240000000217]},"properties":{"objectid":101,"name":"THE SWISS RESIDENCE","address":"NO:23,BAHIRAWAKANDA,KANDY","rooms":40,"district":"Kandy","aga_division":"Kandy","ps_mc_uc":"Gagawata","logitiute":80.630296999999999,"latitude":7.2970239999999995,"orig_fid":-1}},{"type":"Feature","id":102,"geometry":{"type":"Point","coordinates":[80.034545000000037,6.3083050000000753]},"properties":{"objectid":102,"name":"VILLA RANMENIKA","address":"GALLE ROAD, AHUNGALLA.","rooms":14,"district":"Galle","aga_division":"Galle","ps_mc_uc":"Balapitiya Divisional Secretariat","logitiute":80.034544999999994,"latitude":6.3083049999999998,"orig_fid":-1}},{"type":"Feature","id":103,"geometry":{"type":"Point","coordinates":[80.036511000000075,6.263385000000028]},"properties":{"objectid":103,"name":"MICHELLE BOUTIQUE HOTEL","address":"432,GALLE ROAD,BALAPITIYA","rooms":10,"district":"Galle","aga_division":"Galle","ps_mc_uc":"Galle Divisional Secretariat","logitiute":80.036511000000004,"latitude":6.2633850000000004,"orig_fid":-1}},{"type":"Feature","id":104,"geometry":{"type":"Point","coordinates":[80.57682600000004,7.3191870000000563]},"properties":{"objectid":104,"name":"TREE OF LIFE","address":"YAHALATENNA,BARIGAMA,WERELLAGAMA,KANDY.","rooms":43,"district":"Kandy","aga_division":"Kandy","ps_mc_uc":"Harispattuwa Divisional Secretariat","logitiute":80.576826000000011,"latitude":7.3191869999999994,"orig_fid":-1}},{"type":"Feature","id":105,"geometry":{"type":"Point","coordinates":[79.840640000000064,7.2279080000000704]},"properties":{"objectid":105,"name":"CATAMARAN BEACH HOTEL","address":"NO: 209, LEWIS PLACE, NEGOMBO","rooms":46,"district":"Gampaha","aga_division":"Jaffna","ps_mc_uc":"Negombo Divisional Secretariat","logitiute":79.840639999999993,"latitude":7.2279080000000002,"orig_fid":-1}},{"type":"Feature","id":106,"geometry":{"type":"Point","coordinates":[80.72388200000006,7.3933030000000599]},"properties":{"objectid":106,"name":"MADULKELLE TEA & ECO LODGE","address":"RICHLAND ROAD, MADULKELLE.","rooms":11,"district":"Kandy","aga_division":"Kandy","ps_mc_uc":"Kandy Divisional Secretariat","logitiute":80.723882000000003,"latitude":7.3933030000000004,"orig_fid":-1}},{"type":"Feature","id":107,"geometry":{"type":"Point","coordinates":[79.977927000000079,6.4539290000000733]},"properties":{"objectid":107,"name":"EARLS REEF BERUWALA","address":"NO. 91/22,MARADANA ROAD,MORAGALLA,BERUWALA.","rooms":54,"district":"Kalutara","aga_division":"Beruwala Pradeshiya Sabha","ps_mc_uc":"Beruwala Divisional Secretariat","logitiute":79.977927000000008,"latitude":6.4539289999999996,"orig_fid":-1}},{"type":"Feature","id":108,"geometry":{"type":"Point","coordinates":[79.881579000000045,7.1657600000000343]},"properties":{"objectid":108,"name":"HOTEL GOODWOOD PLAZA","address":"CANADA FRIENDSHIP ROAD,KATUNAYAKE.","rooms":32,"district":"Gampaha","aga_division":"Katana Pradeshiya Sabha","ps_mc_uc":"Katana Divisional Secretariat","logitiute":79.881579000000002,"latitude":7.1657600000000006,"orig_fid":-1}},{"type":"Feature","id":109,"geometry":{"type":"Point","coordinates":[81.55935530000005,7.9267033000000424]},"properties":{"objectid":109,"name":"UGA BAY RESORT & SPA","address":"COCONUT BOARD ROAD,KALKUDAH,PASSIKUDAH.","rooms":48,"district":"Batticaloa","aga_division":"Kalkudha","ps_mc_uc":"Valaichchenai Divisional Secretariat","logitiute":81.559355299999993,"latitude":7.9267033000000007,"orig_fid":-1}},{"type":"Feature","id":110,"geometry":{"type":"Point","coordinates":[80.724123000000077,7.9928610000000617]},"properties":{"objectid":110,"name":"SAUNTER PARADISE HOTEL","address":"TRINCOMALEE ROAD, AWDANGAWA, KIMBISSA, HABARANA","rooms":10,"district":"Matale","aga_division":"Dambulla Pradeshiya Sabha","ps_mc_uc":"Dambulla Divisional Secretariat","logitiute":80.724123000000006,"latitude":7.9928609999999995,"orig_fid":-1}},{"type":"Feature","id":111,"geometry":{"type":"Point","coordinates":[81.324962000000085,6.4002630000000522]},"properties":{"objectid":111,"name":"OKRIN HOTEL","address":"NO 110,DETAGAMUWA,KATHARAGAMA","rooms":16,"district":"Moneragala","aga_division":"Katharagama","ps_mc_uc":"Katharagama Divisional Secretariat","logitiute":81.324961999999999,"latitude":6.4002629999999998,"orig_fid":-1}},{"type":"Feature","id":112,"geometry":{"type":"Point","coordinates":[80.028005000000064,9.6708820000000628]},"properties":{"objectid":112,"name":"JAFFNA HERITAGE HOTEL","address":"NO 195,TEMPLE ROAD,NALLUR,JAFFNA","rooms":10,"district":"Jaffna","aga_division":"Jaffna","ps_mc_uc":"Jaffna Divisional Secretariat","logitiute":80.028005000000007,"latitude":9.6708820000000006,"orig_fid":-1}},{"type":"Feature","id":113,"geometry":{"type":"Point","coordinates":[80.124388000000067,7.7386710000000676]},"properties":{"objectid":113,"name":"BUDDIMA SAMUDRA","address":"PUTTALAM ROAD,NIKAWERATIYA","rooms":14,"district":"Kurunegala","aga_division":"Nikaweratiya Pradeshiya Sabha","ps_mc_uc":"Nikaweratiya Divisional Secretariat","logitiute":80.12438800000001,"latitude":7.7386710000000001,"orig_fid":-1}},{"type":"Feature","id":114,"geometry":{"type":"Point","coordinates":[80.627342000000056,7.2922340000000645]},"properties":{"objectid":114,"name":"AMAARA SKY HOTEL","address":"72/22, A. B. DAMUNUPOLA MAWATHA, KANDY.","rooms":12,"district":"Kandy","aga_division":"Kandy","ps_mc_uc":"Kandy Divisional Secretariat","logitiute":80.627341999999999,"latitude":7.2922340000000005,"orig_fid":-1}},{"type":"Feature","id":115,"geometry":{"type":"Point","coordinates":[80.964044000000058,6.3845220000000609]},"properties":{"objectid":115,"name":"HOTEL SOBANA","address":"KIRIIBBANWEWA, SEVANAGALA, EMBILIPITIYA.","rooms":17,"district":"Ratnapura","aga_division":"Thanamalwila Pradeshiya Sabha","ps_mc_uc":"Sevanagala Divisional Secretariat","logitiute":80.964044000000001,"latitude":6.3845220000000005,"orig_fid":-1}},{"type":"Feature","id":116,"geometry":{"type":"Point","coordinates":[80.735044000000073,7.9459320000000275]},"properties":{"objectid":116,"name":"FRESCO WATER VILLA","address":"FRESCO WATER VILLA (PVT) LTD,SIGIRIYA ROAD,KIMBISSA","rooms":36,"district":"Matale","aga_division":"Dambulla Pradeshiya Sabha","ps_mc_uc":"Dambulla Divisional Secretariat","logitiute":80.735044000000002,"latitude":7.945932,"orig_fid":-1}},{"type":"Feature","id":117,"geometry":{"type":"Point","coordinates":[81.135534000000064,8.7718570000000682]},"properties":{"objectid":117,"name":"JUNGLE BEACH RESORT","address":"27TH KM POST, PULMUDEI ROAD, KUCHCHAVELI, TRINCOMALEE","rooms":48,"district":"Trincomalee","aga_division":"Kuchchaveli","ps_mc_uc":"Kuchchaveli Divisional Secretariat","logitiute":81.135533999999993,"latitude":8.7718570000000007,"orig_fid":-1}},{"type":"Feature","id":118,"geometry":{"type":"Point","coordinates":[81.569581000000085,7.9259520000000521]},"properties":{"objectid":118,"name":"AMAYA BEACH PASSIKUDAH","address":"NATIONAL HOLIDAY RESORT, PASSIKUDAH, KALKUDAH","rooms":126,"district":"Batticaloa","aga_division":"Kalkudha","ps_mc_uc":"Koralai Pattu Divisional Secretariat","logitiute":81.569580999999999,"latitude":7.9259520000000006,"orig_fid":-1}},{"type":"Feature","id":119,"geometry":{"type":"Point","coordinates":[80.016663000000051,9.6663500000000226]},"properties":{"objectid":119,"name":"SUBHAS HOTEL","address":"49, VICTORIA ROAD, JAFFNA","rooms":11,"district":"Jaffna","aga_division":"Jaffna","ps_mc_uc":"Jaffna Divisional Secretariat","logitiute":80.016662999999994,"latitude":9.6663499999999996,"orig_fid":-1}},{"type":"Feature","id":120,"geometry":{"type":"Point","coordinates":[79.841109000000074,7.2329760000000647]},"properties":{"objectid":120,"name":"HOTEL J","address":"331/1, LEWIS PLACE, NEGOMBO.","rooms":35,"district":"Gampaha","aga_division":"Negombo","ps_mc_uc":"Negombo Divisional Secretariat","logitiute":79.841109000000003,"latitude":7.2329759999999998,"orig_fid":-1}},{"type":"Feature","id":121,"geometry":{"type":"Point","coordinates":[79.824493000000075,9.0287110000000439]},"properties":{"objectid":121,"name":"SHELL COAST RESORT PVT LTD","address":"UVARY,PESALAI,MANNAR","rooms":11,"district":"Mannar","aga_division":"Jaffna","ps_mc_uc":"Jaffna Divisional Secretariat","logitiute":79.824493000000004,"latitude":9.0287110000000013,"orig_fid":-1}},{"type":"Feature","id":122,"geometry":{"type":"Point","coordinates":[80.240417000000036,6.0095330000000331]},"properties":{"objectid":122,"name":"THAPROBAN PAVILION RESORT & SPA","address":"YADDEHIMULLA, UNAWATUNA.","rooms":16,"district":"Galle","aga_division":"Habaraduwa","ps_mc_uc":"Habaraduwa Divisional Secretariat","logitiute":80.240416999999994,"latitude":6.0095330000000002,"orig_fid":-1}},{"type":"Feature","id":123,"geometry":{"type":"Point","coordinates":[80.734837300000038,7.9952951000000212]},"properties":{"objectid":123,"name":"CAMELLIA RESORT & SPA","address":"AUDANGAWA, KIMBISSA, SIGIRIYA.","rooms":60,"district":"Matale","aga_division":"Dambulla Pradeshiya Sabha","ps_mc_uc":"Dambulla Divisional Secretariat","logitiute":80.734837300000009,"latitude":7.9952951000000008,"orig_fid":-1}},{"type":"Feature","id":124,"geometry":{"type":"Point","coordinates":[79.756460000000061,8.2744670000000724]},"properties":{"objectid":124,"name":"DUTCH BAY RESORTS","address":"DUTCH BAY ISLAND,KALPITIYA","rooms":17,"district":"Puttalam","aga_division":"Kalpitiya Pradeshiya Sabha","ps_mc_uc":"Kalpitiya Divisional Secretariat","logitiute":79.756460000000004,"latitude":8.2744669999999996,"orig_fid":-1}},{"type":"Feature","id":125,"geometry":{"type":"Point","coordinates":[81.574945000000071,7.9258710000000292]},"properties":{"objectid":125,"name":"ANILANA-EASTERN DEVELOPMENT ENTERPRISES","address":"NO.14,TOURISM DEVELOPMENT ZONE,PASSIKUDHA,KALKUDHA.","rooms":47,"district":"Batticaloa","aga_division":"Batticaloa","ps_mc_uc":"Batticaloa Divisional Secretariat","logitiute":81.574945,"latitude":7.9258709999999999,"orig_fid":-1}},{"type":"Feature","id":126,"geometry":{"type":"Point","coordinates":[81.322712000000081,6.3609240000000682]},"properties":{"objectid":126,"name":"MAGAMPURA ECO VILLAGE RESORT","address":"KAWANTISSAPURA,KATARAGAMA ROAD,TISSAMAHARAMAYA","rooms":18,"district":"Hambantota","aga_division":"Thissamaharama","ps_mc_uc":"Thissamaharama Divisional Secretariat","logitiute":81.322711999999996,"latitude":6.3609239999999998,"orig_fid":-1}},{"type":"Feature","id":127,"geometry":{"type":"Point","coordinates":[80.382426000000066,5.9656040000000417]},"properties":{"objectid":127,"name":"GARTONS CAPE","address":"DENUWALA,AHANGAMA.","rooms":19,"district":"Galle","aga_division":"Weligama Pradeshiya Sabha","ps_mc_uc":"Weligama Divisional Secretariat","logitiute":80.382426000000009,"latitude":5.9656039999999999,"orig_fid":-1}},{"type":"Feature","id":128,"geometry":{"type":"Point","coordinates":[80.695354000000066,7.0571370000000684]},"properties":{"objectid":128,"name":"OAK RAY TEA BUSH","address":"PAHALA KADA VEEDIYA,RAMBODA","rooms":1,"district":"Nuwara Eliya","aga_division":"Nuwara Eliya","ps_mc_uc":"Nuwara Eliya Divisional Secretariat","logitiute":80.695354000000009,"latitude":7.057137,"orig_fid":-1}},{"type":"Feature","id":129,"geometry":{"type":"Point","coordinates":[81.704865000000041,7.7287280000000464]},"properties":{"objectid":129,"name":"HOTEL EAST LAGOON","address":"MUNAI LANE,UPPODAI LAKE ROAD,SINNA UPPODAI,BATICALOA","rooms":45,"district":"Batticaloa","aga_division":"Batticaloa","ps_mc_uc":"Batticaloa Divisional Secretariat","logitiute":81.704865000000012,"latitude":7.7287280000000003,"orig_fid":-1}},{"type":"Feature","id":130,"geometry":{"type":"Point","coordinates":[79.855167000000051,6.8956330000000321]},"properties":{"objectid":130,"name":"PEARL CITY HOTEL","address":"NO.17,BAUDDHALOKA MAWATHA,COLOMBO 04.","rooms":69,"district":"Colombo","aga_division":"Colombo","ps_mc_uc":"Colombo Divisional Secretariat","logitiute":79.855166999999994,"latitude":6.8956330000000001,"orig_fid":-1}},{"type":"Feature","id":131,"geometry":{"type":"Point","coordinates":[79.856054000000086,7.0519740000000297]},"properties":{"objectid":131,"name":"REEFS EDGE RESORTS","address":"NO 300,277/4,USWETAKEIYAWA","rooms":23,"district":"Gampaha","aga_division":"Wattala Pradeshiya Sabha","ps_mc_uc":"Wattala Divisional Secretariat","logitiute":79.856054,"latitude":7.0519739999999995,"orig_fid":-1}},{"type":"Feature","id":132,"geometry":{"type":"Point","coordinates":[79.826082000000042,7.6345060000000444]},"properties":{"objectid":132,"name":"ANANTAYA RESORT & SPA","address":"KAURKUPONE, BANGADENIYA,CHILAW.","rooms":74,"district":"Puttalam","aga_division":"AKKARAIPATTU","ps_mc_uc":"Akkaraipattu Divisional Secretariat","logitiute":79.826082,"latitude":7.634506,"orig_fid":-1}},{"type":"Feature","id":133,"geometry":{"type":"Point","coordinates":[80.918766000000062,6.7591460000000438]},"properties":{"objectid":133,"name":"MELHEIM RESORT","address":"LOWER BLACKWOOD,BERAGALA,HAPUTALE","rooms":14,"district":"Badulla","aga_division":"Haldummulla Pradeshiya Sabha","ps_mc_uc":"Haldummulla Divisional Secretariat","logitiute":80.918766000000005,"latitude":6.7591460000000003,"orig_fid":-1}},{"type":"Feature","id":134,"geometry":{"type":"Point","coordinates":[80.038594000000046,6.2910660000000576]},"properties":{"objectid":134,"name":"SHINAGAWA BEACH","address":"NO 30,OLD GURU NIWASA ROAD,BALAPITIYA","rooms":26,"district":"Galle","aga_division":"balapitiya","ps_mc_uc":"Balapitiya Divisional Secretariat","logitiute":80.038594000000003,"latitude":6.2910660000000007,"orig_fid":-1}},{"type":"Feature","id":135,"geometry":{"type":"Point","coordinates":[80.734361300000046,7.999196300000051]},"properties":{"objectid":135,"name":"ALIYA RESORT & SPA","address":"AUDANGAWA,KIMBISSA,SIGIRIYA.","rooms":96,"district":"Matale","aga_division":"Dambulla Pradeshiya Sabha","ps_mc_uc":"Dambulla Divisional Secretariat","logitiute":80.734361300000003,"latitude":7.9991963000000004,"orig_fid":-1}},{"type":"Feature","id":136,"geometry":{"type":"Point","coordinates":[80.418972000000053,8.3305890000000318]},"properties":{"objectid":136,"name":"RAJARATA HOTEL","address":"ROWING CLUB ROAD,ANURADHAPURA.","rooms":30,"district":"Anuradhapura","aga_division":"Anuradhapura","ps_mc_uc":"Anuradhapura East","logitiute":80.418971999999997,"latitude":8.3305889999999998,"orig_fid":-1}},{"type":"Feature","id":137,"geometry":{"type":"Point","coordinates":[81.568689000000063,7.9218890000000215]},"properties":{"objectid":137,"name":"PASSI BAY HOTEL","address":"103,PASSIKUDAH ROAD,PASSIKUDAH,VALACHCHENA.","rooms":22,"district":"Batticaloa","aga_division":"Batticaloa","ps_mc_uc":"Koralai Pattu Divisional Secretariat","logitiute":81.568689000000006,"latitude":7.9218890000000002,"orig_fid":-1}},{"type":"Feature","id":138,"geometry":{"type":"Point","coordinates":[80.319034000000045,5.9908020000000306]},"properties":{"objectid":138,"name":"THE LONG BEACH RESORT & SPA","address":"KOGGALA,HABARADUWA,SRI LANKA.","rooms":194,"district":"Galle","aga_division":"Habaraduwa","ps_mc_uc":"Habaraduwa Divisional Secretariat","logitiute":80.319034000000002,"latitude":5.9908020000000004,"orig_fid":-1}},{"type":"Feature","id":139,"geometry":{"type":"Point","coordinates":[80.41685300000006,8.3523000000000707]},"properties":{"objectid":139,"name":"AVASTA RESORT AND SPA","address":"NO 92,NIWANTHAKA CHETHIYA ROAD,ANURADHAPURAYA","rooms":13,"district":"Anuradhapura","aga_division":"Anuradhapura","ps_mc_uc":"Anuradhapura East","logitiute":80.416852999999989,"latitude":8.3522999999999996,"orig_fid":-1}},{"type":"Feature","id":140,"geometry":{"type":"Point","coordinates":[79.841826558000037,7.2362224010000205]},"properties":{"objectid":140,"name":"PLEDGE 3","address":"NO:03,ETHTHUKALA,NEGOMBO","rooms":14,"district":"Gampaha","aga_division":"Gampaha","ps_mc_uc":"Gampaha Divisional Secretariat","logitiute":79.841826560000001,"latitude":7.2362223999999999,"orig_fid":-1}},{"type":"Feature","id":141,"geometry":{"type":"Point","coordinates":[80.672879300000034,5.960301300000026]},"properties":{"objectid":141,"name":"UTMT RESORT","address":"TANGALLE ROAD,BATTHEEGAMA WEST,DIKWELLA","rooms":26,"district":"Matara","aga_division":"Dickwella","ps_mc_uc":"Dickwella Divisional Secretariat","logitiute":80.672879299999991,"latitude":5.9603013000000002,"orig_fid":-1}},{"type":"Feature","id":142,"geometry":{"type":"Point","coordinates":[79.83914500000003,7.3001990000000205]},"properties":{"objectid":142,"name":"SURIYA LUXURY RESORTS","address":"KAMMALA,WAIKKAL.","rooms":56,"district":"Puttalam","aga_division":"Wennappuwa Pradeshiya Sabha","ps_mc_uc":"Wennappuwa Divisional Secretariat","logitiute":79.839145000000002,"latitude":7.3001990000000001,"orig_fid":-1}},{"type":"Feature","id":143,"geometry":{"type":"Point","coordinates":[79.865556300000037,6.9101903000000675]},"properties":{"objectid":143,"name":"CITRUS WASKADUWA","address":"427,SAMANTHARA ROAD,KUDA WASKADUWA,WASKADUWA","rooms":150,"district":"Kalutara","aga_division":"Kalutara Pradeshiya Sabha","ps_mc_uc":"Kalutara Divisional Secretariat","logitiute":79.865556299999994,"latitude":6.9101903,"orig_fid":-1}},{"type":"Feature","id":144,"geometry":{"type":"Point","coordinates":[81.856152300000076,7.321361300000035]},"properties":{"objectid":144,"name":"THOMPUKANDAM VILLAGE RESORT","address":"NO 72,ADDAPALAM,NINTHAVUR.","rooms":10,"district":"Ampara","aga_division":"Ampara","ps_mc_uc":"Ninthavur Divisional Secretariat","logitiute":81.856152299999991,"latitude":7.3213612999999995,"orig_fid":-1}},{"type":"Feature","id":145,"geometry":{"type":"Point","coordinates":[79.921694000000059,6.6739820000000236]},"properties":{"objectid":145,"name":"LIFE AYURVEDA RESORT","address":"NO:18,RATNAYAKE PLACE,THALPITIYA SOUTH,WADDUWA","rooms":19,"district":"Kalutara","aga_division":"Kalutara Pradeshiya Sabha","ps_mc_uc":"Kalutara Divisional Secretariat","logitiute":79.921694000000002,"latitude":6.6739819999999996,"orig_fid":-1}},{"type":"Feature","id":146,"geometry":{"type":"Point","coordinates":[80.764481000000046,6.9670750000000226]},"properties":{"objectid":146,"name":"ARALIYA GREEN HILLS HOTEL","address":"NO:10,GLEN FALL ROAD,NUWRA ELIYA","rooms":107,"district":"Nuwara Eliya","aga_division":"Nuwara Eliya","ps_mc_uc":"Nuwara Eliya Divisional Secretariat","logitiute":80.764480999999989,"latitude":6.9670750000000004,"orig_fid":-1}},{"type":"Feature","id":147,"geometry":{"type":"Point","coordinates":[80.009107000000085,6.3840610000000311]},"properties":{"objectid":147,"name":"WHISPERING PALMS HOTEL","address":"GALLE ROAD,YALEGAMA,INDURUWA","rooms":30,"district":"Galle","aga_division":"Galle","ps_mc_uc":"Galle Divisional Secretariat","logitiute":80.009107,"latitude":6.384061,"orig_fid":-1}},{"type":"Feature","id":148,"geometry":{"type":"Point","coordinates":[81.563460000000077,7.9246900000000551]},"properties":{"objectid":148,"name":"MARINA PASSIKUDAH","address":"NO: 07, COCONUT BOARD ROAD, KALKUDAH, PASSIKUDAH","rooms":26,"district":"Batticaloa","aga_division":"Kalkudha","ps_mc_uc":"Koralai Pattu Divisional Secretariat","logitiute":81.563460000000006,"latitude":7.92469,"orig_fid":-1}},{"type":"Feature","id":149,"geometry":{"type":"Point","coordinates":[81.186779000000058,8.7071000000000254]},"properties":{"objectid":149,"name":"ANILANA HOTEL AND PROPERTIES LTD","address":"NO.1508, WARD NO.04, IRAKKANDI, NILAVELI","rooms":54,"district":"Trincomalee","aga_division":"Kuchchaveli","ps_mc_uc":"Kuchchaveli Divisional Secretariat","logitiute":81.186779000000001,"latitude":8.7071000000000005,"orig_fid":-1}},{"type":"Feature","id":150,"geometry":{"type":"Point","coordinates":[81.313441000000068,6.263005000000021]},"properties":{"objectid":150,"name":"THAULLE RESORT","address":"NO.35 MAHADEIRA,YODAKANDIYA,TISSAMAHARAMA","rooms":28,"district":"Hambantota","aga_division":"Thissamaharama","ps_mc_uc":"Hambantota Divisional Secretariat","logitiute":81.313440999999997,"latitude":6.2630049999999997,"orig_fid":-1}},{"type":"Feature","id":151,"geometry":{"type":"Point","coordinates":[79.73630600000007,8.2280880000000707]},"properties":{"objectid":151,"name":"DIVYAA LAGOON","address":"DUTCH BAY,KANDAKULIYA,KALPITIYA","rooms":14,"district":"Puttalam","aga_division":"Kalpitiya Pradeshiya Sabha","ps_mc_uc":"Kalpitiya Divisional Secretariat","logitiute":79.736305999999999,"latitude":8.2280879999999996,"orig_fid":-1}},{"type":"Feature","id":152,"geometry":{"type":"Point","coordinates":[80.03642300000007,7.1586020000000303]},"properties":{"objectid":152,"name":"THE COVANRO","address":"NO.353.AIRPORT ROAD,NAIWALA,VEYANGODA.","rooms":39,"district":"Gampaha","aga_division":"Minuwangoda Pradeshiya Sabha","ps_mc_uc":"Minuwangoda Divisional Secretariat","logitiute":80.036422999999999,"latitude":7.1586020000000001,"orig_fid":-1}},{"type":"Feature","id":153,"geometry":{"type":"Point","coordinates":[80.411151000000075,5.9593460000000391]},"properties":{"objectid":153,"name":"CAPE WELIGAMA","address":"331, KAPPARATHOTA ROAD, KALUKANDA, WELIGAMA.","rooms":40,"district":"Matara","aga_division":"Weligama Pradeshiya Sabha","ps_mc_uc":"Weligama Divisional Secretariat","logitiute":80.411151000000004,"latitude":5.959346,"orig_fid":-1}},{"type":"Feature","id":154,"geometry":{"type":"Point","coordinates":[80.036088000000063,6.2853640000000723]},"properties":{"objectid":154,"name":"CALAMANSI COVE BY JETWING","address":"62, WIJERAMA ROAD, BRAHAKMANAWATTE, BALAPITIYA","rooms":14,"district":"Galle","aga_division":"balapitiya","ps_mc_uc":"Balapitiya Divisional Secretariat","logitiute":80.036088000000007,"latitude":6.2853640000000004,"orig_fid":-1}},{"type":"Feature","id":155,"geometry":{"type":"Point","coordinates":[79.858337000000063,6.9173580000000356]},"properties":{"objectid":155,"name":"RESIDENCE BY UGA ESCAPES","address":"NO.20,PARK SYREET,COLOMBO 02","rooms":11,"district":"Colombo","aga_division":"Colombo","ps_mc_uc":"Colombo Divisional Secretariat","logitiute":79.858337000000006,"latitude":6.9173580000000001,"orig_fid":-1}},{"type":"Feature","id":156,"geometry":{"type":"Point","coordinates":[79.921460000000081,6.6761260000000675]},"properties":{"objectid":156,"name":"TAPROBANA RESORT WADDUWA","address":"NO.354/16, RATHNAYAKE ROAD, THALPITIYA,WADDUWA.","rooms":27,"district":"Kalutara","aga_division":"Panadura Pradeshiya Sabha","ps_mc_uc":"Panadura Divisional Secretariat","logitiute":79.92146000000001,"latitude":6.676126,"orig_fid":-1}},{"type":"Feature","id":157,"geometry":{"type":"Point","coordinates":[80.734800000000064,7.9488590000000272]},"properties":{"objectid":157,"name":"ROYAL RETREAT SIGIRIYA","address":"NO-110, T.B TENNAKOON MAWATHA KIBISSA SIGIRIYA","rooms":14,"district":"Matale","aga_division":"Dambulla Pradeshiya Sabha","ps_mc_uc":"Dambulla Divisional Secretariat","logitiute":80.734800000000007,"latitude":7.9488590000000006,"orig_fid":-1}},{"type":"Feature","id":158,"geometry":{"type":"Point","coordinates":[80.69564900000006,7.2205220000000736]},"properties":{"objectid":158,"name":"GALAVILLA BOUTIQUE HOTEL & SPA","address":"AGAWATTA ESTATE MORAGOLLA,THALATHUOYA KANDY","rooms":12,"district":"Kandy","aga_division":"Kandy","ps_mc_uc":"Pathahewaheta Divisional Secretariat","logitiute":80.695649000000003,"latitude":7.2205220000000008,"orig_fid":-1}},{"type":"Feature","id":159,"geometry":{"type":"Point","coordinates":[79.983237000000031,6.4489310000000728]},"properties":{"objectid":159,"name":"MUTHUMUNI AYURVEDA BEACH RESORT","address":"NO.80/24,BEACH SIDE,MORAGALLA,BERUWALA.","rooms":34,"district":"Kalutara","aga_division":"Beruwala Pradeshiya Sabha","ps_mc_uc":"Beruwala Divisional Secretariat","logitiute":79.983237000000003,"latitude":6.448931,"orig_fid":-1}},{"type":"Feature","id":160,"geometry":{"type":"Point","coordinates":[81.004945000000077,7.92789300000004]},"properties":{"objectid":160,"name":"RUINS CHAAYA","address":"NEW TOWN ROAD,POLONNARUWA.","rooms":12,"district":"Polonnaruwa","aga_division":"Polonnaruwa","ps_mc_uc":"Thamankaduwa Divisional Secretariat","logitiute":81.004945000000006,"latitude":7.9278930000000001,"orig_fid":-1}},{"type":"Feature","id":161,"geometry":{"type":"Point","coordinates":[80.437662000000046,5.9733230000000503]},"properties":{"objectid":161,"name":"W15 WELIGAMA","address":"506, NEW GALLE ROAD, PELHENA, WELIGAMA.","rooms":10,"district":"Matara","aga_division":"Weligama Pradeshiya Sabha","ps_mc_uc":"Weligama Divisional Secretariat","logitiute":80.437662000000003,"latitude":5.9733229999999997,"orig_fid":-1}},{"type":"Feature","id":162,"geometry":{"type":"Point","coordinates":[81.217883000000086,8.6150490000000559]},"properties":{"objectid":162,"name":"ANANTAMAA HOTEL","address":"NO.07(42),ALLES GARDEN,UPPUVELI,TRINCOMALEE","rooms":50,"district":"Trincomalee","aga_division":"Uppuveli Trinco Malee","ps_mc_uc":"Trincomalee Divisional Secretariat","logitiute":81.217883,"latitude":8.6150490000000008,"orig_fid":-1}},{"type":"Feature","id":163,"geometry":{"type":"Point","coordinates":[79.843264000000033,6.9343350000000328]},"properties":{"objectid":163,"name":"THE STEUART BY CITRUS","address":"NO-45,JANADHIPATHI MAWATHA,COLOMBO-01","rooms":50,"district":"Colombo","aga_division":"Colombo","ps_mc_uc":"Colombo Divisional Secretariat","logitiute":79.843263999999991,"latitude":6.9343349999999999,"orig_fid":-1}},{"type":"Feature","id":164,"geometry":{"type":"Point","coordinates":[79.919552000000067,6.6788630000000353]},"properties":{"objectid":164,"name":"LAYA BEACH HOTEL","address":"NO.286/3,GALLE ROAD,THALPITIYA-NORTH WADDUWA.","rooms":28,"district":"Kalutara","aga_division":"Panadura Pradeshiya Sabha","ps_mc_uc":"Panadura Divisional Secretariat","logitiute":79.919551999999996,"latitude":6.6788629999999998,"orig_fid":-1}},{"type":"Feature","id":165,"geometry":{"type":"Point","coordinates":[80.248263000000065,6.0113920000000576]},"properties":{"objectid":165,"name":"GLORIA GRAND HOTEL","address":"YADDEHIMULLA ROAD,UNAWATUNA","rooms":20,"district":"Galle","aga_division":"Habaraduwa","ps_mc_uc":"Habaraduwa Divisional Secretariat","logitiute":80.248262999999994,"latitude":6.0113920000000007,"orig_fid":-1}},{"type":"Feature","id":166,"geometry":{"type":"Point","coordinates":[81.215262000000052,8.6182380000000762]},"properties":{"objectid":166,"name":"AMARANTHE BAY RESORTS & SPA","address":"NO.101,ALLES GARDEN ROAD,UPPUVELI,TRINCOMALEE","rooms":27,"district":"Trincomalee","aga_division":"Trincomalee","ps_mc_uc":"Trincomalee Divisional Secretariat","logitiute":81.215261999999996,"latitude":8.6182379999999998,"orig_fid":-1}},{"type":"Feature","id":167,"geometry":{"type":"Point","coordinates":[79.849384000000043,7.0783650000000762]},"properties":{"objectid":167,"name":"THE BEACH BOUTIQUE","address":"NO.510/2,BIMPANDURA,PAMUNUGAMA.","rooms":12,"district":"Gampaha","aga_division":"Wattala Pradeshiya Sabha","ps_mc_uc":"Wattala Divisional Secretariat","logitiute":79.849384000000001,"latitude":7.0783649999999998,"orig_fid":-1}},{"type":"Feature","id":168,"geometry":{"type":"Point","coordinates":[80.529536000000064,5.9393380000000207]},"properties":{"objectid":168,"name":"AMALOH BY JETWING","address":"NO.39/6,1ST CROSS ROAD,POLHENA,MATARA.","rooms":21,"district":"Matara","aga_division":"Matara","ps_mc_uc":"Matara Divisional Secretariat","logitiute":80.529535999999993,"latitude":5.9393380000000002,"orig_fid":-1}},{"type":"Feature","id":169,"geometry":{"type":"Point","coordinates":[80.661498000000051,6.9414170000000581]},"properties":{"objectid":169,"name":"TALAWAKELA REST HOUSE","address":"KOTMALE ROAD,TALAWAKELA","rooms":10,"district":"Nuwara Eliya","aga_division":"Talawa Pradeshiya Sabha","ps_mc_uc":"Nuwara Eliya Divisional Secretariat","logitiute":80.661497999999995,"latitude":6.9414169999999995,"orig_fid":-1}},{"type":"Feature","id":170,"geometry":{"type":"Point","coordinates":[80.747583000000077,8.0009940000000483]},"properties":{"objectid":170,"name":"AMAARA FOREST HOTEL","address":"NO:115,INDIGASWEWA,SIGIRIYA.","rooms":40,"district":"Matale","aga_division":"Dambulla Pradeshiya Sabha","ps_mc_uc":"Dambulla Divisional Secretariat","logitiute":80.747583000000006,"latitude":8.0009940000000004,"orig_fid":-1}},{"type":"Feature","id":171,"geometry":{"type":"Point","coordinates":[80.256339000000082,6.0039650000000506]},"properties":{"objectid":171,"name":"HOTEL ROCK FORT","address":"GURUKANDA WATTA-DALAWELLA,UNAWATUNA","rooms":18,"district":"Galle","aga_division":"Habaraduwa","ps_mc_uc":"Habaraduwa Divisional Secretariat","logitiute":80.256338999999997,"latitude":6.003965,"orig_fid":-1}},{"type":"Feature","id":172,"geometry":{"type":"Point","coordinates":[80.33688200000006,5.9835880000000543]},"properties":{"objectid":172,"name":"SOUTH LAKE RESORT","address":"KATHALUWA, AHANGAMA","rooms":24,"district":"Galle","aga_division":"Habaraduwa","ps_mc_uc":"Habaraduwa Divisional Secretariat","logitiute":80.336882000000003,"latitude":5.9835880000000001,"orig_fid":-1}},{"type":"Feature","id":173,"geometry":{"type":"Point","coordinates":[81.296807000000058,6.2925730000000613]},"properties":{"objectid":173,"name":"HOTEL TAMARIND TREE","address":"MAHASENPURA,TISSAMAHARAMAYA","rooms":20,"district":"Hambantota","aga_division":"Thissamaharama","ps_mc_uc":"Thissamaharama Divisional Secretariat","logitiute":81.296807000000001,"latitude":6.2925730000000009,"orig_fid":-1}},{"type":"Feature","id":174,"geometry":{"type":"Point","coordinates":[80.779097000000036,6.9423300000000268]},"properties":{"objectid":174,"name":"BLACKPOOL HOTEL","address":"MAHAGASTHOTA HILL CLIMB, BLACKPOOL, NUWARAELIYA","rooms":50,"district":"Nuwara Eliya","aga_division":"Nuwara Eliya","ps_mc_uc":"Nuwara Eliya Divisional Secretariat","logitiute":80.779096999999993,"latitude":6.9423300000000001,"orig_fid":-1}},{"type":"Feature","id":175,"geometry":{"type":"Point","coordinates":[81.104838000000029,6.7548370000000659]},"properties":{"objectid":175,"name":"JETWING KADURUKETHA","address":"WELLAWAYA","rooms":25,"district":"Moneragala","aga_division":"Wellawaya","ps_mc_uc":"Wellawaya Divisional Secretariat","logitiute":81.104838000000001,"latitude":6.7548370000000002,"orig_fid":-1}},{"type":"Feature","id":176,"geometry":{"type":"Point","coordinates":[80.013588000000084,9.6649150000000645]},"properties":{"objectid":176,"name":"JETWING JAFFNA","address":"NO:37,MAHATHMAGANDI ROAD,JAFFNA.","rooms":53,"district":"Jaffna","aga_division":"Jaffna","ps_mc_uc":"Jaffna Divisional Secretariat","logitiute":80.013587999999999,"latitude":9.6649149999999988,"orig_fid":-1}},{"type":"Feature","id":177,"geometry":{"type":"Point","coordinates":[80.656847000000084,5.9571000000000254]},"properties":{"objectid":177,"name":"ANI VILLAS","address":"KALUKATIYAWATTA,MALIYADDA,DICKWELLA","rooms":15,"district":"Matara","aga_division":"Dickwella","ps_mc_uc":"Dickwella Divisional Secretariat","logitiute":80.656846999999999,"latitude":5.9571000000000005,"orig_fid":-1}},{"type":"Feature","id":178,"geometry":{"type":"Point","coordinates":[80.005415000000085,6.3954970000000344]},"properties":{"objectid":178,"name":"ROCK SIDE BEACH RESORT","address":"GALLE ROAD, ATHURUWELLA, INDURUWA","rooms":18,"district":"Galle","aga_division":"Bentota Pradeshiya Sabha","ps_mc_uc":"Benthota Divisional Secretariat","logitiute":80.005414999999999,"latitude":6.3954970000000007,"orig_fid":-1}},{"type":"Feature","id":179,"geometry":{"type":"Point","coordinates":[81.199032600000066,8.684086700000023]},"properties":{"objectid":179,"name":"CARDAMON HOTEL NILAVELI","address":"WARD 2, NILAVELI, TRINCOMALEE","rooms":22,"district":"Trincomalee","aga_division":"Kuchchaveli","ps_mc_uc":"Kuchchaveli Divisional Secretariat","logitiute":81.199032599999995,"latitude":8.6840866999999999,"orig_fid":-1}},{"type":"Feature","id":180,"geometry":{"type":"Point","coordinates":[81.570500400000071,7.9258409000000256]},"properties":{"objectid":180,"name":"PASSI VILLAS PASSIKUDAH","address":"NO 12, LAND SIDE, KALKUDAH, PASSIKUDAH","rooms":50,"district":"Batticaloa","aga_division":"Kalkudha","ps_mc_uc":"Koralai Pattu Divisional Secretariat","logitiute":81.5705004,"latitude":7.9258408999999999,"orig_fid":-1}},{"type":"Feature","id":181,"geometry":{"type":"Point","coordinates":[80.241116000000034,6.0111710000000471]},"properties":{"objectid":181,"name":"VILLA THAWTHISA","address":"USWATHTHA IHALA, YADDEHIMULLA, UNAWATUNA","rooms":23,"district":"Galle","aga_division":"Habaraduwa","ps_mc_uc":"Habaraduwa Divisional Secretariat","logitiute":80.241116000000005,"latitude":6.011171,"orig_fid":-1}},{"type":"Feature","id":182,"geometry":{"type":"Point","coordinates":[79.842144500000074,7.2503138000000718]},"properties":{"objectid":182,"name":"BEACON BEACH NEGOMBO","address":"185, PORUTHOTA ROAD, NEGAMBO.","rooms":44,"district":"Gampaha","aga_division":"Negombo","ps_mc_uc":"Negombo Divisional Secretariat","logitiute":79.842144500000003,"latitude":7.2503137999999998,"orig_fid":-1}},{"type":"Feature","id":183,"geometry":{"type":"Point","coordinates":[79.85338500000006,6.9006510000000389]},"properties":{"objectid":183,"name":"PLATINUM-1","address":"NO 1, BAGATALLE ROAD, COLOMBO 03","rooms":40,"district":"Colombo","aga_division":"Colombo","ps_mc_uc":"Colombo Divisional Secretariat","logitiute":79.853385000000003,"latitude":6.9006509999999999,"orig_fid":-1}},{"type":"Feature","id":184,"geometry":{"type":"Point","coordinates":[79.945675000000051,6.6162870000000567]},"properties":{"objectid":184,"name":"CLUB WASKADUWA BEACH","address":"211, JAYANTHI MAWATHA, MAHA WASKADUWA NORTH, WASKADUWA","rooms":54,"district":"Kalutara","aga_division":"Kalutara","ps_mc_uc":"Kalutara Divisional Secretariat","logitiute":79.945674999999994,"latitude":6.6162869999999998,"orig_fid":-1}},{"type":"Feature","id":185,"geometry":{"type":"Point","coordinates":[79.962694800000065,6.5659178000000225]},"properties":{"objectid":185,"name":"ANANTARA KALUTARA RESORT","address":"ST. SEBASTIAN'S ROAD, KATUKURUNDA, KALUTARA","rooms":141,"district":"Kalutara","aga_division":"Kalutara Pradeshiya Sabha","ps_mc_uc":"Kalutara Divisional Secretariat","logitiute":79.962694799999994,"latitude":6.5659178000000002,"orig_fid":-1}},{"type":"Feature","id":186,"geometry":{"type":"Point","coordinates":[80.736974000000032,7.9939960000000383]},"properties":{"objectid":186,"name":"SIGIRIYA JUNGLES","address":"AUDANGAWA, KIBISSA, SIGIRIYA","rooms":60,"district":"Matale","aga_division":"Dambulla Pradeshiya Sabha","ps_mc_uc":"Dambulla Divisional Secretariat","logitiute":80.736974000000004,"latitude":7.9939960000000001,"orig_fid":-1}},{"type":"Feature","id":187,"geometry":{"type":"Point","coordinates":[79.85931400000004,7.2713071000000582]},"properties":{"objectid":187,"name":"KARUNAKARALA RESORT","address":"JESUNASARENU ROAD, THOPPUTHOTA, WAIKKALA","rooms":17,"district":"Puttalam","aga_division":"Wennappuwa Pradeshiya Sabha","ps_mc_uc":"Wennappuwa Divisional Secretariat","logitiute":79.859313999999998,"latitude":7.2713071000000005,"orig_fid":-1}},{"type":"Feature","id":188,"geometry":{"type":"Point","coordinates":[79.843874600000049,6.9340366000000699]},"properties":{"objectid":188,"name":"ZMAX FAIRWAY COLOMBO","address":"NO 7, HOSPITAL STREET, COLOMBO 01","rooms":181,"district":"Colombo","aga_division":"Colombo","ps_mc_uc":"Colombo Divisional Secretariat","logitiute":79.843874600000007,"latitude":6.9340365999999998,"orig_fid":-1}},{"type":"Feature","id":189,"geometry":{"type":"Point","coordinates":[79.859354900000085,7.1856420000000298]},"properties":{"objectid":189,"name":"GRANDEEZA LUXURY HOTEL &BANQUETS","address":"772, COLOMBO ROAD, KURANA, NEGOMBO","rooms":40,"district":"Gampaha","aga_division":"Negombo","ps_mc_uc":"Negombo Divisional Secretariat","logitiute":79.8593549,"latitude":7.1856419999999996,"orig_fid":-1}},{"type":"Feature","id":190,"geometry":{"type":"Point","coordinates":[79.850688000000048,7.351218000000074]},"properties":{"objectid":190,"name":"AVENRA GANGARA HOTEL","address":"J.J. PINTO MAWATHA, NEW ROAD, WENNAPUWA","rooms":21,"district":"Puttalam","aga_division":"Wennappuwa Pradeshiya Sabha","ps_mc_uc":"Wennappuwa Divisional Secretariat","logitiute":79.850688000000005,"latitude":7.3512180000000003,"orig_fid":-1}},{"type":"Feature","id":191,"geometry":{"type":"Point","coordinates":[81.830049000000031,6.8440210000000548]},"properties":{"objectid":191,"name":"THE BLUE WAVE HOTEL","address":"THE BLUE WAVE HOTEL ROAD, ARUGAMBAY , POTTUVIL 05","rooms":31,"district":"Ampara","aga_division":"MC","ps_mc_uc":"Pottuvil Divisional Secretariat","logitiute":81.830049000000002,"latitude":6.8440210000000006,"orig_fid":-1}},{"type":"Feature","id":192,"geometry":{"type":"Point","coordinates":[81.277329700000053,6.285246900000061]},"properties":{"objectid":192,"name":"THE RAIN TREE HOTEL","address":"DEBARAWEWA ESTATE, SANDUNGAMA ROAD, TISSAMAHARAMA","rooms":22,"district":"Hambantota","aga_division":"Hambantota","ps_mc_uc":"Hambantota Divisional Secretariat","logitiute":81.277329699999996,"latitude":6.2852468999999997,"orig_fid":-1}},{"type":"Feature","id":193,"geometry":{"type":"Point","coordinates":[79.867102000000045,6.8331580000000258]},"properties":{"objectid":193,"name":"ANARVA - SIDDHALEPA","address":"348, GALLE ROAD, MOUNT LAVINIA","rooms":98,"district":"Colombo","aga_division":"Colombo","ps_mc_uc":"Ratmalana Divisional Secretariat","logitiute":79.867101999999988,"latitude":6.8331580000000001,"orig_fid":-1}},{"type":"Feature","id":194,"geometry":{"type":"Point","coordinates":[79.850687400000083,6.9117582000000652]},"properties":{"objectid":194,"name":"MOVENPICK HOTEL COLOMBO","address":"NO.24 DARMAPALA MAWATHA, COLOMBO 03","rooms":219,"district":"Colombo","aga_division":"Colombo","ps_mc_uc":"Colombo Divisional Secretariat","logitiute":79.850687399999998,"latitude":6.9117581999999995,"orig_fid":-1}},{"type":"Feature","id":195,"geometry":{"type":"Point","coordinates":[79.853611000000058,6.9000920000000292]},"properties":{"objectid":195,"name":"MANDARINA COLOMBO","address":"433, GALLE ROAD, COLOMBO 03","rooms":72,"district":"Colombo","aga_division":"Colombo","ps_mc_uc":"Thimbirigasyaya Divisional Secretariat","logitiute":79.853611000000001,"latitude":6.9000920000000008,"orig_fid":-1}},{"type":"Feature","id":196,"geometry":{"type":"Point","coordinates":[79.906137000000058,6.7034300000000258]},"properties":{"objectid":196,"name":"JIE JIE BEACH BY JETWING","address":"NO.150,SAMUDRA MAWATHA,UYANKALEWATTA,PANADURA","rooms":180,"district":"Kalutara","aga_division":"Panadura Pradeshiya Sabha","ps_mc_uc":"Panadura Divisional Secretariat","logitiute":79.906137000000001,"latitude":6.70343,"orig_fid":-1}},{"type":"Feature","id":197,"geometry":{"type":"Point","coordinates":[80.048715000000072,6.2430210000000557]},"properties":{"objectid":197,"name":"R DEGREES HOTEL","address":"NO 457,GALLE ROAD,AMBALANGODA.","rooms":10,"district":"Galle","aga_division":"MC","ps_mc_uc":"Ambalangoda Divisional Secretariat","logitiute":80.048715000000001,"latitude":6.2430210000000006,"orig_fid":-1}},{"type":"Feature","id":198,"geometry":{"type":"Point","coordinates":[80.746197000000052,7.9917130000000611]},"properties":{"objectid":198,"name":"SEEROCK THE KINGS DOMAIN","address":"INDIGASWEWA,KIMBISSA.SIGIRIYA","rooms":12,"district":"Matale","aga_division":"Dambulla Pradeshiya Sabha","ps_mc_uc":"Dambulla Divisional Secretariat","logitiute":80.746196999999995,"latitude":7.9917129999999998,"orig_fid":-1}},{"type":"Feature","id":199,"geometry":{"type":"Point","coordinates":[80.181293000000039,6.0521130000000767]},"properties":{"objectid":199,"name":"AMARI GALLE","address":"523C-446,COLOMBO ROAD,GINTHOTA,GALLE.","rooms":172,"district":"Galle","aga_division":"Galle","ps_mc_uc":"Galle Divisional Secretariat","logitiute":80.181293000000011,"latitude":6.0521130000000003,"orig_fid":-1}},{"type":"Feature","id":200,"geometry":{"type":"Point","coordinates":[80.385678000000041,7.3016240000000607]},"properties":{"objectid":200,"name":"VILLA PINNAWALA AND RESTAURANT","address":"PINNALANDA WATTE,PINNAWALA, RAMBUKKANA","rooms":13,"district":"Kegalle","aga_division":"Kegalle","ps_mc_uc":"Rambukkana Divisional Secretariat","logitiute":80.385677999999999,"latitude":7.3016239999999994,"orig_fid":-1}},{"type":"Feature","id":201,"geometry":{"type":"Point","coordinates":[80.439411000000064,5.9730650000000765]},"properties":{"objectid":201,"name":"MARRIOT RESORT & SPA - WELIGAMA BAY","address":"NO. 700, MATARA ROAD, PELANA, WELIGAMA.","rooms":200,"district":"Matara","aga_division":"Weligama Pradeshiya Sabha","ps_mc_uc":"Weligama Divisional Secretariat","logitiute":80.439411000000007,"latitude":5.9730650000000001,"orig_fid":-1}},{"type":"Feature","id":202,"geometry":{"type":"Point","coordinates":[80.023972800000081,9.6871291000000497]},"properties":{"objectid":202,"name":"THE THINNAI","address":"NO 86, PALALY ROAD,,THINNAVELI,,JAFFNA","rooms":58,"district":"Jaffna","aga_division":"Nallur Pradeshiya Sabha","ps_mc_uc":"Nallur Divisional Secretariat","logitiute":80.023972799999996,"latitude":9.6871291000000017,"orig_fid":-1}},{"type":"Feature","id":203,"geometry":{"type":"Point","coordinates":[80.764482000000044,6.9670750000000226]},"properties":{"objectid":203,"name":"ARALIYA GREEN CITY","address":"NO 01,GRAND HOTEL ROAD,NUWARA ELIYA.","rooms":192,"district":"Nuwara Eliya","aga_division":"Nuwara Eliya","ps_mc_uc":"Nuwara Eliya Divisional Secretariat","logitiute":80.764482000000001,"latitude":6.9670750000000004,"orig_fid":-1}},{"type":"Feature","id":204,"geometry":{"type":"Point","coordinates":[80.625303000000031,7.2734210000000417]},"properties":{"objectid":204,"name":"SKYLOFT KANDY","address":"NO.26, DAZZLING RANGE, THAPODARAMAYA ROAD, HANTANA, KANDY.","rooms":18,"district":"Kandy","aga_division":"Gagawata Koralya","ps_mc_uc":"Gagawata","logitiute":80.625303000000002,"latitude":7.2734209999999999,"orig_fid":-1}},{"type":"Feature","id":205,"geometry":{"type":"Point","coordinates":[79.850098500000058,6.9239319000000705]},"properties":{"objectid":205,"name":"HOTEL NIPPON","address":"123, KUMARANRATNAM ROAD, COLOMBO 02","rooms":49,"district":"Colombo","aga_division":"Colombo","ps_mc_uc":"Colombo Divisional Secretariat","logitiute":79.850098499999987,"latitude":6.9239318999999995,"orig_fid":-1}},{"type":"Feature","id":206,"geometry":{"type":"Point","coordinates":[80.986056400000052,7.9519377000000304]},"properties":{"objectid":206,"name":"THIDAS ARANA HOTEL","address":"23RD,MILE POST,BANDIWEWA,POLONNARUWA","rooms":11,"district":"Polonnaruwa","aga_division":"Thamankaduwa Pradeshiya Sabha","ps_mc_uc":"Thamankaduwa Divisional Secretariat","logitiute":80.98605640000001,"latitude":7.9519377000000002,"orig_fid":-1}},{"type":"Feature","id":207,"geometry":{"type":"Point","coordinates":[79.823390700000061,7.1688026000000491]},"properties":{"objectid":207,"name":"ARIE LAGOON - NEGOMBO","address":"587,PAMUNUGAMA ROAD,THALAHENA, NEGOMBO","rooms":55,"district":"Gampaha","aga_division":"Negombo","ps_mc_uc":"Negombo Divisional Secretariat","logitiute":79.823390700000004,"latitude":7.1688026000000002,"orig_fid":-1}},{"type":"Feature","id":208,"geometry":{"type":"Point","coordinates":[79.923348000000033,6.6707240000000638]},"properties":{"objectid":208,"name":"THE VILLAS","address":"352/4,RATHNAYAKA ROAD,THALPITIYA SOUTH,WADDUWA,,","rooms":32,"district":"Kalutara","aga_division":"Panadura Pradeshiya Sabha","ps_mc_uc":"Panadura Divisional Secretariat","logitiute":79.923348000000004,"latitude":6.6707239999999999,"orig_fid":-1}}]}