{"displayFieldName":"name","fieldAliases":{"objectid":"OBJECTID","name":"Name","address":"Address","type":"Type","latitude":"Latitude","longitude":"Longitude","id":"ID","district":"District","photo_link":"photo_link","desrciption":"Popup_Desrciption","tourism_webiste_link":"Tourism_Webiste_Link"},"geometryType":"esriGeometryPoint","spatialReference":{"wkid":4326,"latestWkid":4326},"fields":[{"name":"objectid","type":"esriFieldTypeOID","alias":"OBJECTID"},{"name":"name","type":"esriFieldTypeString","alias":"Name","length":255},{"name":"address","type":"esriFieldTypeString","alias":"Address","length":255},{"name":"type","type":"esriFieldTypeString","alias":"Type","length":50},{"name":"latitude","type":"esriFieldTypeDouble","alias":"Latitude"},{"name":"longitude","type":"esriFieldTypeDouble","alias":"Longitude"},{"name":"id","type":"esriFieldTypeString","alias":"ID","length":50},{"name":"district","type":"esriFieldTypeString","alias":"District","length":200},{"name":"photo_link","type":"esriFieldTypeString","alias":"photo_link","length":1000},{"name":"desrciption","type":"esriFieldTypeString","alias":"Popup_Desrciption","length":1000},{"name":"tourism_webiste_link","type":"esriFieldTypeString","alias":"Tourism_Webiste_Link","length":1000}],"features":[{"attributes":{"objectid":1,"name":"alawala devin penne ela","address":"","type":"Attractions","latitude":7.1227825,"longitude":80.1955246,"id":"1613","district":"Gampaha","photo_link":"../image/data/001/Gampaha/Alawala Devin Penne Ela/800,400 Header_Alawala_devin.jpg","desrciption":"A lake wrapped in royal legend.","tourism_webiste_link":"http://www.srilanka.travel/attraction&attraction_id=81"},"geometry":{"x":80.195524600000056,"y":7.122782500000028}},{"attributes":{"objectid":2,"name":"okanda devalaya ( a destination of mass pilgrim)","address":"","type":"Attractions","latitude":6.6517265,"longitude":81.7727691,"id":"1614","district":"Ampara","photo_link":"../image/data/001/Prasad/Ampara/Okanda-Beach /Okanda-Beach-1.jpg","desrciption":"A temple of Lord Skanda on the Eastern coast.","tourism_webiste_link":"http://www.srilanka.travel/attraction&attraction_id=149"},"geometry":{"x":81.772769100000062,"y":6.6517265000000521}},{"attributes":{"objectid":3,"name":"Alankuda beach","address":"","type":"Attractions","latitude":8.05,"longitude":79.716667,"id":"1615","district":"Puttalam","photo_link":"../image/data/attraction_main_images/alankuda.jpg","desrciption":"A stretch beach recently developed in the Kalpitiya ","tourism_webiste_link":"http://www.srilanka.travel/attraction&attraction_id=51"},"geometry":{"x":79.716667000000029,"y":8.0500000000000682}},{"attributes":{"objectid":4,"name":"Alioluwa lake","address":"","type":"Attractions","latitude":7.2390647,"longitude":81.5726673,"id":"1616","district":"Ampara","photo_link":"../image/data/001/Ampara/Alioluwa Lake/Alioluwa Lake-cover.jpg","desrciption":"A peculiar lake and a waterway.","tourism_webiste_link":"http://www.srilanka.travel/attraction&attraction_id=135"},"geometry":{"x":81.572667300000035,"y":7.2390647000000286}},{"attributes":{"objectid":5,"name":"Ancient deegawapiya","address":"","type":"Attractions","latitude":7.2852875,"longitude":81.797839,"id":"1617","district":"Ampara","photo_link":"../image/data/001/Ampara/Deegavapiya/Header-Deegavapiya-cover.jpg","desrciption":"A monastery graced by the Buddha ","tourism_webiste_link":"http://www.srilanka.travel/attraction&attraction_id=108"},"geometry":{"x":81.797839000000067,"y":7.2852875000000381}},{"attributes":{"objectid":6,"name":"Ancient veheragala of pulukunawa","address":"","type":"Attractions","latitude":6.7039056,"longitude":81.6647243,"id":"1618","district":"Ampara","photo_link":"../image/data/001/Ampara/Veheragala/Pulukunawa-cover.jpg","desrciption":"A monastery complex of unknown origin","tourism_webiste_link":"http://www.srilanka.travel/attraction&attraction_id=114"},"geometry":{"x":81.664724300000046,"y":6.7039056000000414}},{"attributes":{"objectid":7,"name":"Angurukaramulla temple","address":"","type":"Attractions","latitude":7.2094984,"longitude":79.8540072,"id":"1619","district":"Gampaha","photo_link":"../image/data/001/Gampaha/800,400 Header_Agurukaramulla.jpg","desrciption":"A portray of colors faith and history.","tourism_webiste_link":"http://www.srilanka.travel/attraction&attraction_id=66"},"geometry":{"x":79.854007200000069,"y":7.2094984000000295}},{"attributes":{"objectid":8,"name":"Antiquities replica centre","address":"","type":"Attractions","latitude":7.0873101,"longitude":80.0143656,"id":"1620","district":"Gampaha","photo_link":"../image/data/001/Gampaha/800,400 Header1_Ancient_Replica_ center.jpg","desrciption":"Replicating the legends of History","tourism_webiste_link":"http://www.srilanka.travel/attraction&attraction_id=62"},"geometry":{"x":80.014365600000076,"y":7.0873101000000247}},{"attributes":{"objectid":9,"name":"Arcade independence square","address":"","type":"Attractions","latitude":6.902506,"longitude":79.868916,"id":"1621","district":"Colombo","photo_link":"../image/data/001/Attraction01/Arcade/Arcade-1.jpg","desrciption":"If you like to shopping then this place for you!!!","tourism_webiste_link":"http://www.srilanka.travel/attraction&attraction_id=217"},"geometry":{"x":79.86891600000007,"y":6.9025060000000735}},{"attributes":{"objectid":10,"name":"Arugam bay","address":"","type":"Attractions","latitude":6.8379771,"longitude":81.8251687,"id":"1622","district":"Batticaloa","photo_link":"../image/data/001/attractions/Main-Images/Arugambay-1.jpg","desrciption":"Arugam Bay is a bay situated on the Indian Ocean in the dry zone of Sri Lankas southeast coast. The bay is located 320 kilometers (200 mi) due east of Colombo.","tourism_webiste_link":"http://www.srilanka.travel/attraction&attraction_id=49"},"geometry":{"x":81.825168700000063,"y":6.837977100000046}},{"attributes":{"objectid":11,"name":"Arugambay &amp; pottuvil point","address":"","type":"Attractions","latitude":6.8404078,"longitude":81.8368478,"id":"1623","district":"Ampara","photo_link":"../image/data/001/Ampara/Arugambay/header-arugambay cover.jpg","desrciption":"Where the shore is white and wide","tourism_webiste_link":"http://www.srilanka.travel/attraction&attraction_id=101"},"geometry":{"x":81.836847800000044,"y":6.8404078000000368}},{"attributes":{"objectid":12,"name":"Asupini ella","address":"","type":"Attractions","latitude":7.117772,"longitude":80.485695,"id":"1624","district":"Kegalle","photo_link":"../image/data/001/Attraction01/Asupini-ella/Asupini-1.JPG","desrciption":"Asupini Ella or Asupini Falls is a main waterfall of Kegalle District.","tourism_webiste_link":"http://www.srilanka.travel/attraction&attraction_id=185"},"geometry":{"x":80.485695000000078,"y":7.1177720000000591}},{"attributes":{"objectid":13,"name":"Attanagalla raja maha viharava","address":"","type":"Attractions","latitude":7.1137748,"longitude":80.135479,"id":"1625","district":"Gampaha","photo_link":"../image/data/001/Gampaha/Header__Attanagalla 800,400.jpg","desrciption":"Immortalizing the pious King of Lanka.","tourism_webiste_link":"http://www.srilanka.travel/attraction&attraction_id=59"},"geometry":{"x":80.135479000000032,"y":7.1137748000000443}},{"attributes":{"objectid":14,"name":"Aukana","address":"","type":"Attractions","latitude":8.010786,"longitude":80.51282,"id":"1626","district":"Anuradhapura","photo_link":"../image/data/001/attractions/Main-Images/Aukana-1.jpg","desrciption":"This is the one of tallest and gorgeous buddha statue in sri lanka. ","tourism_webiste_link":"http://www.srilanka.travel/attraction&attraction_id=176"},"geometry":{"x":80.512820000000033,"y":8.0107860000000528}},{"attributes":{"objectid":15,"name":"Bahirawa kanda","address":"","type":"Attractions","latitude":7.2956194,"longitude":80.63054167,"id":"1627","district":"Kandy","photo_link":"../image/data/attraction_picture_gallery/Bahirawakanda.jpg","desrciption":"Travel approximately 3 kms via Pushpadana Road in Kandy in the ascending direction passing Pushpadana Balika Vidyalaya to reach Bahirawa Kanda. ","tourism_webiste_link":"http://www.srilanka.travel/attraction&attraction_id=3"},"geometry":{"x":80.630541667000045,"y":7.295619400000021}},{"attributes":{"objectid":16,"name":"Balla mala ella","address":"","type":"Attractions","latitude":6.7430319,"longitude":80.39640427,"id":"1628","district":"Ratnapura","photo_link":"../image/data/attraction_main_images/Balla_Mala_ella.jpg","desrciption":"In honour of man’s best friend","tourism_webiste_link":"http://www.srilanka.travel/attraction&attraction_id=20"},"geometry":{"x":80.396404266000047,"y":6.7430319000000623}},{"attributes":{"objectid":17,"name":"Bambarakanda falls","address":"","type":"Attractions","latitude":6.773143,"longitude":80.826333,"id":"1629","district":"Badulla","photo_link":"../image/data/001/Attraction01/Babarakanda/Bambarakanda-1.jpg","desrciption":"Do you like to Hiking? Then you will like to this amazing place. ","tourism_webiste_link":"http://www.srilanka.travel/attraction&attraction_id=196"},"geometry":{"x":80.826333000000034,"y":6.7731430000000614}},{"attributes":{"objectid":18,"name":"Bandaraduwa","address":"","type":"Attractions","latitude":7.428175,"longitude":81.565127,"id":"1630","district":"Ampara","photo_link":"../image/data/001/Prasad/Ampara/Bandaraduwa/Bandaraduwa-1.jpg","desrciption":"The adopted home of Sri Lankan Indigenous community.","tourism_webiste_link":"http://www.srilanka.travel/attraction&attraction_id=145"},"geometry":{"x":81.565127000000075,"y":7.428175000000067}},{"attributes":{"objectid":19,"name":"Barons cap or thoppigala","address":"","type":"Attractions","latitude":7.83175181,"longitude":81.44422531,"id":"1631","district":"Batticaloa","photo_link":"../image/data/attraction_main_images/Baron_Cap_or_Thoppigala.jpg","desrciption":"An ancient Buddhist monastery and a present day war memorial","tourism_webiste_link":"http://www.srilanka.travel/attraction&attraction_id=5"},"geometry":{"x":81.444225311000082,"y":7.8317518100000711}},{"attributes":{"objectid":20,"name":"Beira lake","address":"","type":"Attractions","latitude":6.929491,"longitude":79.854159,"id":"1632","district":"Colombo","photo_link":"../image/data/001/attractions/Main-Images/Beira-1.jpg","desrciption":"Beira Lake is a lake in the center of the city of Colombo Sri Lanka. ","tourism_webiste_link":"http://www.srilanka.travel/attraction&attraction_id=172"},"geometry":{"x":79.854159000000038,"y":6.9294910000000414}},{"attributes":{"objectid":21,"name":"Bellanwila temple (bellanwila rajamaha viharaya)","address":"","type":"Attractions","latitude":6.845649,"longitude":79.890041,"id":"1633","district":"Colombo","photo_link":"../image/data/001/Attraction01/Bellanwila/Bellanwila-1.jpg","desrciption":"Bellanwila Rajamaha Viharaya is one of the venerated place in Colombo District.","tourism_webiste_link":"http://www.srilanka.travel/attraction&attraction_id=209"},"geometry":{"x":79.890041000000053,"y":6.8456490000000372}},{"attributes":{"objectid":22,"name":"Beruwala &amp; bentota","address":"","type":"Attractions","latitude":6.4189175,"longitude":80.005979,"id":"1634","district":"Galle","photo_link":"../image/data/attraction_main_images/bentota.jpg","desrciption":"Major exotic beaches located on the Colombo Galle road about 65km from Colombo and separated by Bentota river.","tourism_webiste_link":"http://www.srilanka.travel/attraction&attraction_id=52"},"geometry":{"x":80.005979000000082,"y":6.4189175000000205}},{"attributes":{"objectid":23,"name":"Beruwala light house","address":"","type":"Attractions","latitude":6.463329,"longitude":79.96912,"id":"1635","district":"Kalutara","photo_link":"../image/data/001/Attraction01/Beruwala-light/Beruwala-1.jpg","desrciption":"If you have a dream to climb a lighthouse and enjoy the sunset from the tower this dream can true during a lighthouse tour of Sri Lanka.","tourism_webiste_link":"http://www.srilanka.travel/attraction&attraction_id=195"},"geometry":{"x":79.969120000000032,"y":6.4633290000000443}},{"attributes":{"objectid":24,"name":"Bopagama water fall","address":"","type":"Attractions","latitude":7.0873101,"longitude":80.0143656,"id":"1636","district":"Gampaha","photo_link":"../image/data/001/Prasad/Gampaha/Bopagama Water Fall/Bopagama-1.jpg","desrciption":"A waterfall amidst the shaded groves.","tourism_webiste_link":"http://www.srilanka.travel/attraction&attraction_id=79"},"geometry":{"x":80.014365600000076,"y":7.0873101000000247}},{"attributes":{"objectid":25,"name":"Bowattegala monastery","address":"","type":"Attractions","latitude":6.5552778,"longitude":81.6863889,"id":"1637","district":"Ampara","photo_link":"../image/data/001/Ampara/Bowattegala/Header-Bowatha Galge-cover.jpg","desrciption":"A monastery built by the ten Royal brothers of South.","tourism_webiste_link":"http://www.srilanka.travel/attraction&attraction_id=111"},"geometry":{"x":81.686388900000054,"y":6.5552778000000558}},{"attributes":{"objectid":26,"name":"Buddhangala monastery","address":"","type":"Attractions","latitude":7.3318375,"longitude":81.7036432,"id":"1638","district":"Ampara","photo_link":"../image/data/001/Ampara/Buddhangala Monastery/Buddangala-9 cvr.jpg","desrciption":"A Forest Hermitage of Ancient Tradition","tourism_webiste_link":"http://www.srilanka.travel/attraction&attraction_id=95"},"geometry":{"x":81.703643200000045,"y":7.3318375000000628}},{"attributes":{"objectid":27,"name":"Budugala","address":"","type":"Attractions","latitude":6.6325924,"longitude":80.8754104,"id":"1639","district":"Ratnapura","photo_link":"../image/data/attraction_main_images/Budugala.jpg","desrciption":"Big  center-place considering the past and present religious background","tourism_webiste_link":"http://www.srilanka.travel/attraction&attraction_id=21"},"geometry":{"x":80.875410400000078,"y":6.6325924000000214}},{"attributes":{"objectid":28,"name":"Bundala national park","address":"","type":"Attractions","latitude":6.175162,"longitude":81.196843,"id":"1640","district":"Hambantota","photo_link":"../image/data/001/attractions/Main-Images/Bundala-1.jpg","desrciption":"Bundala National Park is an internationally important wintering ground for migratory water birds in Sri Lanka. ","tourism_webiste_link":"http://www.srilanka.travel/attraction&attraction_id=168"},"geometry":{"x":81.196843000000058,"y":6.1751620000000571}},{"attributes":{"objectid":29,"name":"Camping in kumana national wildlife sanctuary","address":"","type":"Attractions","latitude":6.6493509,"longitude":81.7700834,"id":"1641","district":"Ampara","photo_link":"../image/data/001/Prasad/Ampara/Camping-in-Kumana-National-Wildlife-Sanctuary/Camping-in-Kumana-1.jpg","desrciption":"Spending the night amidst wildlife","tourism_webiste_link":"http://www.srilanka.travel/attraction&attraction_id=112"},"geometry":{"x":81.770083400000033,"y":6.6493509000000586}},{"attributes":{"objectid":30,"name":"Colombo gold center","address":"","type":"Attractions","latitude":6.940034,"longitude":79.85312,"id":"1642","district":"Colombo","photo_link":"../image/data/001/Attraction01/Gold-Center/Gold-1.jpg","desrciption":"Colombo Gold Center is best place for shopping gems and Jewelries.","tourism_webiste_link":"http://www.srilanka.travel/attraction&attraction_id=206"},"geometry":{"x":79.853120000000047,"y":6.9400340000000256}},{"attributes":{"objectid":31,"name":"Colombo racecourse","address":"","type":"Attractions","latitude":6.905514,"longitude":79.863423,"id":"1643","district":"Colombo","photo_link":"../image/data/001/Attraction01/Racecourse/Race-1.jpg","desrciption":"This is a one of ideal Place in Colombo to spend quality Time with family and your friends.","tourism_webiste_link":"http://www.srilanka.travel/attraction&attraction_id=213"},"geometry":{"x":79.863423000000068,"y":6.9055140000000392}},{"attributes":{"objectid":32,"name":"Craft village","address":"","type":"Attractions","latitude":6.890188,"longitude":79.921762,"id":"1644","district":"Colombo","photo_link":"../image/data/001/Attraction01/Craft-Village/Craft-1.jpg","desrciption":"This village is a structure of Sri Lankan Rural cultural village.","tourism_webiste_link":"http://www.srilanka.travel/attraction&attraction_id=211"},"geometry":{"x":79.921762000000058,"y":6.8901880000000233}},{"attributes":{"objectid":33,"name":"Dambakolapatuna viharaya","address":"","type":"Attractions","latitude":9.78654289,"longitude":79.94768143,"id":"1645","district":"Jaffna","photo_link":"../image/data/attraction_main_images/Dambakolapatuna.jpg","desrciption":"A temple built in reminiscence of a great arrival.","tourism_webiste_link":"http://www.srilanka.travel/attraction&attraction_id=8"},"geometry":{"x":79.947681427000077,"y":9.7865428880000422}},{"attributes":{"objectid":34,"name":"Dambulla cavetemple","address":"","type":"Attractions","latitude":7.855514,"longitude":80.652112,"id":"1646","district":"Matale","photo_link":"../image/data/001/attractions/Main-Images/Dambulla-1.jpg","desrciption":"Dambulla cave temple and also known as Golden Temple of Dambulla is a world heritage site situated in central part of the Sri Lanka. This dambulla cave temple situated in 148km east of Colombo.","tourism_webiste_link":"http://www.srilanka.travel/attraction&attraction_id=157"},"geometry":{"x":80.652112000000045,"y":7.8555140000000279}},{"attributes":{"objectid":35,"name":"Dehiwala zoo","address":"","type":"Attractions","latitude":6.856507,"longitude":79.873314,"id":"1647","district":"Colombo","photo_link":"../image/data/001/attractions/Main-Images/Zoo-1.jpg","desrciption":"One of main Zoological Garden in Sri Lanka.","tourism_webiste_link":"http://www.srilanka.travel/attraction&attraction_id=170"},"geometry":{"x":79.87331400000005,"y":6.8565070000000219}},{"attributes":{"objectid":36,"name":"Delft biobab tree","address":"","type":"Attractions","latitude":9.48140277,"longitude":79.71756935,"id":"1648","district":"Jaffna","photo_link":"../image/data/attraction_main_images/Delft_Biobab_Tree.jpg","desrciption":"Ancient trees with hallowed trunks","tourism_webiste_link":"http://www.srilanka.travel/attraction&attraction_id=9"},"geometry":{"x":79.717569351000066,"y":9.4814027690000557}},{"attributes":{"objectid":37,"name":"Delft dutch fort","address":"","type":"Attractions","latitude":9.48461976,"longitude":79.69851494,"id":"1649","district":"Jaffna","photo_link":"../image/data/attraction_main_images/Delft_Dutch_Fort.jpg","desrciption":"A ruined fort of 17th Century","tourism_webiste_link":"http://www.srilanka.travel/attraction&attraction_id=10"},"geometry":{"x":79.698514938000073,"y":9.4846197640000582}},{"attributes":{"objectid":38,"name":"Delft growing stone","address":"","type":"Attractions","latitude":9.50205874,"longitude":79.7040081,"id":"1650","district":"Jaffna","photo_link":"../image/data/attraction_main_images/Delft_Growing_Stone.jpg","desrciption":"Rocks that increase in size","tourism_webiste_link":"http://www.srilanka.travel/attraction&attraction_id=11"},"geometry":{"x":79.704008102000046,"y":9.5020587390000628}},{"attributes":{"objectid":39,"name":"Delft island","address":"","type":"Attractions","latitude":9.516974,"longitude":79.683344,"id":"1651","district":"Jaffna","photo_link":"../image/data/001/attractions/Main-Images/delft-1.jpg","desrciption":"Neduntheevu or Neduntivu an island in the Palk Strait northern Sri Lanka. It is situated in 288 kilometers away from Colombo. ","tourism_webiste_link":"http://www.srilanka.travel/attraction&attraction_id=171"},"geometry":{"x":79.683344000000034,"y":9.5169740000000616}},{"attributes":{"objectid":40,"name":"Delft temple","address":"","type":"Attractions","latitude":9.50358249,"longitude":79.69302177,"id":"1652","district":"Jaffna","photo_link":"../image/data/attraction_main_images/Delft_Temple.jpg","desrciption":"The first stop of Arhat Sangamitta Their","tourism_webiste_link":"http://www.srilanka.travel/attraction&attraction_id=12"},"geometry":{"x":79.693021774000044,"y":9.5035824910000315}},{"attributes":{"objectid":41,"name":"Delft wild horses","address":"","type":"Attractions","latitude":9.50358249,"longitude":79.69302177,"id":"1653","district":"Jaffna","photo_link":"../image/data/attraction_main_images/Delft_Wild_Horses.jpg","desrciption":"Delft Wild Horses ","tourism_webiste_link":"http://www.srilanka.travel/attraction&attraction_id=13"},"geometry":{"x":79.693021774000044,"y":9.5035824910000315}},{"attributes":{"objectid":42,"name":"Devon falls","address":"","type":"Attractions","latitude":6.951354,"longitude":80.630017,"id":"1654","district":"Nuwara Eliya","photo_link":"../image/data/001/Attraction01/Devon-Falls/Devon-1.jpg","desrciption":"Devon one of the most spectacular waterfall in Sri Lanka.","tourism_webiste_link":"http://www.srilanka.travel/attraction&attraction_id=186"},"geometry":{"x":80.630017000000066,"y":6.9513540000000376}},{"attributes":{"objectid":43,"name":"Diva guhawa - batatota lena","address":"","type":"Attractions","latitude":6.74916892,"longitude":80.3931427,"id":"1655","district":"Ratnapura","photo_link":"../image/data/attraction_main_images/Divaguhawa.jpg","desrciption":"The legendary resting place of the Buddha during his visit to the Samanalakanda. ","tourism_webiste_link":"http://www.srilanka.travel/attraction&attraction_id=23"},"geometry":{"x":80.393142700000055,"y":6.7491689240000596}},{"attributes":{"objectid":44,"name":"Diyaluma  falls","address":"","type":"Attractions","latitude":6.733187,"longitude":81.031331,"id":"1656","district":"Badulla","photo_link":"../image/data/001/Attraction01/Diyaluma-Falls/Diyaluma-1.jpg","desrciption":"Diyaluma Ella Fall also another beautiful and attractive waterfall in Sri Lanka.","tourism_webiste_link":"http://www.srilanka.travel/attraction&attraction_id=197"},"geometry":{"x":81.03133100000008,"y":6.7331870000000436}},{"attributes":{"objectid":45,"name":"Diyatha uyana","address":"","type":"Attractions","latitude":6.904511,"longitude":79.909807,"id":"1657","district":"Colombo","photo_link":"../image/data/001/Attraction01/Diyatha-Uyana/Diyatha-1.jpg","desrciption":"Another gorgeous place in the city of Battaramulla. ","tourism_webiste_link":"http://www.srilanka.travel/attraction&attraction_id=201"},"geometry":{"x":79.909807000000058,"y":6.9045110000000705}},{"attributes":{"objectid":46,"name":"Dome houses","address":"","type":"Attractions","latitude":6.8752706,"longitude":81.8306334,"id":"1658","district":"Ampara","photo_link":"../image/data/001/Prasad/Ampara/Dome-Houses/dome-1.jpg","desrciption":"Dome shaped dwellings constructed for tsunami displaced.","tourism_webiste_link":"http://www.srilanka.travel/attraction&attraction_id=144"},"geometry":{"x":81.830633400000067,"y":6.8752706000000217}},{"attributes":{"objectid":47,"name":"Doovili ella","address":"","type":"Attractions","latitude":6.39002454,"longitude":80.39159775,"id":"1659","district":"Ratnapura","photo_link":"../image/data/attraction_main_images/Doovili_Ella.jpg","desrciption":"A pristine waterfall within virgin forest land","tourism_webiste_link":"http://www.srilanka.travel/attraction&attraction_id=24"},"geometry":{"x":80.391597748000038,"y":6.3900245390000237}},{"attributes":{"objectid":48,"name":"Dowa rock temple","address":"","type":"Attractions","latitude":6.856366,"longitude":81.022152,"id":"1660","district":"Badulla","photo_link":"../image/data/001/Attraction01/dowa/Dowa-Temple-1.jpg","desrciption":"Dowa Rock temple is one of the key sights in Badulla Sri Lanka.","tourism_webiste_link":"http://www.srilanka.travel/attraction&attraction_id=180"},"geometry":{"x":81.022152000000062,"y":6.8563660000000368}},{"attributes":{"objectid":49,"name":"Dunhinda falls","address":"","type":"Attractions","latitude":7.017293,"longitude":81.063305,"id":"1661","district":"Badulla","photo_link":"../image/data/001/Attraction01/Dunhida/Dunhida-1.png","desrciption":"Dunhinda is the most charming falls in Sri Lanka and is near the town of Badulla. ","tourism_webiste_link":"http://www.srilanka.travel/attraction&attraction_id=177"},"geometry":{"x":81.063305000000071,"y":7.017293000000052}},{"attributes":{"objectid":50,"name":"Dutch hospital","address":"","type":"Attractions","latitude":6.933675,"longitude":79.843503,"id":"1662","district":"Colombo","photo_link":"../image/data/001/Attraction01/Dutch/Dutch-1.jpg","desrciption":"When you are getting tired walking around Colombo and you want a break this is the best place to relax and chill.","tourism_webiste_link":"http://www.srilanka.travel/attraction&attraction_id=200"},"geometry":{"x":79.843503000000055,"y":6.9336750000000507}},{"attributes":{"objectid":51,"name":"Ella","address":"","type":"Attractions","latitude":6.866736,"longitude":81.04666,"id":"1663","district":"Badulla","photo_link":"../image/data/001/attractions/Main-Images/Ella-1.jpg","desrciption":"Ella is a small town in the Badulla District of Uva Province Sri Lanka governed by an Urban Council. It is approximately 200 kilometres (120 mi) east of Colombo. World heritage site.","tourism_webiste_link":"http://www.srilanka.travel/attraction&attraction_id=154"},"geometry":{"x":81.046660000000031,"y":6.8667360000000599}},{"attributes":{"objectid":52,"name":"Gal oya national park","address":"","type":"Attractions","latitude":7.258665,"longitude":81.7014074,"id":"1664","district":"Ampara","photo_link":"../image/data/001/Prasad/Ampara/Gal-Oya-National-Park/Gal-oya-1.jpg","desrciption":"A national park in the south-east of Sri Lanka.","tourism_webiste_link":"http://www.srilanka.travel/attraction&attraction_id=132"},"geometry":{"x":81.701407400000051,"y":7.2586650000000645}},{"attributes":{"objectid":53,"name":"Galle face green","address":"","type":"Attractions","latitude":6.924568,"longitude":79.844916,"id":"1665","district":"Colombo","photo_link":"../image/data/001/Attraction01/Galle-face/Galle-face-1.jpg","desrciption":"The Galle Face is a 12 acres ocean-side urban park which stretches for 500 m along the coast in the heart of the financial and business capital of Sri Lanka Colombo.","tourism_webiste_link":"http://www.srilanka.travel/attraction&attraction_id=210"},"geometry":{"x":79.844916000000069,"y":6.924568000000022}},{"attributes":{"objectid":54,"name":"Galle fort","address":"","type":"Attractions","latitude":6.025003,"longitude":80.218058,"id":"1666","district":"Galle","photo_link":"../image/data/001/attractions/Main-Images/Galle-1.jpg","desrciption":"Galle Fort in the Bay of Galle World Heritage Site on the southwest coast of Sri Lanka was built first in 1588 by the Portuguese.","tourism_webiste_link":"http://www.srilanka.travel/attraction&attraction_id=153"},"geometry":{"x":80.218058000000042,"y":6.0250030000000265}},{"attributes":{"objectid":55,"name":"Gamini-thissa monastery complex in mottagala","address":"","type":"Attractions","latitude":7.154518,"longitude":81.806039,"id":"1667","district":"Ampara","photo_link":"../image/data/001/Prasad/Ampara/Gamini-Thissa-Monastery-Complex/Gamini-1.jpg","desrciption":"A third century BC monastery under threats of destruction.","tourism_webiste_link":"http://www.srilanka.travel/attraction&attraction_id=100"},"geometry":{"x":81.806039000000055,"y":7.1545180000000528}},{"attributes":{"objectid":56,"name":"Gampaha wickramarachchi ayurweda hospital","address":"","type":"Attractions","latitude":7.0910179,"longitude":80.0370848,"id":"1668","district":"Gampaha","photo_link":"../image/data/001/Gampaha/Gampaha_Ayurvedha/800,400 header_Gampaha_Ayurvedha.jpg","desrciption":"Conveying the life giving secrets","tourism_webiste_link":"http://www.srilanka.travel/attraction&attraction_id=80"},"geometry":{"x":80.037084800000059,"y":7.0910179000000539}},{"attributes":{"objectid":57,"name":"Gonagolla monastery","address":"","type":"Attractions","latitude":7.4350688,"longitude":81.6285106,"id":"1669","district":"Ampara","photo_link":"../image/data/001/Ampara/Gonagolla Monastery/Main- Cover.jpg","desrciption":"A monastery with cave murals.","tourism_webiste_link":"http://www.srilanka.travel/attraction&attraction_id=128"},"geometry":{"x":81.628510600000084,"y":7.4350688000000673}},{"attributes":{"objectid":58,"name":"Govinda hela of siyambalanduwa","address":"","type":"Attractions","latitude":6.9103363,"longitude":81.5591405,"id":"1670","district":"Ampara","photo_link":"../image/data/001/Prasad/Ampara/Govinda-Hela-of-Siyambalanduwa/Siyambalanduwa-1.jpg","desrciption":"A mountain trek and an ancient fortress.","tourism_webiste_link":"http://www.srilanka.travel/attraction&attraction_id=117"},"geometry":{"x":81.559140500000069,"y":6.91033630000004}},{"attributes":{"objectid":59,"name":"Green path colombo","address":"","type":"Attractions","latitude":6.911612,"longitude":79.860577,"id":"1671","district":"Colombo","photo_link":"../image/data/001/Attraction01/Green-Path/Green-1.jpg","desrciption":"This is Street that bright with festive and events.","tourism_webiste_link":"http://www.srilanka.travel/attraction&attraction_id=214"},"geometry":{"x":79.860577000000035,"y":6.9116120000000478}},{"attributes":{"objectid":60,"name":"Gregory lake","address":"","type":"Attractions","latitude":6.957535,"longitude":80.780182,"id":"1672","district":"Nuwara Eliya","photo_link":"../image/data/001/Attraction01/Gregory/Gregory-1.jpg","desrciption":"Lake Gregory is a reservoir in heart of the tea country hill city Nuwara Eliya Sri Lanka. ","tourism_webiste_link":"http://www.srilanka.travel/attraction&attraction_id=178"},"geometry":{"x":80.780182000000082,"y":6.957535000000064}},{"attributes":{"objectid":61,"name":"Habuthala viharaya or tharulengala monastery","address":"","type":"Attractions","latitude":6.9284717,"longitude":81.6546714,"id":"1673","district":"Ampara","photo_link":"../image/data/001/Ampara/Tharu lengala/Header-Thar- lengala-cover.jpg","desrciption":"The largest drip ledged caves in Sri Lanka and pre historic drawings.","tourism_webiste_link":"http://www.srilanka.travel/attraction&attraction_id=122"},"geometry":{"x":81.654671400000041,"y":6.9284717000000455}},{"attributes":{"objectid":62,"name":"Hamilton canal","address":"","type":"Attractions","latitude":7.0015334,"longitude":79.8711974,"id":"1674","district":"Gampaha","photo_link":"../image/data/001/Gampaha/800,400 header__Hapilton_Canel.jpg","desrciption":"The canal of spice and riches","tourism_webiste_link":"http://www.srilanka.travel/attraction&attraction_id=60"},"geometry":{"x":79.871197400000085,"y":7.001533400000028}},{"attributes":{"objectid":63,"name":"Henanegala len viharaya","address":"","type":"Attractions","latitude":7.5702013,"longitude":81.064173,"id":"1675","district":"Ampara","photo_link":"../image/data/001/Ampara/Senanigala/Header-Senanigala-Cover.jpg","desrciption":"A rock temple where King Dutugamunu gathered his warriors.","tourism_webiste_link":"http://www.srilanka.travel/attraction&attraction_id=124"},"geometry":{"x":81.064173000000039,"y":7.5702013000000647}},{"attributes":{"objectid":64,"name":"Henanigala panchawasa raja maha viharaya","address":"","type":"Attractions","latitude":7.5769066,"longitude":81.0892627,"id":"1676","district":"Ampara","photo_link":"../image/data/001/Prasad/Ampara/Henanigala-Panchawasa-Raja-Maha-Viharaya/Henanigala-1.jpg","desrciption":"A rock temple where King Dutugamunu gathered his warriors","tourism_webiste_link":"http://www.srilanka.travel/attraction&attraction_id=107"},"geometry":{"x":81.089262700000063,"y":7.5769066000000294}},{"attributes":{"objectid":65,"name":"Henarathgoda botanical garden","address":"","type":"Attractions","latitude":7.0993027,"longitude":79.985708,"id":"1677","district":"Gampaha","photo_link":"../image/data/001/Gampaha/Henarathgoda Botanical Garden/800,400 header__Henarathgoda_BG.jpg","desrciption":"The cradle of rubber revolution.","tourism_webiste_link":"http://www.srilanka.travel/attraction&attraction_id=84"},"geometry":{"x":79.985708000000045,"y":7.0993027000000666}},{"attributes":{"objectid":66,"name":"Hikkaduwa beach","address":"","type":"Attractions","latitude":6.13954,"longitude":80.104979,"id":"1678","district":"Galle","photo_link":"../image/data/001/attractions/Main-Images/Hikaduwa-1.jpg","desrciption":"Hikkaduwa is a small town on the south coast of Sri Lanka located in the Southern Province about 17km north-west of Galle and 98km south of Colombo.It is a famous for board-surfing.","tourism_webiste_link":"http://www.srilanka.travel/attraction&attraction_id=156"},"geometry":{"x":80.104979000000071,"y":6.1395400000000677}},{"attributes":{"objectid":67,"name":"Horton plains","address":"","type":"Attractions","latitude":6.802193,"longitude":80.807244,"id":"1679","district":"Nuwara Eliya","photo_link":"../image/data/001/attractions/Main-Images/Horton-Plains.jpg","desrciption":"Horton Plains in Sri Lanka is the coldest and most windy place in the country. It consists of ecosystems such as the evergreen forests of Montane grasslands swamp lands and the aquatic ecosystem. ","tourism_webiste_link":"http://www.srilanka.travel/attraction&attraction_id=158"},"geometry":{"x":80.807244000000082,"y":6.8021930000000452}},{"attributes":{"objectid":68,"name":"Hot water springs in wahawa","address":"","type":"Attractions","latitude":7.5311162,"longitude":81.3454417,"id":"1680","district":"Ampara","photo_link":"../image/data/001/Prasad/Ampara/Hot-Water-Springs-in-Wahawa/Hotwater-1.jpg","desrciption":"Eighteen hot water springs scattered within a village.","tourism_webiste_link":"http://www.srilanka.travel/attraction&attraction_id=143"},"geometry":{"x":81.345441700000038,"y":7.5311162000000422}},{"attributes":{"objectid":69,"name":"Huluganga ella falls","address":"","type":"Attractions","latitude":7.4012167,"longitude":80.7421,"id":"1681","district":"Kandy","photo_link":"../image/data/attraction_main_images/Huluganga_Ella.jpg","desrciption":"This waterfall is located at Hulu Ganga Town on the Panwila – Bambarella Road from Kandy. ","tourism_webiste_link":"http://www.srilanka.travel/attraction&attraction_id=2"},"geometry":{"x":80.74210000000005,"y":7.4012167000000204}},{"attributes":{"objectid":70,"name":"Independence memorial hall","address":"","type":"Attractions","latitude":6.902762,"longitude":79.868745,"id":"1682","district":"Colombo","photo_link":"../image/data/001/Attraction01/Indipendance/Indipendance-1.jpg","desrciption":"This building made for commemorate the brave soldiers in Sri Lanka who died in wars.","tourism_webiste_link":"http://www.srilanka.travel/attraction&attraction_id=202"},"geometry":{"x":79.868745000000047,"y":6.9027620000000525}},{"attributes":{"objectid":71,"name":"Jathika namal uyana","address":"","type":"Attractions","latitude":7.90691162,"longitude":80.58128357,"id":"1683","district":"Anuradhapura","photo_link":"../image/data/attraction_main_images/Jathika_Namal_Uyana.jpg","desrciption":"The largest Na-forest and pink quartz mountain in Asia&quot;","tourism_webiste_link":"http://www.srilanka.travel/attraction&attraction_id=28"},"geometry":{"x":80.58128356900005,"y":7.906911616000059}},{"attributes":{"objectid":72,"name":"Jayanthi wewa","address":"","type":"Attractions","latitude":7.1150485,"longitude":81.5404443,"id":"1684","district":"Ampara","photo_link":"../image/data/001/Ampara/Jayanthi Wewa /header_jayanthi_wewa cover.jpg","desrciption":"A reservoir bordering Gal Oya National Park.","tourism_webiste_link":"http://www.srilanka.travel/attraction&attraction_id=96"},"geometry":{"x":81.540444300000047,"y":7.1150485000000572}},{"attributes":{"objectid":73,"name":"Jungle beach","address":"","type":"Attractions","latitude":6.018866,"longitude":80.239664,"id":"1685","district":"Galle","photo_link":"../image/data/001/Attraction01/Jungle-Beach /Jungle-1.jpg","desrciption":"Jungle Beach is one of the most remote and wildest beaches in Sri Lanka","tourism_webiste_link":"http://www.srilanka.travel/attraction&attraction_id=190"},"geometry":{"x":80.239664000000062,"y":6.0188660000000596}},{"attributes":{"objectid":74,"name":"Kadurugoda temple","address":"","type":"Attractions","latitude":9.74018891,"longitude":79.99780655,"id":"1686","district":"Jaffna","photo_link":"../image/data/attraction_main_images/Kadurugoda_Temple.jpg","desrciption":"The monastery of sixty stupas","tourism_webiste_link":"http://www.srilanka.travel/attraction&attraction_id=14"},"geometry":{"x":79.997806549000074,"y":9.7401889060000713}},{"attributes":{"objectid":75,"name":"Kalpitiya beach","address":"","type":"Attractions","latitude":8.228395,"longitude":79.731079,"id":"1687","district":"Puttalam","photo_link":"../image/data/001/Attraction01/Kalpitiya-Beach/kalpitiya-1.jpg","desrciption":"Kalpitiya Beach is a exquisite coastal region in Kalpitiya Peninsula off the west coast of Sri Lanka.","tourism_webiste_link":"http://www.srilanka.travel/attraction&attraction_id=191"},"geometry":{"x":79.731079000000079,"y":8.2283950000000345}},{"attributes":{"objectid":76,"name":"Kaluthara bodhiya","address":"","type":"Attractions","latitude":6.586866,"longitude":79.960188,"id":"1688","district":"Kalutara","photo_link":"../image/data/001/Attraction01/Kaluthara/Kaluthara-1.jpg","desrciption":"Kaluthara Bodhiya is believed to be one of the 32 saplings of the Jaya Sri Maha Bodhi in Anuradhapura Sri Lanka.","tourism_webiste_link":"http://www.srilanka.travel/attraction&attraction_id=181"},"geometry":{"x":79.960188000000073,"y":6.5868660000000432}},{"attributes":{"objectid":77,"name":"Kataragama","address":"","type":"Attractions","latitude":6.425921,"longitude":81.324421,"id":"1689","district":"Moneragala","photo_link":"../image/data/001/attractions/Main-Images/Katharagama-1.jpg","desrciption":"Kataragama is a pilgrimage town sacred to Buddhist Hindu Muslim and indigenous Vedda people of Sri Lanka. People from South India also come there to worship. Kataragama is in the Monaragala District","tourism_webiste_link":"http://www.srilanka.travel/attraction&attraction_id=169"},"geometry":{"x":81.324421000000029,"y":6.4259210000000735}},{"attributes":{"objectid":78,"name":"Kebiliththa devalaya","address":"","type":"Attractions","latitude":7.2317591,"longitude":81.647344,"id":"1690","district":"Ampara","photo_link":"../image/data/001/Ampara/Kebiliththa/header-kebilittha-COVER.jpg","desrciption":"The shrine of God Kataragama in the middle of jungle.","tourism_webiste_link":"http://www.srilanka.travel/attraction&attraction_id=131"},"geometry":{"x":81.647344000000032,"y":7.2317591000000334}},{"attributes":{"objectid":98,"name":"Meemure","address":"","type":"Attractions","latitude":7.432876,"longitude":80.844912,"id":"1710","district":"Kandy","photo_link":"../image/data/001/attractions/Main-Images/meemure-1.jpg","desrciption":"Meemure is a tradition village in Sri Lanka It is located near the border between Kandy District and Matale District in the Knuckles Mountain Range. ","tourism_webiste_link":"http://www.srilanka.travel/attraction&attraction_id=152"},"geometry":{"x":80.844912000000079,"y":7.4328760000000216}},{"attributes":{"objectid":79,"name":"Kelaniya raja maha viharaya","address":"","type":"Attractions","latitude":6.952082,"longitude":79.918528,"id":"1691","district":"Gampaha","photo_link":"../image/data/001/Attraction01/kelaniya-temple/kelaniya-1.jpg","desrciption":"In the eighth year after reaching enlightenment the Buddha visited the kingdom at Kelaniya at the invitation of King Maniakkhika of the &quot;Naga (Cobra) &quot; tribe. ","tourism_webiste_link":"http://www.srilanka.travel/attraction&attraction_id=182"},"geometry":{"x":79.918528000000038,"y":6.9520820000000754}},{"attributes":{"objectid":80,"name":"Kirinda","address":"","type":"Attractions","latitude":6.21333,"longitude":81.335336,"id":"1692","district":"Hambantota","photo_link":"../image/data/001/Attraction01/Kirinda/Kirinda-1.jpg","desrciption":"Kirinda is an ancient temple in Sri Lanka built on rocky mountain.   ","tourism_webiste_link":"http://www.srilanka.travel/attraction&attraction_id=179"},"geometry":{"x":81.335336000000041,"y":6.2133300000000418}},{"attributes":{"objectid":81,"name":"Koggala beach","address":"","type":"Attractions","latitude":5.992334,"longitude":80.310563,"id":"1693","district":"Galle","photo_link":"../image/data/001/Attraction01/Koggala-Beach /Koggala-1.jpg","desrciption":"Koggala Beach is a coastal Area located within Galle District ","tourism_webiste_link":"http://www.srilanka.travel/attraction&attraction_id=192"},"geometry":{"x":80.310563000000059,"y":5.992334000000028}},{"attributes":{"objectid":82,"name":"Koneswaram kovil","address":"","type":"Attractions","latitude":8.582766,"longitude":81.245473,"id":"1694","district":"Trincomalee","photo_link":"../image/data/001/attractions/Main-Images/Koneswaram-1.jpg","desrciption":"Koneswaram temple also known as Dakshinakailasha is a classical-medieval Hindu temple dedicated to Lord Shiva in Trincomalee Eastern Sri Lanka.","tourism_webiste_link":"http://www.srilanka.travel/attraction&attraction_id=167"},"geometry":{"x":81.245473000000061,"y":8.5827660000000492}},{"attributes":{"objectid":83,"name":"Kosgoda","address":"","type":"Attractions","latitude":6.3354424,"longitude":80.0339312,"id":"1695","district":"Galle","photo_link":"../image/data/attraction_main_images/kosgoda.jpg","desrciption":"Kosgoda beach is one of popular tourist destination in Southwest where can visit lots of Turtles.","tourism_webiste_link":"http://www.srilanka.travel/attraction&attraction_id=53"},"geometry":{"x":80.03393120000004,"y":6.3354424000000336}},{"attributes":{"objectid":84,"name":"Kotaveheragala","address":"","type":"Attractions","latitude":6.8780816,"longitude":81.7529476,"id":"1696","district":"Ampara","photo_link":"../image/data/001/Ampara/Kotaveheragala/header-Kotaveheragala-cover.jpg","desrciption":"The abode of the novice monk who was reincarnated as King Dutugamunu","tourism_webiste_link":"http://www.srilanka.travel/attraction&attraction_id=134"},"geometry":{"x":81.752947600000084,"y":6.87808160000003}},{"attributes":{"objectid":85,"name":"Kudagala forest reserve &amp; monastery","address":"","type":"Attractions","latitude":6.5441667,"longitude":81.6575,"id":"1697","district":"Ampara","photo_link":"../image/data/001/Ampara/Kudagala/Maincover.jpg","desrciption":"A monastery with cave murals.","tourism_webiste_link":"http://www.srilanka.travel/attraction&attraction_id=129"},"geometry":{"x":81.657500000000084,"y":6.5441667000000621}},{"attributes":{"objectid":86,"name":"Kudumbigala monastery","address":"","type":"Attractions","latitude":6.6721095,"longitude":81.7443538,"id":"1698","district":"Ampara","photo_link":"../image/data/001/Ampara/Kudumbigala /Header-Kudimmbigala-cover.jpg","desrciption":"The magnificent monastery of the Digamadulla  ","tourism_webiste_link":"http://www.srilanka.travel/attraction&attraction_id=113"},"geometry":{"x":81.744353800000056,"y":6.6721095000000332}},{"attributes":{"objectid":87,"name":"Kumana national park","address":"","type":"Attractions","latitude":6.569885,"longitude":81.806357,"id":"1699","district":"Hambantota","photo_link":"../image/data/001/attractions/Main-Images/Kumana-1.jpg","desrciption":"Kumana National Park in Sri Lanka is renowned for its avifauna particularly its large flocks of migratory waterfowl and wading birds. The park is 391 kilometers (243 mi) southeast of Colombo on Sri L","tourism_webiste_link":"http://www.srilanka.travel/attraction&attraction_id=166"},"geometry":{"x":81.806357000000048,"y":6.5698850000000562}},{"attributes":{"objectid":88,"name":"Lahugala kitulana forest reserve","address":"","type":"Attractions","latitude":6.9138802,"longitude":81.7568253,"id":"1700","district":"Ampara","photo_link":"../image/data/001/Ampara/Lahugala/Lahugala-cover.jpg","desrciption":"Elephant feeding ground","tourism_webiste_link":"http://www.srilanka.travel/attraction&attraction_id=141"},"geometry":{"x":81.75682530000006,"y":6.913880200000051}},{"attributes":{"objectid":89,"name":"Laxapana falls","address":"","type":"Attractions","latitude":6.899422,"longitude":80.500741,"id":"1701","district":"Nuwara Eliya","photo_link":"../image/data/001/Attraction01/Laxapana-Falls/Laxapana-1.jpg","desrciption":"Lakshapana waterfall is the 6th highest waterfall in Sri Lanka and it takes 625th in world rank List.","tourism_webiste_link":"http://www.srilanka.travel/attraction&attraction_id=187"},"geometry":{"x":80.500741000000062,"y":6.8994220000000723}},{"attributes":{"objectid":90,"name":"Lionel wendt art centre","address":"","type":"Attractions","latitude":6.906705,"longitude":79.860545,"id":"1702","district":"Colombo","photo_link":"../image/data/001/Attraction01/Lional/Lional-1.jpg","desrciption":"The Lionel Wendt Art Centre is a major art centre and theatre in Colombo.","tourism_webiste_link":"http://www.srilanka.travel/attraction&attraction_id=203"},"geometry":{"x":79.860545000000059,"y":6.9067050000000449}},{"attributes":{"objectid":91,"name":"Little adam’s peak","address":"","type":"Attractions","latitude":6.862936,"longitude":81.06498,"id":"1703","district":"Gampaha","photo_link":"../image/data/001/Attraction01/Little/Little-1.jpg","desrciption":"Ella is a small town in the Badulla District of Uva Province Sri Lanka. ","tourism_webiste_link":"http://www.srilanka.travel/attraction&attraction_id=183"},"geometry":{"x":81.064980000000048,"y":6.8629360000000474}},{"attributes":{"objectid":92,"name":"Maduru oya national wildlife park","address":"","type":"Attractions","latitude":7.5769066,"longitude":81.0892627,"id":"1704","district":"Ampara","photo_link":"../image/data/001/Prasad/Ampara/Maduru-Oya-National-Wildlife-Park/Maduru-Oya.jpg","desrciption":"The home of nearly 200 elephants","tourism_webiste_link":"http://www.srilanka.travel/attraction&attraction_id=109"},"geometry":{"x":81.089262700000063,"y":7.5769066000000294}},{"attributes":{"objectid":93,"name":"Maduru oya reservoir","address":"","type":"Attractions","latitude":7.5252778,"longitude":81.2563889,"id":"1705","district":"Ampara","photo_link":"../image/data/001/Prasad/Ampara/Maduru-Oya-Reservoir/Maduru-Oya-1.jpg","desrciption":"An irrigation based reservoir built under the Mahaweli project","tourism_webiste_link":"http://www.srilanka.travel/attraction&attraction_id=130"},"geometry":{"x":81.256388900000047,"y":7.5252778000000262}},{"attributes":{"objectid":94,"name":"Maduwanwela walawwa","address":"","type":"Attractions","latitude":6.37671796,"longitude":80.70899963,"id":"1706","district":"Ratnapura","photo_link":"../image/data/attraction_main_images/Maduwanwala_34.jpg","desrciption":"Largest Walawwa of the country","tourism_webiste_link":"http://www.srilanka.travel/attraction&attraction_id=26"},"geometry":{"x":80.708999634000065,"y":6.3767179640000222}},{"attributes":{"objectid":95,"name":"Magul maha temple (magul maha viharaya)","address":"","type":"Attractions","latitude":6.8673471,"longitude":81.7366519,"id":"1707","district":"Ampara","photo_link":"../image/data/001/Ampara/Magulmaha viharaya/header_magulmaha_viharaya cover.jpg","desrciption":"Built to celebrate this union which was to change the face of Sri Lankan history forever","tourism_webiste_link":"http://www.srilanka.travel/attraction&attraction_id=98"},"geometry":{"x":81.736651900000084,"y":6.8673471000000745}},{"attributes":{"objectid":96,"name":"Makaraya","address":"","type":"Attractions","latitude":7.2317591,"longitude":81.647344,"id":"1708","district":"Ampara","photo_link":"../image/data/001/Ampara/Makaraya/Makaraya-cover.jpg","desrciption":"A whirlpool in the midst of senanayaka Samudraya and a camping site.","tourism_webiste_link":"http://www.srilanka.travel/attraction&attraction_id=137"},"geometry":{"x":81.647344000000032,"y":7.2317591000000334}},{"attributes":{"objectid":97,"name":"Maligathenna raja maha viharaya","address":"","type":"Attractions","latitude":7.1744945,"longitude":80.060652,"id":"1709","district":"Gampaha","photo_link":"../image/data/001/Gampaha/800,400 Header_Maligathenna.jpg","desrciption":"A refuge of sacred relics and Kings","tourism_webiste_link":"http://www.srilanka.travel/attraction&attraction_id=69"},"geometry":{"x":80.060652000000061,"y":7.1744945000000371}},{"attributes":{"objectid":99,"name":"Minneriya national park","address":"","type":"Attractions","latitude":8.030731,"longitude":80.827295,"id":"1711","district":"Polonnaruwa","photo_link":"../image/data/001/attractions/Main-Images/Minneriya-1.jpg","desrciption":"Minneriya National Park is a national park in North Central Province of Sri Lanka. The park is situated 182 kilometers (113 mi) from Colombo.","tourism_webiste_link":"http://www.srilanka.travel/attraction&attraction_id=173"},"geometry":{"x":80.827295000000049,"y":8.0307310000000598}},{"attributes":{"objectid":100,"name":"Mirissa","address":"","type":"Attractions","latitude":5.944783,"longitude":80.458777,"id":"1712","district":"Matara","photo_link":"../image/data/001/attractions/Main-Images/Mirissa-1.jpg","desrciption":"Mirissa is a small town on the south coast of Sri Lanka located in the Matara District of the Southern Province. Mirissas beach and night life make it a popular tourist destination.","tourism_webiste_link":"http://www.srilanka.travel/attraction&attraction_id=165"},"geometry":{"x":80.458777000000055,"y":5.9447830000000295}},{"attributes":{"objectid":101,"name":"Muhudu maha viharaya","address":"","type":"Attractions","latitude":6.8684711,"longitude":81.8405056,"id":"1713","district":"Ampara","photo_link":"../image/data/001/Prasad/Ampara/Muhudu-Maha-Viharaya/Muhudu-1.jpg","desrciption":"The pier of a Storm tossed princess.","tourism_webiste_link":"http://www.srilanka.travel/attraction&attraction_id=142"},"geometry":{"x":81.840505600000085,"y":6.868471100000022}},{"attributes":{"objectid":102,"name":"Mullikulamalai","address":"","type":"Attractions","latitude":7.2852875,"longitude":81.797839,"id":"1714","district":"Ampara","photo_link":"../image/data/001/Prasad/Ampara/Mullikulamalai/Mullikulamalai-1.jpg","desrciption":"The monastery where Queen Viharamadevi was living as a Bikkhuni.","tourism_webiste_link":"http://www.srilanka.travel/attraction&attraction_id=148"},"geometry":{"x":81.797839000000067,"y":7.2852875000000381}},{"attributes":{"objectid":103,"name":"Nagadeepa purana raja maha viharaya","address":"","type":"Attractions","latitude":9.60955119,"longitude":79.77069855,"id":"1715","district":"Jaffna","photo_link":"../image/data/attraction_main_images/Nagadeepa_Viharaya.jpg","desrciption":"A site graced by Lord Buddha","tourism_webiste_link":"http://www.srilanka.travel/attraction&attraction_id=16"},"geometry":{"x":79.770698547000052,"y":9.6095511850000435}},{"attributes":{"objectid":104,"name":"Nagapabbatha monastery","address":"","type":"Attractions","latitude":6.6358768,"longitude":81.6706896,"id":"1716","district":"Ampara","photo_link":"../image/data/001/Ampara/Nagapabbatha/Header-Bambaragasthalawa-cover.jpg","desrciption":"A monastery amidst the wildlife sanctuary of Kumana.","tourism_webiste_link":"http://www.srilanka.travel/attraction&attraction_id=105"},"geometry":{"x":81.67068960000006,"y":6.6358768000000623}},{"attributes":{"objectid":105,"name":"Nara mangrove garden","address":"","type":"Attractions","latitude":7.0873101,"longitude":80.0143656,"id":"1717","district":"Gampaha","photo_link":"../image/data/001/Gampaha/Nara mangrove/800,400 Header_naramangrove.jpg","desrciption":"Into the secret life of mangroves.","tourism_webiste_link":"http://www.srilanka.travel/attraction&attraction_id=85"},"geometry":{"x":80.014365600000076,"y":7.0873101000000247}},{"attributes":{"objectid":106,"name":"Neelagiri stupa","address":"","type":"Attractions","latitude":6.8995015,"longitude":81.7937279,"id":"1718","district":"Ampara","photo_link":"../image/data/001/Ampara/Neelagiri/header-neelagiri-cover.jpg","desrciption":"The largest stupa of the east","tourism_webiste_link":"http://www.srilanka.travel/attraction&attraction_id=104"},"geometry":{"x":81.793727900000079,"y":6.8995015000000421}},{"attributes":{"objectid":107,"name":"Negambo beach","address":"","type":"Attractions","latitude":7.237816,"longitude":79.841018,"id":"1719","district":"Gampaha","photo_link":"../image/data/001/Attraction01/Negambo-Beach/Negambo-1.jpg","desrciption":"Negambo Beach located on the west coast of the island and at the mouth of the Negombo Lagoon.","tourism_webiste_link":"http://www.srilanka.travel/attraction&attraction_id=193"},"geometry":{"x":79.841018000000076,"y":7.2378160000000662}},{"attributes":{"objectid":108,"name":"Negombo","address":"","type":"Attractions","latitude":7.2007968,"longitude":79.8736754,"id":"1720","district":"Puttalam","photo_link":"../image/data/attraction_main_images/negombo.jpg","desrciption":"Negombo is mere 07 Kms from the Bandaranaike International airport","tourism_webiste_link":"http://www.srilanka.travel/attraction&attraction_id=50"},"geometry":{"x":79.873675400000081,"y":7.2007968000000346}},{"attributes":{"objectid":109,"name":"Nikayalannuwara historical temple","address":"","type":"Attractions","latitude":7.57828585,"longitude":79.83738899,"id":"1721","district":"Kurunegala","photo_link":"../image/data/attraction_main_images/Nikayalannuwara_Historical_Temple.jpg","desrciption":"A Buddhist learning seat in the East Western","tourism_webiste_link":"http://www.srilanka.travel/attraction&attraction_id=33"},"geometry":{"x":79.837388992000058,"y":7.5782858520000218}},{"attributes":{"objectid":110,"name":"Nikayalannuwara historical temple","address":"","type":"Attractions","latitude":7.4729813,"longitude":80.3547286,"id":"1722","district":"Kurunegala","photo_link":"../image/data/001/Kurunegala/Nikayalannuwara Historical Temple/Header_Nikasalanuwara cvr pic.jpg","desrciption":"A Buddhist learning seat in the East Western ","tourism_webiste_link":"http://www.srilanka.travel/attraction&attraction_id=88"},"geometry":{"x":80.354728600000044,"y":7.4729813000000718}},{"attributes":{"objectid":111,"name":"Nilavara bottomless well","address":"","type":"Attractions","latitude":9.7527085,"longitude":80.09119034,"id":"1723","district":"Jaffna","photo_link":"../image/data/attraction_main_images/Nilvara_bottomless_well.jpg","desrciption":"A bottomless well with pure water ","tourism_webiste_link":"http://www.srilanka.travel/attraction&attraction_id=17"},"geometry":{"x":80.091190338000047,"y":9.7527085000000397}},{"attributes":{"objectid":112,"name":"Nilaveli and uppaveli","address":"","type":"Attractions","latitude":8.6927331,"longitude":81.1885293,"id":"1724","district":"Trincomalee","photo_link":"../image/data/attraction_main_images/nilaweli.jpg","desrciption":"One of the natural deep water harbor in the world located 257km north east from the Colombo.","tourism_webiste_link":"http://www.srilanka.travel/attraction&attraction_id=48"},"geometry":{"x":81.188529300000084,"y":8.6927331000000549}},{"attributes":{"objectid":113,"name":"Nuwaragala","address":"","type":"Attractions","latitude":7.512463,"longitude":81.4883097,"id":"1725","district":"Ampara","photo_link":"../image/data/001/Prasad/Ampara/Nuwaragala/Nuwaragala-1.jpg","desrciption":"An ancient Fortress and monastery in Vedda country.","tourism_webiste_link":"http://www.srilanka.travel/attraction&attraction_id=146"},"geometry":{"x":81.488309700000059,"y":7.5124630000000252}},{"attributes":{"objectid":114,"name":"Okanda beach","address":"","type":"Attractions","latitude":6.6499177,"longitude":81.7727772,"id":"1726","district":"Ampara","photo_link":"../image/data/001/Prasad/Ampara/Okanda-Beach /Okanda-Beach-1.jpg","desrciption":"One of the top surfs in the Eastern coast.","tourism_webiste_link":"http://www.srilanka.travel/attraction&attraction_id=99"},"geometry":{"x":81.772777200000064,"y":6.64991770000006}},{"attributes":{"objectid":115,"name":"Omunugala cave monastery","address":"","type":"Attractions","latitude":7.2197319,"longitude":81.5626968,"id":"1727","district":"Ampara","photo_link":"../image/data/001/Prasad/Ampara/Omunugala-Cave-Monastery/Omunugala-1.jpg","desrciption":"A 3 rd century BC monastery complex","tourism_webiste_link":"http://www.srilanka.travel/attraction&attraction_id=120"},"geometry":{"x":81.562696800000083,"y":7.2197319000000562}},{"attributes":{"objectid":116,"name":"Owagiriya ancient monastery","address":"","type":"Attractions","latitude":7.2197319,"longitude":81.5626968,"id":"1728","district":"Ampara","photo_link":"../image/data/001/Prasad/Ampara/Owagiriya-Ancient-Monastery/Ovagiriya-1.jpg","desrciption":"An ancient monastery of second century BC","tourism_webiste_link":"http://www.srilanka.travel/attraction&attraction_id=121"},"geometry":{"x":81.562696800000083,"y":7.2197319000000562}},{"attributes":{"objectid":117,"name":"Pallan hela mountain","address":"","type":"Attractions","latitude":7.2317591,"longitude":81.647344,"id":"1729","district":"Ampara","photo_link":"../image/data/001/Ampara/Pallan Hela Mountain/Pallan Hela Mountain-cover.jpg","desrciption":"A mountain fortress with a breath taking view","tourism_webiste_link":"http://www.srilanka.travel/attraction&attraction_id=136"},"geometry":{"x":81.647344000000032,"y":7.2317591000000334}},{"attributes":{"objectid":118,"name":"Panavitiya ambalama","address":"","type":"Attractions","latitude":7.40660096,"longitude":80.17162442,"id":"1730","district":"Kurunegala","photo_link":"../image/data/attraction_main_images/Panavitiya_Ambalama.jpg","desrciption":"Famous for wood carving.","tourism_webiste_link":"http://www.srilanka.travel/attraction&attraction_id=36"},"geometry":{"x":80.171624422000036,"y":7.4066009620000273}},{"attributes":{"objectid":119,"name":"Panavitiya ambalama","address":"","type":"Attractions","latitude":7.4068253,"longitude":80.1732731,"id":"1731","district":"Kurunegala","photo_link":"../image/data/001/Kurunegala/Panavitiya Ambalama/Header_Panavitiya Ambalama CVR.jpg","desrciption":"Famous for wood carving.","tourism_webiste_link":"http://www.srilanka.travel/attraction&attraction_id=94"},"geometry":{"x":80.173273100000074,"y":7.4068253000000368}},{"attributes":{"objectid":120,"name":"Pannathgoda purana raja maha viharaya","address":"","type":"Attractions","latitude":7.1469352,"longitude":81.5524438,"id":"1732","district":"Ampara","photo_link":"../image/data/001/Prasad/Ampara/Pannathgoda-Purana-Raja-Maha-Viharaya/Pannathgoda-1.jpg","desrciption":"A first Century BC temple which hosts an ancient map of Sri Lanka.","tourism_webiste_link":"http://www.srilanka.travel/attraction&attraction_id=97"},"geometry":{"x":81.552443800000049,"y":7.1469352000000299}},{"attributes":{"objectid":121,"name":"Pettah floating market","address":"","type":"Attractions","latitude":6.932938,"longitude":79.855409,"id":"1733","district":"Colombo","photo_link":"../image/data/001/Attraction01/Floating/Floting-1.jpg","desrciption":"The Pettah Floating Market is one of Colombo’s newer shopping place located at the Bastian street on the Beira Lake.","tourism_webiste_link":"http://www.srilanka.travel/attraction&attraction_id=207"},"geometry":{"x":79.855409000000066,"y":6.9329380000000356}},{"attributes":{"objectid":122,"name":"Pettah market","address":"","type":"Attractions","latitude":6.936218,"longitude":79.850106,"id":"1734","district":"Colombo","photo_link":"../image/data/001/Attraction01/Pettah/Pettah-1.jpg","desrciption":"Main market in Sri Lanka that can get a new experience.","tourism_webiste_link":"http://www.srilanka.travel/attraction&attraction_id=212"},"geometry":{"x":79.850106000000039,"y":6.9362180000000535}},{"attributes":{"objectid":123,"name":"Pigeon island national park","address":"","type":"Attractions","latitude":8.722112,"longitude":81.204543,"id":"1735","district":"Trincomalee","photo_link":"../image/data/001/attractions/Main-Images/Pigeon-Island-1.jpg","desrciption":"Pigeon Island National Park is one of the two marine national parks of Sri Lanka. The national park is situated 1 km off the coast of Nilaveli. ","tourism_webiste_link":"http://www.srilanka.travel/attraction&attraction_id=159"},"geometry":{"x":81.204543000000058,"y":8.7221120000000383}},{"attributes":{"objectid":124,"name":"Pineapple in belummahara","address":"","type":"Attractions","latitude":7.0663699,"longitude":80.0122449,"id":"1736","district":"Gampaha","photo_link":"../image/data/001/Gampaha/Pineapple in Balummahara/800,400 Header__Belummahara.jpg","desrciption":"The Pineapple is a universal symbol for hospitality.","tourism_webiste_link":"http://www.srilanka.travel/attraction&attraction_id=83"},"geometry":{"x":80.012244900000042,"y":7.0663699000000406}},{"attributes":{"objectid":125,"name":"Pinnawala elephant orphanage","address":"","type":"Attractions","latitude":7.300896,"longitude":80.387585,"id":"1737","district":"Kegalle","photo_link":"../image/data/001/attractions/Main-Images/Pinnawala-1.jpg","desrciption":"Pinnawala Elephant Orphanage is an orphanage nursery and captive breeding ground for wild Asian elephants located at Pinnawala village 13 km (8.1 mi) northeast of Kegalle town in Sabaragamuwa Provin","tourism_webiste_link":"http://www.srilanka.travel/attraction&attraction_id=161"},"geometry":{"x":80.387585000000058,"y":7.3008960000000229}},{"attributes":{"objectid":126,"name":"Piyangala forest hermitage","address":"","type":"Attractions","latitude":7.495774,"longitude":81.6315927,"id":"1738","district":"Ampara","photo_link":"../image/data/001/Ampara/Piyangala Forest Hermitage/header-piyangala-cover.jpg","desrciption":"A forest hermitage of ancient tradition","tourism_webiste_link":"http://www.srilanka.travel/attraction&attraction_id=106"},"geometry":{"x":81.631592700000056,"y":7.4957740000000399}},{"attributes":{"objectid":127,"name":"Point pedro","address":"","type":"Attractions","latitude":9.79415515,"longitude":80.22075176,"id":"1739","district":"Jaffna","photo_link":"../image/data/attraction_main_images/Point_pedro.jpg","desrciption":"Sri Lanka’s north most corner","tourism_webiste_link":"http://www.srilanka.travel/attraction&attraction_id=18"},"geometry":{"x":80.220751762000077,"y":9.7941551510000409}},{"attributes":{"objectid":128,"name":"Rajagala","address":"","type":"Attractions","latitude":7.4908074,"longitude":81.6172083,"id":"1740","district":"Ampara","photo_link":"../image/data/001/Ampara/Rajagala/header-rajagala COVER.jpg","desrciption":"A monastery in perfect form amidst the jungle","tourism_webiste_link":"http://www.srilanka.travel/attraction&attraction_id=103"},"geometry":{"x":81.617208300000073,"y":7.4908074000000511}},{"attributes":{"objectid":129,"name":"Rambakan oya","address":"","type":"Attractions","latitude":7.49841,"longitude":81.3780431,"id":"1741","district":"Ampara","photo_link":"../image/data/001/Prasad/Ampara/Rambakan-Oya/Rambakan-Oya-1.jpg","desrciption":"A mega irrigation project in East.","tourism_webiste_link":"http://www.srilanka.travel/attraction&attraction_id=147"},"geometry":{"x":81.37804310000007,"y":7.4984100000000353}},{"attributes":{"objectid":130,"name":"Rambodagalla buddha statue","address":"","type":"Attractions","latitude":7.5156351,"longitude":80.5041841,"id":"1742","district":"Kurunegala","photo_link":"../image/data/001/Prasad/Kurunagala/Rambodagalla Buddha Statue /Rambodagalla.jpg","desrciption":"The world’s Largest Granite Statue of Samadhi Buddha.","tourism_webiste_link":"http://www.srilanka.travel/attraction&attraction_id=92"},"geometry":{"x":80.504184100000032,"y":7.5156351000000541}},{"attributes":{"objectid":131,"name":"Ratmullukanda viharaya","address":"","type":"Attractions","latitude":7.5156351,"longitude":80.5041841,"id":"1743","district":"Kurunegala","photo_link":"../image/data/001/Kurunegala/Rathmulu Kanda/Header_Rathmulu Kanda cvr pic.jpg","desrciption":"The highest peak that can be reached by a vehicle","tourism_webiste_link":"http://www.srilanka.travel/attraction&attraction_id=89"},"geometry":{"x":80.504184100000032,"y":7.5156351000000541}},{"attributes":{"objectid":132,"name":"Rawana ella and ravana falls","address":"","type":"Attractions","latitude":6.840527,"longitude":81.054634,"id":"1744","district":"Badulla","photo_link":"../image/data/001/Attraction01/Rawana-ella-ravana-falls/Rawana-1.jpg","desrciption":"This is the one of most popular and elegant water fall in Sri Lanka.","tourism_webiste_link":"http://www.srilanka.travel/attraction&attraction_id=188"},"geometry":{"x":81.054634000000078,"y":6.8405270000000655}},{"attributes":{"objectid":133,"name":"Richmond castle","address":"","type":"Attractions","latitude":6.601561,"longitude":79.975275,"id":"1745","district":"Kalutara","photo_link":"../image/data/001/Attraction01/Richmond-Castle/Richmond-1.jpg","desrciption":"Richmond Castle is like an amazing Royal Palace in Sri Lanka. ","tourism_webiste_link":"http://www.srilanka.travel/attraction&attraction_id=198"},"geometry":{"x":79.975275000000067,"y":6.6015610000000606}},{"attributes":{"objectid":134,"name":"Ridee viharaya","address":"","type":"Attractions","latitude":7.5373387,"longitude":80.4919767,"id":"1746","district":"Kurunegala","photo_link":"../image/data/001/Prasad/Kurunagala/Ridee Viharaya/Ridee-1.jpg","desrciption":"King Dutugemunu found a silver (ridi) ore mine which was used to finance the building of the gigantic Ruwanweli Seya .","tourism_webiste_link":"http://www.srilanka.travel/attraction&attraction_id=90"},"geometry":{"x":80.491976700000066,"y":7.5373387000000207}},{"attributes":{"objectid":135,"name":"Samangala forest hermitage","address":"","type":"Attractions","latitude":7.4128915,"longitude":81.5712964,"id":"1747","district":"Ampara","photo_link":"../image/data/001/Ampara/Samangala/Samangala-cover.jpg","desrciption":"A monastery with rare Brahmin inscriptions","tourism_webiste_link":"http://www.srilanka.travel/attraction&attraction_id=115"},"geometry":{"x":81.571296400000051,"y":7.4128915000000575}},{"attributes":{"objectid":136,"name":"Sangamankanda point","address":"","type":"Attractions","latitude":7.0259349,"longitude":81.8783087,"id":"1748","district":"Ampara","photo_link":"../image/data/001/Ampara/Sangamankanda /Samangala-komari-cover.jpg","desrciption":"The Eastern most point of the country.","tourism_webiste_link":"http://www.srilanka.travel/attraction&attraction_id=126"},"geometry":{"x":81.878308700000048,"y":7.0259349000000384}},{"attributes":{"objectid":137,"name":"Seema malakaya meditation centre","address":"","type":"Attractions","latitude":6.916832,"longitude":79.854593,"id":"1749","district":"Colombo","photo_link":"../image/data/001/Attraction01/Seema-Malakaya/Seema-1.jpg","desrciption":"This is a calm and beautiful place in the busy Colombo city.","tourism_webiste_link":"http://www.srilanka.travel/attraction&attraction_id=204"},"geometry":{"x":79.854593000000079,"y":6.9168320000000563}},{"attributes":{"objectid":138,"name":"Senanayaka samudraya of inginiyagala","address":"","type":"Attractions","latitude":7.2278803,"longitude":81.5354077,"id":"1750","district":"Ampara","photo_link":"../image/data/001/Prasad/Ampara/Senanayaka-Samudraya/Inginiyagala-1.jpg","desrciption":"The largest manmade reservoir in the country.","tourism_webiste_link":"http://www.srilanka.travel/attraction&attraction_id=102"},"geometry":{"x":81.535407700000064,"y":7.227880300000038}},{"attributes":{"objectid":139,"name":"Shasthrawela","address":"","type":"Attractions","latitude":6.5552778,"longitude":81.6863889,"id":"1751","district":"Ampara","photo_link":"../image/data/001/Ampara/Shasthrawela/Header-Sastharawela-cover.jpg","desrciption":"A Buddhist learning seat in the East","tourism_webiste_link":"http://www.srilanka.travel/attraction&attraction_id=125"},"geometry":{"x":81.686388900000054,"y":6.5552778000000558}},{"attributes":{"objectid":140,"name":"Sigiriya","address":"","type":"Attractions","latitude":7.956845,"longitude":80.759944,"id":"1752","district":"Matale","photo_link":"../image/data/001/attractions/Main-Images/Sigiriya-1.jpg","desrciption":"Sigiriya is located in matale district in the central province of sri lanka. It is within the cultural triangle which includes five of the seven world heritage sites in sri lanka. ","tourism_webiste_link":"http://www.srilanka.travel/attraction&attraction_id=160"},"geometry":{"x":80.759944000000075,"y":7.9568450000000439}},{"attributes":{"objectid":141,"name":"Sinharaja","address":"","type":"Attractions","latitude":6.389637,"longitude":80.501088,"id":"1753","district":"Ratnapura","photo_link":"../image/data/001/attractions/Main-Images/sinharaja-800x400.jpg","desrciption":"Sinharaja Forest Reserve is a national park and a biodiversity hotspot in Sri Lanka. It is of international significance and has been designated a Biosphere Reserve and World Heritage Site by UNESCO.","tourism_webiste_link":"http://www.srilanka.travel/attraction&attraction_id=151"},"geometry":{"x":80.501088000000038,"y":6.3896370000000502}},{"attributes":{"objectid":142,"name":"Sri dalada maligawa (temple of the tooth)","address":"","type":"Attractions","latitude":7.294373,"longitude":80.641486,"id":"1754","district":"Kandy","photo_link":"../image/data/001/attractions/Main-Images/Kandy-1.jpg","desrciption":"Sri Dalada Maligawa or the Temple of the Sacred Tooth Relic is a Buddhist temple in the city of Kandy Sri Lanka.This a World Heritage Site mainly due to the temple.  ","tourism_webiste_link":"http://www.srilanka.travel/attraction&attraction_id=155"},"geometry":{"x":80.641486000000043,"y":7.2943730000000642}},{"attributes":{"objectid":143,"name":"Sri pada (adams peak)","address":"","type":"Attractions","latitude":6.809627,"longitude":80.499399,"id":"1755","district":"Ratnapura","photo_link":"../image/data/001/attractions/Sripada/adams-peak.jpg","desrciption":"Sri pada or samanala kanda is 2243m tall conical mountain located in central in sri lanka.  This is the fourth highest mountain in sri lanka.","tourism_webiste_link":"http://www.srilanka.travel/attraction&attraction_id=150"},"geometry":{"x":80.499399000000039,"y":6.8096270000000345}},{"attributes":{"objectid":144,"name":"Sri shakhyasinharamaya","address":"","type":"Attractions","latitude":6.9510702,"longitude":79.8741581,"id":"1756","district":"Colombo","photo_link":"../image/data/001/Attraction01/temple-800x400.jpg","desrciption":"This is a One of Splendored temple in Colombo 14.","tourism_webiste_link":"http://www.srilanka.travel/attraction&attraction_id=220"},"geometry":{"x":79.874158100000045,"y":6.9510702000000606}},{"attributes":{"objectid":145,"name":"St. clairs falls","address":"","type":"Attractions","latitude":6.951754,"longitude":80.648158,"id":"1757","district":"Nuwara Eliya","photo_link":"../image/data/001/Attraction01/St-Clairs-Falls/Clairs Falls-1.jpg","desrciption":"This is the widest waterfall in Sri Lanka therefore St. Clair’s commonly known as Little Niagara of Sri Lanka. ","tourism_webiste_link":"http://www.srilanka.travel/attraction&attraction_id=189"},"geometry":{"x":80.64815800000008,"y":6.9517540000000508}},{"attributes":{"objectid":146,"name":"The dagger clawed people","address":"","type":"Attractions","latitude":7.2317591,"longitude":81.647344,"id":"1758","district":"Ampara","photo_link":"../image/data/001/Ampara/Nittaewo/Nittaewo- cover.JPG","desrciption":"Pigmy size human in Sri Lanka","tourism_webiste_link":"http://www.srilanka.travel/attraction&attraction_id=139"},"geometry":{"x":81.647344000000032,"y":7.2317591000000334}},{"attributes":{"objectid":147,"name":"The japanese peace pagoda","address":"","type":"Attractions","latitude":7.2317591,"longitude":81.647344,"id":"1759","district":"Ampara","photo_link":"../image/data/001/Prasad/Ampara/The-Japanese-Peace-Pagoda/Pagoda-1.jpg","desrciption":"One of the five peace pagodas in Sri Lanka.","tourism_webiste_link":"http://www.srilanka.travel/attraction&attraction_id=116"},"geometry":{"x":81.647344000000032,"y":7.2317591000000334}},{"attributes":{"objectid":148,"name":"The nagapooshani amman kovil","address":"","type":"Attractions","latitude":9.61293622,"longitude":79.76966858,"id":"1760","district":"Jaffna","photo_link":"../image/data/attraction_main_images/Nagadeepa_kovil.jpg","desrciption":"One of the prominent 64 Shakti Peethams.","tourism_webiste_link":"http://www.srilanka.travel/attraction&attraction_id=19"},"geometry":{"x":79.76966857900004,"y":9.6129362210000409}},{"attributes":{"objectid":149,"name":"The steaming hot water wells of mahaoya","address":"","type":"Attractions","latitude":7.4312864,"longitude":81.3329601,"id":"1761","district":"Ampara","photo_link":"../image/data/001/Ampara/Mahaoya/Mahaoya-cover.jpg","desrciption":"The hottest natural hot water source in the country","tourism_webiste_link":"http://www.srilanka.travel/attraction&attraction_id=140"},"geometry":{"x":81.332960100000037,"y":7.4312864000000332}},{"attributes":{"objectid":150,"name":"Thewatta besilika church - national basilica of our lady of lan","address":"","type":"Attractions","latitude":7.0367618,"longitude":79.9315125,"id":"1762","district":"Gampaha","photo_link":"../image/data/001/Gampaha/Thewatta Besilika Church/800,400 Header_ThewattaBC.jpg","desrciption":"Built to keep the promise of faith.","tourism_webiste_link":"http://www.srilanka.travel/attraction&attraction_id=87"},"geometry":{"x":79.931512500000053,"y":7.036761800000022}},{"attributes":{"objectid":151,"name":"Tomb of king vijay","address":"","type":"Attractions","latitude":7.4729813,"longitude":80.3547286,"id":"1763","district":"Kurunegala","photo_link":"../image/data/001/Kurunegala/Tomb of King Vijay /Headder_Tomb of King Vijay cvr.jpg","desrciption":"The place where King Vijaya wished to be buried","tourism_webiste_link":"http://www.srilanka.travel/attraction&attraction_id=91"},"geometry":{"x":80.354728600000044,"y":7.4729813000000718}},{"attributes":{"objectid":152,"name":"Traditional village (ape gama)","address":"","type":"Attractions","latitude":6.891276,"longitude":79.922249,"id":"1764","district":"Colombo","photo_link":"../image/data/001/Attraction01/Ape-Gama/Ape-gama-1.jpg","desrciption":"Ape Gama (Our Village) is a replica of the Sri Lankan old day traditional village.","tourism_webiste_link":"http://www.srilanka.travel/attraction&attraction_id=218"},"geometry":{"x":79.922249000000079,"y":6.8912760000000617}},{"attributes":{"objectid":153,"name":"Udawalawe national park","address":"","type":"Attractions","latitude":6.472865,"longitude":81.063191,"id":"1765","district":"Ratnapura","photo_link":"../image/data/001/attractions/Main-Images/Udawalawe-1.jpg","desrciption":"Udawalawe National Park lies on the boundary of Sabaragamuwa and Uva Provinces in Sri Lanka. ","tourism_webiste_link":"http://www.srilanka.travel/attraction&attraction_id=164"},"geometry":{"x":81.063191000000074,"y":6.4728650000000698}},{"attributes":{"objectid":154,"name":"Unawatuna","address":"","type":"Attractions","latitude":6.009862,"longitude":80.248518,"id":"1766","district":"Galle","photo_link":"../image/data/001/attractions/Main-Images/Unawatuna-1.jpg","desrciption":"Unawatuna is a coastal town in Galle district of Sri Lanka. Unawatuna is a major tourist attraction in Sri Lanka and famous for its beautiful beach and corals.","tourism_webiste_link":"http://www.srilanka.travel/attraction&attraction_id=162"},"geometry":{"x":80.248518000000047,"y":6.0098620000000551}},{"attributes":{"objectid":155,"name":"Veddagala","address":"","type":"Attractions","latitude":7.2317591,"longitude":81.647344,"id":"1767","district":"Ampara","photo_link":"../image/data/001/Ampara/Veddagala/Veddagala- cover.JPG","desrciption":"A ruined monastery atop a mountain","tourism_webiste_link":"http://www.srilanka.travel/attraction&attraction_id=138"},"geometry":{"x":81.647344000000032,"y":7.2317591000000334}},{"attributes":{"objectid":156,"name":"Veheragala temple","address":"","type":"Attractions","latitude":6.7039056,"longitude":81.6647243,"id":"1768","district":"Ampara","photo_link":"../image/data/001/Prasad/Ampara/Veheragala-Temple/Veheragala-1.jpg","desrciption":"A ruined temple and monastery.","tourism_webiste_link":"http://www.srilanka.travel/attraction&attraction_id=133"},"geometry":{"x":81.664724300000046,"y":6.7039056000000414}},{"attributes":{"objectid":157,"name":"Victoria park","address":"","type":"Attractions","latitude":6.970547,"longitude":80.768247,"id":"1769","district":"Nuwara Eliya","photo_link":"../image/data/001/attractions/Main-Images/Victoria-1.jpg","desrciption":"The Victoria Park is a public park located in Nuwara Eliya next to the Nuwara Eliya Post Office in Sri Lanka. ","tourism_webiste_link":"http://www.srilanka.travel/attraction&attraction_id=174"},"geometry":{"x":80.768247000000031,"y":6.9705470000000673}},{"attributes":{"objectid":158,"name":"Viharamahadevi park","address":"","type":"Attractions","latitude":6.913476,"longitude":79.861837,"id":"1770","district":"Colombo","photo_link":"../image/data/001/Attraction01/Viharamahadevi/Viharamahadevi-1.jpg","desrciption":"Viharamahadevi Park is the oldest and largest park in the central of Colombo.","tourism_webiste_link":"http://www.srilanka.travel/attraction&attraction_id=216"},"geometry":{"x":79.861837000000037,"y":6.9134760000000597}},{"attributes":{"objectid":159,"name":"Wadinagala","address":"","type":"Attractions","latitude":7.133864,"longitude":81.5486728,"id":"1771","district":"Ampara","photo_link":"../image/data/001/Prasad/Ampara/Wadinagala/wadinagala-1.jpg","desrciption":"A reservoir bordering Gal Oya National Park.","tourism_webiste_link":"http://www.srilanka.travel/attraction&attraction_id=118"},"geometry":{"x":81.548672800000077,"y":7.1338640000000737}},{"attributes":{"objectid":160,"name":"Warana","address":"","type":"Attractions","latitude":7.1028835,"longitude":80.074795,"id":"1772","district":"Gampaha","photo_link":"../image/data/001/Gampaha/Warana/800,400 Header__Warana.jpg","desrciption":"The mountain hermitage of two brothers","tourism_webiste_link":"http://www.srilanka.travel/attraction&attraction_id=82"},"geometry":{"x":80.074795000000051,"y":7.1028835000000754}},{"attributes":{"objectid":161,"name":"Wasgamuwa national park","address":"","type":"Attractions","latitude":7.753114,"longitude":80.92043,"id":"1773","district":"Matale","photo_link":"../image/data/001/attractions/Main-Images/Wasgamuwa-1.jpg","desrciption":"Wasgamuwa National Park is a natural park in Sri Lanka situated in the Matale and Polonnaruwa Districts. The park is situated 225 km away from Colombo.  ","tourism_webiste_link":"http://www.srilanka.travel/attraction&attraction_id=175"},"geometry":{"x":80.920430000000067,"y":7.7531140000000391}},{"attributes":{"objectid":162,"name":"Weligama  bay","address":"","type":"Attractions","latitude":5.9773782,"longitude":80.4288487,"id":"1774","district":"Galle","photo_link":"../image/data/attraction_main_images/weligama.jpg","desrciption":"From Tangalle Bay to Weligama is a beautiful coastline with rugged rocks sandy beaches and coconut groves.","tourism_webiste_link":"http://www.srilanka.travel/attraction&attraction_id=55"},"geometry":{"x":80.42884870000006,"y":5.9773782000000324}},{"attributes":{"objectid":163,"name":"Weweldeniya","address":"","type":"Attractions","latitude":7.1979285,"longitude":80.1526271,"id":"1775","district":"Gampaha","photo_link":"../image/data/001/Gampaha/Header_Weweldeniya 800,400.jpg","desrciption":"A Piece of tradition.","tourism_webiste_link":"http://www.srilanka.travel/attraction&attraction_id=61"},"geometry":{"x":80.152627100000075,"y":7.1979285000000459}},{"attributes":{"objectid":164,"name":"Whale watching in mirissa","address":"","type":"Attractions","latitude":5.94526549,"longitude":80.46180725,"id":"1776","district":"Galle","photo_link":"../image/data/attraction_main_images/Whale_Watching_In_Mirissa.jpg","desrciption":" Whale and dolphin watching in south sea.","tourism_webiste_link":"http://www.srilanka.travel/attraction&attraction_id=6"},"geometry":{"x":80.461807251000039,"y":5.9452654860000393}},{"attributes":{"objectid":165,"name":"Wilpattu national park","address":"","type":"Attractions","latitude":8.456457,"longitude":80.047982,"id":"1777","district":"Anuradhapura","photo_link":"../image/data/001/Attraction01/Wilpattu/Wilpattu-1.jpg","desrciption":"Wilpattu is the largest and one of the oldest National Parks in Sri Lanka.","tourism_webiste_link":"http://www.srilanka.travel/attraction&attraction_id=219"},"geometry":{"x":80.047982000000047,"y":8.4564570000000572}},{"attributes":{"objectid":166,"name":"Wolvendaal church","address":"","type":"Attractions","latitude":6.9421,"longitude":79.859,"id":"1778","district":"Colombo","photo_link":"../image/data/001/Attraction01/Wolvendal-church/Church-1.jpg","desrciption":"This is the Oldest protestant church in Sri Lanka.","tourism_webiste_link":"http://www.srilanka.travel/attraction&attraction_id=205"},"geometry":{"x":79.859000000000037,"y":6.942100000000039}},{"attributes":{"objectid":167,"name":"Yala national park","address":"","type":"Attractions","latitude":6.279281,"longitude":81.401821,"id":"1779","district":"Hambantota","photo_link":"../image/data/001/attractions/Main-Images/Yala-1.jpg","desrciption":"Yala National Park is the most visited and second largest national park in Sri Lanka. The park consists of five blocks two of which are now open to the public and also adjoining parks.","tourism_webiste_link":"http://www.srilanka.travel/attraction&attraction_id=163"},"geometry":{"x":81.401821000000041,"y":6.2792810000000259}},{"attributes":{"objectid":168,"name":"Yapahuwa rock fortress","address":"","type":"Attractions","latitude":7.816953,"longitude":80.317363,"id":"1780","district":"Kurunegala","photo_link":"../image/data/001/Attraction01/Yapahuwa/Yapahuwa-1.jpg","desrciption":"This was the fourth ancient kindom in Sri Lanka.","tourism_webiste_link":"http://www.srilanka.travel/attraction&attraction_id=184"},"geometry":{"x":80.317363000000057,"y":7.8169530000000691}}]}